[{"name": "Copeman Healthcare Brain Health Services", "address": "906 16 Ave SW #301g, Calgary, AB T2R 0T3", "city": "Calgary", "state": "Alberta", "state_code": "", "phone": "+1 403-907-0822", "website": "", "rating": "", "reviews": "", "place_id": "ChIJ3dc59bhxcVMRxRNAjTCr7ZM", "latitude": 51.0384573, "longitude": -114.0822846, "subtypes": "Neurologist"}, {"name": "Dr. Makus", "address": "625 Parsons Rd SW #201, Edmonton, AB T6X 0N9", "city": "Edmonton", "state": "Alberta", "state_code": "", "phone": "+1 780-454-3344", "website": "http://kmakusmd.com/", "rating": 4.5, "reviews": 24, "place_id": "ChIJsasmodEjoFMR_LQVf2ocgkw", "latitude": 53.4278551, "longitude": -113.478714, "subtypes": "Neurologist"}, {"name": "Jakub Surkont", "address": "625 Parsons Rd SW, Edmonton, AB T6X 0N9", "city": "Edmonton", "state": "Alberta", "state_code": "", "phone": "", "website": "", "rating": 5, "reviews": 2, "place_id": "ChIJOf8oKAAfoFMROOyLGCVs0FA", "latitude": 53.4280084, "longitude": -113.479063, "subtypes": "Neurologist"}, {"name": "N. J. Witt M.D.", "address": "10816 124 St, Edmonton, AB T5M 0H3", "city": "Edmonton", "state": "Alberta", "state_code": "", "phone": "+1 780-454-3800", "website": "", "rating": 3.4, "reviews": 48, "place_id": "ChIJ_1AXodEjoFMRcjG4jSN3kAc", "latitude": 53.5531346, "longitude": -113.5361689, "subtypes": "Neurologist"}, {"name": "Jodi Kashmere Professional Corporation", "address": "10820 124 St, Edmonton, AB T5M 0H3", "city": "Edmonton", "state": "Alberta", "state_code": "", "phone": "+1 780-444-4890", "website": "", "rating": 3.2, "reviews": 13, "place_id": "ChIJRUpKodEjoFMRpruotZjcWkg", "latitude": 53.553199, "longitude": -113.5361252, "subtypes": "Neurologist"}, {"name": "Spinal Care Canada", "address": "505 Queen St #204, Spruce Grove, AB T7X 2V2", "city": "Spruce Grove", "state": "Alberta", "state_code": "", "phone": "+1 780-800-4728", "website": "http://www.edmontonbackpainrelief.com/", "rating": "", "reviews": "", "place_id": "ChIJAQDArfGOn1MRBiuWKjGflRY", "latitude": 53.5449117, "longitude": -113.9069111, "subtypes": "Neurologist"}, {"name": "Dr D'souza", "address": "6040 Andrews Way SW, Edmonton, AB T6W 3S9", "city": "Edmonton", "state": "Alberta", "state_code": "", "phone": "", "website": "", "rating": "", "reviews": "", "place_id": "ChIJccNDVgD1n1MRLH2QDhpg7P0", "latitude": 53.4303101, "longitude": -113.5921861, "subtypes": "Neurologist"}, {"name": "Central Neurology Clinic- Dr. Oje Imoukhuede", "address": "5212 48 St C 201, Red Deer, AB T4N 7C3", "city": "Red Deer", "state": "Alberta", "state_code": "", "phone": "+1 587-457-0069", "website": "", "rating": 2.8, "reviews": 22, "place_id": "ChIJEXX88SRUdFMRCalO7pR9RQY", "latitude": 52.2682756, "longitude": -113.8193089, "subtypes": "Neurologist"}, {"name": "Bestard Jennifer Dr", "address": "5201 43 St, Red Deer, AB T4N 1C7", "city": "Red Deer", "state": "Alberta", "state_code": "", "phone": "+1 403-340-1553", "website": "", "rating": 4.5, "reviews": 8, "place_id": "ChIJN6K5ESFUdFMRcpkXXR3l-RI", "latitude": 52.26209369999999, "longitude": -113.8207809, "subtypes": "Neurologist"}]