[{"name": "Sabra Becker, PA-C", "address": "1914 E Main St, Torrington, CT 06790", "city": "Torrington", "state": "Connecticut", "state_code": "CT", "phone": "+1 860-626-8232", "website": "https://hartfordhealthcaremedicalgroup.org/SabraBecker", "rating": 4.8, "reviews": 62, "place_id": "ChIJs113jAWZ54kR1OkXaN9OI70", "latitude": 41.8187248, "longitude": -73.07622119999999, "subtypes": "Neurologist"}, {"name": "Babigian Armen T MD", "address": "61 Commercial Blvd, Torrington, CT 06790", "city": "Torrington", "state": "Connecticut", "state_code": "CT", "phone": "+1 860-496-1022", "website": "", "rating": 2, "reviews": 5, "place_id": "ChIJGa2ky7uY54kRKVj9ZnJjzqc", "latitude": 41.8254184, "longitude": -73.103797, "subtypes": "Neurologist"}, {"name": "Peter Rudzinskiy Md", "address": "Lower Back Left Of Building, 1185 New Litchfield St, Torrington, CT 06790", "city": "Torrington", "state": "Connecticut", "state_code": "CT", "phone": "", "website": "", "rating": "", "reviews": "", "place_id": "ChIJ9w0rBMiZ54kR-ye9BguanbQ", "latitude": 41.7859602, "longitude": -73.14647289999999, "subtypes": "Neurologist"}, {"name": "Conway Stephen R MD", "address": "85 Seymour St, Hartford, CT 06106", "city": "Hartford", "state": "Connecticut", "state_code": "CT", "phone": "+1 860-522-4429", "website": "", "rating": 3.4, "reviews": 17, "place_id": "ChIJZ6_-S2tT5okRpfiV4Qzra7w", "latitude": 41.7545043, "longitude": -72.6812432, "subtypes": "Neurologist"}, {"name": "Trinity Health Of New England Medical Group \u2013 Neurology", "address": "1579 Straits Turnpike STE 2A, Middlebury, CT 06762", "city": "Middlebury", "state": "Connecticut", "state_code": "CT", "phone": "+1 203-758-8995", "website": "https://www.trinityhealthofne.org/location/trinity-health-of-new-england-medical-group-neurology-1", "rating": 4.5, "reviews": 150, "place_id": "ChIJ5f4q6Xbq54kRBDzEZzXE2JE", "latitude": 42, "longitude": -73, "subtypes": "Neurologist"}, {"name": "Xiao Weng, MD", "address": "1579 Straits Turnpike STE 2A, Middlebury, CT 06762", "city": "Middlebury", "state": "Connecticut", "state_code": "CT", "phone": "+1 203-758-8995", "website": "https://www.trinityhealthofne.org/provider/xiao-jun-weng-md-neurology", "rating": 4.9, "reviews": 152, "place_id": "ChIJv4vn4fDr54kRA3daQjeyzoA", "latitude": 41.5519073, "longitude": -73.0950009, "subtypes": "Neurologist"}, {"name": "Katherine Kedzierski, MD", "address": "1579 Straits Turnpike STE 2A, Middlebury, CT 06762", "city": "Middlebury", "state": "Connecticut", "state_code": "CT", "phone": "+1 203-758-8995", "website": "https://www.trinityhealthofne.org/provider/katherine-kedzierski-md-neurology", "rating": 4.8, "reviews": 179, "place_id": "ChIJB6eWNXfq54kR00Hkz8ECLA8", "latitude": 41.5519079, "longitude": -73.0949984, "subtypes": "Neurologist"}, {"name": "Dr. Victor Ylagan", "address": "1625 Straits Turnpike Suite 304A, Middlebury, CT 06762", "city": "Middlebury", "state": "Connecticut", "state_code": "CT", "phone": "+1 203-568-2959", "website": "https://www.alliancemedicalgroup.com/providers/victor-ylagan/", "rating": 3, "reviews": 6, "place_id": "ChIJ6bPIkFLr54kRrejcByj6EcM", "latitude": 41.5541371, "longitude": -73.09375159999999, "subtypes": "Neurologist"}, {"name": "Pooia Fattahi, MD", "address": "1579 Straits Turnpike STE 2A, Middlebury, CT 06762", "city": "Middlebury", "state": "Connecticut", "state_code": "CT", "phone": "+1 203-758-8995", "website": "https://www.trinityhealthofne.org/provider/pooia-fattahi-md-neurology", "rating": 4.8, "reviews": 211, "place_id": "ChIJX90q6Xbq54kR0QsFt4CJW1Q", "latitude": 41.5519073, "longitude": -73.0950009, "subtypes": "Neurologist"}, {"name": "Aleksandr Isakov, MD", "address": "1579 Straits Turnpike STE 2A, Middlebury, CT 06762", "city": "Middlebury", "state": "Connecticut", "state_code": "CT", "phone": "+1 203-758-8995", "website": "https://www.trinityhealthofne.org/provider/aleksandr-isakov-md-neurology", "rating": 4.7, "reviews": 170, "place_id": "ChIJVVVVCeVgwokR_W4d1N1Y4xY", "latitude": 41.5519073, "longitude": -73.0950009, "subtypes": "Neurologist"}, {"name": "Dr. Cara Pittari, MD - Alliance Medical Group", "address": "1625 Straits Turnpike Suite 304A, Middlebury, CT 06762", "city": "Middlebury", "state": "Connecticut", "state_code": "CT", "phone": "+1 203-568-2959", "website": "https://www.alliancemedicalgroup.com/provider/cara-pittari-md/", "rating": 3.3, "reviews": 4, "place_id": "ChIJXbbuWt_r54kRZWY-yhh_0NY", "latitude": 41.5541371, "longitude": -73.09375159999999, "subtypes": "Neurologist"}, {"name": "Dr. Kenneth Kaplove", "address": "1625 Straits Turnpike #307, Middlebury, CT 06762", "city": "Middlebury", "state": "Connecticut", "state_code": "CT", "phone": "+1 203-758-8995", "website": "", "rating": "", "reviews": "", "place_id": "ChIJpWgpNXfq54kRs4Zi2WtzrIU", "latitude": 41.5542096, "longitude": -73.0936249, "subtypes": "Neurologist"}, {"name": "Mandell MS Center-Waterbury", "address": "Rehabilitation Department, 56 Franklin St, Waterbury, CT 06706", "city": "Waterbury", "state": "Connecticut", "state_code": "CT", "phone": "+1 203-709-6500", "website": "https://www.trinityhealthofne.org/location/mandell-ms-center-waterbury", "rating": 4.8, "reviews": 22, "place_id": "ChIJuURYSWjB54kRx9sjCV5l_-I", "latitude": 41.5527404, "longitude": -73.0367139, "subtypes": "Neurologist"}, {"name": "Gyula Acsadi, MD", "address": "505 Farmington Ave 2nd Floor, Farmington, CT 06032", "city": "Farmington", "state": "Connecticut", "state_code": "CT", "phone": "+1 860-837-7500", "website": "https://www.connecticutchildrens.org/about-us/find-a-doctor/gyula-acsadi-md/", "rating": 5, "reviews": 10, "place_id": "ChIJUSi43hRT5okR03M3tm69YXA", "latitude": 41.7251422, "longitude": -72.8050645, "subtypes": "Pediatric neurologist"}, {"name": "William D. Graf, MD", "address": "505 Farmington Ave 2nd Floor, Farmington, CT 06032", "city": "Farmington", "state": "Connecticut", "state_code": "CT", "phone": "+1 860-837-7500", "website": "https://www.connecticutchildrens.org/about-us/find-a-doctor/william-graf-md/", "rating": 5, "reviews": 3, "place_id": "ChIJWyu82Uiv54kRHGRx_LEUGus", "latitude": 41.7251422, "longitude": -72.8050645, "subtypes": "Neurologist"}, {"name": "Middlesex Health Neurology - Middletown", "address": "80 S Main St, Middletown, CT 06457", "city": "Middletown", "state": "Connecticut", "state_code": "CT", "phone": "+1 860-358-5970", "website": "http://middlesexhealth.org/location-finder/middlesex-health-neurology-middletown", "rating": 2.8, "reviews": 18, "place_id": "ChIJXSaDR2hK5okRnoZMLII2fak", "latitude": 41.5541921, "longitude": -72.6485722, "subtypes": "Neurologist"}, {"name": "Jeffrey Lahrmann, MD", "address": "35 Talcottville Rd #6, Vernon, CT 06066", "city": "Vernon", "state": "Connecticut", "state_code": "CT", "phone": "+1 860-870-6385", "website": "https://hartfordhealthcaremedicalgroup.org/JeffreyLahrmann", "rating": 4.7, "reviews": 24, "place_id": "ChIJo-7yP8735okRS4OWdQJ5qMw", "latitude": 41.82727939999999, "longitude": -72.4973274, "subtypes": "Neurologist"}, {"name": "Joseph Mascolo, APRN", "address": "35 Talcottville Rd # 6, Vernon, CT 06066", "city": "Vernon", "state": "Connecticut", "state_code": "CT", "phone": "+1 860-870-6385", "website": "https://hartfordhealthcaremedicalgroup.org/JosephMascolo", "rating": 4.8, "reviews": 44, "place_id": "ChIJZa2UM8r35okRMteIEzCxpNM", "latitude": 41.82703, "longitude": -72.49852, "subtypes": "Neurologist"}, {"name": "Clifton Lewis, DO", "address": "35 Talcottville Rd # 6, Vernon, CT 06066", "city": "Vernon", "state": "Connecticut", "state_code": "CT", "phone": "+1 860-870-6385", "website": "https://hartfordhealthcaremedicalgroup.org/CliftonLewis", "rating": 4.9, "reviews": 10, "place_id": "ChIJ13uj1yD35okR7kOTTrEwuyc", "latitude": 41.8270494, "longitude": -72.4988675, "subtypes": "Neurologist"}, {"name": "David & Rhoda Chase Family Movement Disorders Center", "address": "35 Talcottville Rd # 6, Vernon, CT 06066", "city": "Vernon", "state": "Connecticut", "state_code": "CT", "phone": "+1 860-870-6385", "website": "https://hartfordhealthcare.org/services/movement-disorders-center/service-locations", "rating": 5, "reviews": 1, "place_id": "ChIJWZSJ7q_35okRbxag4f9yc3I", "latitude": 41.8270494, "longitude": -72.4988675, "subtypes": "Neurologist"}, {"name": "Jennifer A. Caruso PsyD", "address": "35 Talcottville Rd # 29, Vernon, CT 06066", "city": "Vernon", "state": "Connecticut", "state_code": "CT", "phone": "+1 860-870-6385", "website": "https://hartfordhealthcaremedicalgroup.org/JenniferCaruso", "rating": 4.6, "reviews": 14, "place_id": "ChIJLdcLy-D35okRIwh5uZxi3RY", "latitude": 41.8270494, "longitude": -72.4988675, "subtypes": "Neurologist"}, {"name": "Nicole Truszkowski, PA-C", "address": "35 Talcottville Rd # 6, Vernon, CT 06066", "city": "Vernon", "state": "Connecticut", "state_code": "CT", "phone": "+1 860-870-6385", "website": "https://hartfordhealthcaremedicalgroup.org/NicoleTruszkowski", "rating": 5, "reviews": 6, "place_id": "ChIJERxgIDf35okRXWLLDZZNFvc", "latitude": 41.8270494, "longitude": -72.4988675, "subtypes": "Neurologist"}, {"name": "Sheena Mehta PA-C", "address": "65 Memorial Rd #508, West Hartford, CT 06107", "city": "West Hartford", "state": "Connecticut", "state_code": "CT", "phone": "+1 860-696-2925", "website": "https://hartfordhealthcaremedicalgroup.org/SheenaMehta", "rating": 4.9, "reviews": 88, "place_id": "ChIJczvHDOys54kRrCriytezITg", "latitude": 41.7596232, "longitude": -72.7398813, "subtypes": "Neurologist"}, {"name": "Brian M. Grosberg MD", "address": "65 Memorial Rd #508, West Hartford, CT 06107", "city": "West Hartford", "state": "Connecticut", "state_code": "CT", "phone": "+1 860-696-2925", "website": "https://hartfordhealthcaremedicalgroup.org/BrianGrosberg", "rating": 4.8, "reviews": 126, "place_id": "ChIJP3BZbeys54kROD-eXa9JflU", "latitude": 41.7596134, "longitude": -72.73973289999999, "subtypes": "Neurologist"}, {"name": "Trinity Health Of New England - Neurology", "address": "1000 Asylum Ave # 2112, Hartford, CT 06105", "city": "Hartford", "state": "Connecticut", "state_code": "CT", "phone": "+1 860-522-3711", "website": "https://www.trinityhealthofne.org/location/trinity-health-of-new-england-medical-group-neurology-1", "rating": 4.5, "reviews": 75, "place_id": "ChIJv9-pMrBT5okRnW9Ci--PWeY", "latitude": 41.77288859999999, "longitude": -72.6987123, "subtypes": "Neurologist"}, {"name": "Trinity Health Of New England Medical Group - Pain Neurology", "address": "1000 Asylum Ave #2102, Hartford, CT 06105", "city": "Hartford", "state": "Connecticut", "state_code": "CT", "phone": "+1 860-714-9953", "website": "", "rating": 5, "reviews": 9, "place_id": "ChIJ5ZRR9r9T5okRqjOdfOA_tYQ", "latitude": 41.7728885, "longitude": -72.6987123, "subtypes": "Neurologist"}, {"name": "Arjuna Mannam, MD", "address": "1000 Asylum Ave # 2112, Hartford, CT 06105", "city": "Hartford", "state": "Connecticut", "state_code": "CT", "phone": "+1 860-522-3711", "website": "https://www.trinityhealthofne.org/provider/arjuna-prasad-mannam-md-neurology", "rating": 4.6, "reviews": 149, "place_id": "ChIJ92EVVldT5okR0uMs3pWIWtM", "latitude": 41.77288859999999, "longitude": -72.6987123, "subtypes": "Neurologist"}, {"name": "Veeresh Kumar Nanjangud Shivamurthy, MD", "address": "1000 Asylum Ave # 2112, Hartford, CT 06105", "city": "Hartford", "state": "Connecticut", "state_code": "CT", "phone": "+1 860-522-3711", "website": "https://www.trinityhealthofne.org/provider/veeresh-kumar-nanjangud-shivamurthy-md-neurology", "rating": 4.9, "reviews": 190, "place_id": "ChIJl8fnTrFT5okRtR5rnJij71g", "latitude": 41.77288859999999, "longitude": -72.6987123, "subtypes": "Neurologist"}, {"name": "The Ayer Neuroscience Institute", "address": "360 Bloomfield Ave Suite 209, Windsor, CT 06095", "city": "Windsor", "state": "Connecticut", "state_code": "CT", "phone": "+1 860-688-1311", "website": "https://hartfordhealthcare.org/services/neuroscience/locations/locations-detail%3Fid%3Da1Pj0000000p2a3EAA", "rating": 3, "reviews": 2, "place_id": "ChIJTf8sqyH_5okRioQ1LxiGK6Y", "latitude": 41.8542917, "longitude": -72.662854, "subtypes": "Neurosurgeon"}, {"name": "Conway Stephen R MD", "address": "85 Seymour St, Hartford, CT 06106", "city": "Hartford", "state": "Connecticut", "state_code": "CT", "phone": "+1 860-522-4429", "website": "", "rating": 3.4, "reviews": 17, "place_id": "ChIJZ6_-S2tT5okRpfiV4Qzra7w", "latitude": 41.7545043, "longitude": -72.6812432, "subtypes": "Neurologist"}, {"name": "The Stroke Center at Saint Francis", "address": "1000 Asylum Ave # 2112, Hartford, CT 06105", "city": "Hartford", "state": "Connecticut", "state_code": "CT", "phone": "+1 860-522-3711", "website": "https://www.trinityhealthofne.org/location/trinity-health-of-new-england-medical-group-neuro-stroke", "rating": 4.8, "reviews": 115, "place_id": "ChIJD_zAs8dT5okRzvL5ZCCrqXA", "latitude": 41.7728885, "longitude": -72.6987123, "subtypes": "Neurologist"}, {"name": "Ashmanie Mahatoo, MD", "address": "1000 Asylum Ave # 2112, Hartford, CT 06105", "city": "Hartford", "state": "Connecticut", "state_code": "CT", "phone": "+1 860-522-3711", "website": "https://www.trinityhealthofne.org/provider/ashmanie-mahatoo-md-neurology", "rating": 5, "reviews": 108, "place_id": "ChIJhWp9waBT5okRsHtdaZ07nlg", "latitude": 41.77288859999999, "longitude": -72.6987123, "subtypes": "Neurologist"}, {"name": "Bluth Lawrence S MD", "address": "85 Seymour St #800, Hartford, CT 06106", "city": "Hartford", "state": "Connecticut", "state_code": "CT", "phone": "+1 860-522-4429", "website": "https://weence.com/medical/doctors/hartford-4/bluth-lawrence-s-md/", "rating": 3.9, "reviews": 12, "place_id": "ChIJZ6_-S2tT5okRzIQC4KlOcU4", "latitude": 41.7545043, "longitude": -72.6812432, "subtypes": "Neurologist"}, {"name": "Mandell Center for Comprehensive Multiple Sclerosis Care and Neuroscience Research", "address": "490 Blue Hills Ave, Hartford, CT 06112", "city": "Hartford", "state": "Connecticut", "state_code": "CT", "phone": "+1 860-714-2149", "website": "https://www.trinityhealthofne.org/find-a-service-or-specialty/multiple-sclerosis/", "rating": 4.6, "reviews": 90, "place_id": "ChIJ_Tl8fMZU5okRidfRfpGCeVQ", "latitude": 41.8000519, "longitude": -72.6945989, "subtypes": "Neurologist"}, {"name": "Nirav Sanghani, MD", "address": "1000 Asylum Ave # 2112, Hartford, CT 06105", "city": "Hartford", "state": "Connecticut", "state_code": "CT", "phone": "+1 860-522-3711", "website": "https://www.trinityhealthofne.org/provider/nirav-sanghani-md-neurology", "rating": 4.9, "reviews": 88, "place_id": "ChIJAQCwaFdT5okROt3i5A_9Spk", "latitude": 41.77288859999999, "longitude": -72.6987123, "subtypes": "Neurologist"}, {"name": "Mary Bailey, MD", "address": "490 Blue Hills Ave, Hartford, CT 06112", "city": "Hartford", "state": "Connecticut", "state_code": "CT", "phone": "+1 860-714-2149", "website": "https://www.trinityhealthofne.org/provider/mary-bailey-md-neurology", "rating": 4.9, "reviews": 114, "place_id": "ChIJXZ2XgUtV5okRSi48fuvvJTM", "latitude": 41.8000519, "longitude": -72.6945989, "subtypes": "Neurologist"}, {"name": "Mary Calnen, PA-C", "address": "65 Memorial Rd #508, West Hartford, CT 06107", "city": "West Hartford", "state": "Connecticut", "state_code": "CT", "phone": "+1 860-696-2925", "website": "https://hartfordhealthcaremedicalgroup.org/MaryCalnen", "rating": 4.7, "reviews": 23, "place_id": "ChIJkQlHJRet54kRvGZEPT1jrd0", "latitude": 41.7596134, "longitude": -72.7397328, "subtypes": "Neurologist"}, {"name": "Andrew Wakefield, MD", "address": "360 Bloomfield Ave Suite 209, Windsor, CT 06095", "city": "Windsor", "state": "Connecticut", "state_code": "CT", "phone": "+1 860-688-1311", "website": "https://hartfordhealthcaremedicalgroup.org/AndrewWakefield", "rating": 4.8, "reviews": 89, "place_id": "ChIJ0axi_4H_5okR7Gluzog2BV0", "latitude": 41.8544311, "longitude": -72.6629104, "subtypes": "Neurosurgeon"}, {"name": "Sean Brennan, PA-C", "address": "360 Bloomfield Ave Suite 209, Windsor, CT 06095", "city": "Windsor", "state": "Connecticut", "state_code": "CT", "phone": "+1 860-688-1311", "website": "https://hartfordhealthcaremedicalgroup.org/SeanBrennan", "rating": 4.9, "reviews": 61, "place_id": "ChIJDauxi8f_5okRzGuoSZRyQ1U", "latitude": 41.8542917, "longitude": -72.662854, "subtypes": "Neurosurgeon"}, {"name": "Stephanie Alessi-LaRosa, MD", "address": "85 Seymour St #1009, Hartford, CT 06106", "city": "Hartford", "state": "Connecticut", "state_code": "CT", "phone": "+1 860-524-4330", "website": "https://hartfordhealthcaremedicalgroup.org/StephanieAlessiLarosa", "rating": 4.8, "reviews": 38, "place_id": "ChIJ4-K_jUNT5okRxBrsvuuUrBk", "latitude": 41.7545042, "longitude": -72.6812431, "subtypes": "Neurologist"}, {"name": "Dr. Isaac E. Silverman, MD", "address": "85 Seymour St #800, Hartford, CT 06106", "city": "Hartford", "state": "Connecticut", "state_code": "CT", "phone": "+1 860-522-4429", "website": "", "rating": 5, "reviews": 2, "place_id": "ChIJZ6_-S2tT5okRF_unlX66_F0", "latitude": 41.7545043, "longitude": -72.6812432, "subtypes": "Neurologist"}, {"name": "Dimitre Mirtchev, MD", "address": "1000 Asylum Ave # 2112, Hartford, CT 06105", "city": "Hartford", "state": "Connecticut", "state_code": "CT", "phone": "+1 860-522-3711", "website": "https://www.trinityhealthofne.org/provider/dimitre-mirtchev-md-neurology", "rating": 4.9, "reviews": 26, "place_id": "ChIJYWeXuptT5okR2n3ucqzNSM0", "latitude": 41.77288859999999, "longitude": -72.6987123, "subtypes": "Neurologist"}, {"name": "Gyula Acsadi, MD", "address": "505 Farmington Ave 2nd Floor, Farmington, CT 06032", "city": "Farmington", "state": "Connecticut", "state_code": "CT", "phone": "+1 860-837-7500", "website": "https://www.connecticutchildrens.org/about-us/find-a-doctor/gyula-acsadi-md/", "rating": 5, "reviews": 10, "place_id": "ChIJUSi43hRT5okR03M3tm69YXA", "latitude": 41.7251422, "longitude": -72.8050645, "subtypes": "Pediatric neurologist"}, {"name": "Kaveh Barami, MD", "address": "1000 Asylum Ave #3215, Hartford, CT 06105", "city": "Hartford", "state": "Connecticut", "state_code": "CT", "phone": "+1 860-714-6980", "website": "https://www.trinityhealthofne.org/provider/kaveh-barami-md-neurological-surgery", "rating": 4.6, "reviews": 60, "place_id": "ChIJ_fMkMS9T5okRaIKLL7YJvf0", "latitude": 41.7724808, "longitude": -72.6984222, "subtypes": "Neurosurgeon"}, {"name": "Swetha Ade, MD", "address": "85 Seymour St #815, Hartford, CT 06106", "city": "Hartford", "state": "Connecticut", "state_code": "CT", "phone": "+1 860-972-3600", "website": "https://hartfordhealthcaremedicalgroup.org/SwethaAde", "rating": 4.8, "reviews": 24, "place_id": "ChIJzZfZ2rhT5okR45tPW85wBBA", "latitude": 41.7544767, "longitude": -72.6820975, "subtypes": "Neurologist"}, {"name": "Dr. Matthew Imperioli", "address": "263 Farmington Ave, Farmington, CT 06032", "city": "Farmington", "state": "Connecticut", "state_code": "CT", "phone": "+1 860-679-4888", "website": "", "rating": 3.8, "reviews": 4, "place_id": "ChIJDQk6ocKt54kRHcVr7x4ZPjc", "latitude": 41.7327995, "longitude": -72.79110589999999, "subtypes": "Neurologist"}, {"name": "Muhammad Azeem, MD", "address": "1000 Asylum Ave # 2112, Hartford, CT 06105", "city": "Hartford", "state": "Connecticut", "state_code": "CT", "phone": "+1 860-522-3711", "website": "https://www.trinityhealthofne.org/provider/muhammad-umer-azeem-md-neurology", "rating": 4.8, "reviews": 33, "place_id": "ChIJXS5sLW9T5okRcZiNpEfFmoQ", "latitude": 41.77288859999999, "longitude": -72.6987123, "subtypes": "Neurologist"}, {"name": "Duarte G. Machado MD", "address": "280 S Main St #102, Cheshire, CT 06410", "city": "Cheshire", "state": "Connecticut", "state_code": "CT", "phone": "+1 860-870-6385", "website": "https://hartfordhealthcaremedicalgroup.org/DuarteMachado", "rating": 5, "reviews": 63, "place_id": "ChIJLdcLy-D35okR6Fbav8_703Y", "latitude": 41.494667, "longitude": -72.9028625, "subtypes": "Neurologist"}, {"name": "Emma Woodward, PA-C", "address": "65 Memorial Rd #508, West Hartford, CT 06107", "city": "West Hartford", "state": "Connecticut", "state_code": "CT", "phone": "+1 860-696-2925", "website": "https://hartfordhealthcaremedicalgroup.org/EmmaWoodward", "rating": 5, "reviews": 15, "place_id": "ChIJlfvQT7Ct54kRsLzxHvmL-yo", "latitude": 41.7596134, "longitude": -72.73973289999999, "subtypes": "Neurologist"}, {"name": "Dr. Gary H. Belt, MD", "address": "580 Cottage Grove Rd Ste 106, Bloomfield, CT 06002", "city": "Bloomfield", "state": "Connecticut", "state_code": "CT", "phone": "+1 860-243-9709", "website": "", "rating": "", "reviews": "", "place_id": "ChIJOaGpLSer54kRxUTwIuiIwQY", "latitude": 41.818154, "longitude": -72.726902, "subtypes": "Neurologist"}, {"name": "Shakaib Qureshi, MD", "address": "1000 Asylum Ave # 2112, Hartford, CT 06105", "city": "Hartford", "state": "Connecticut", "state_code": "CT", "phone": "+1 860-522-3711", "website": "https://www.trinityhealthofne.org/provider/shakaib-qureshi-md-neurology", "rating": 4.5, "reviews": 25, "place_id": "ChIJLwHySqhT5okRgLS-Px2-gyk", "latitude": 41.77288859999999, "longitude": -72.6987123, "subtypes": "Neurologist"}, {"name": "Mr. Gregory Taylor", "address": "34 Jerome Ave STE 204, Bloomfield, CT 06002", "city": "Bloomfield", "state": "Connecticut", "state_code": "CT", "phone": "+1 860-216-6641", "website": "", "rating": "", "reviews": "", "place_id": "ChIJVVWlpueq54kRaKH6xkGV6KE", "latitude": 41.8279364, "longitude": -72.7352537, "subtypes": "Neurologist"}, {"name": "Hartford HealthCare Headache Center", "address": "65 Memorial Rd #508, West Hartford, CT 06107", "city": "West Hartford", "state": "Connecticut", "state_code": "CT", "phone": "+1 860-696-2925", "website": "https://hartfordhealthcare.org/services/headache-center/service-locations", "rating": 3.4, "reviews": 52, "place_id": "ChIJrdyb_LGt54kRjXhWPahWquw", "latitude": 41.7596134, "longitude": -72.73973289999999, "subtypes": "Neurologist"}, {"name": "Damian Moskal, MD", "address": "114 Woodland St, Hartford, CT 06105", "city": "Hartford", "state": "Connecticut", "state_code": "CT", "phone": "+1 860-714-4000", "website": "https://www.trinityhealthofne.org/provider/damian-moskal-md-neurology%3Futm_source%3DTHONE-google%26utm_medium%3Dgmb%26utm_campaign%3Dneurology%26utm_id%3Dreputation", "rating": 5, "reviews": 1, "place_id": "ChIJz2mz2lTl5okRs1WeIiFis4Y", "latitude": 41.7737671, "longitude": -72.6991549, "subtypes": "Neurologist"}, {"name": "The Ayer Neuroscience Institute Seizure and Epilepsy Clinic", "address": "2660 Main St #219, Bridgeport, CT 06606", "city": "Bridgeport", "state": "Connecticut", "state_code": "CT", "phone": "+1 203-332-1949", "website": "https://hartfordhealthcare.org/services/neurosciences/service-locations/st-vincents-medical-group", "rating": "", "reviews": "", "place_id": "ChIJESXBJWkP6IkR5PsbeX41GMY", "latitude": 41.1989468, "longitude": -73.2015426, "subtypes": "Neurologist"}, {"name": "Dr. Bernardo Rodrigues", "address": "263 Farmington Ave, Farmington, CT 06032", "city": "Farmington", "state": "Connecticut", "state_code": "CT", "phone": "+1 860-679-4888", "website": "https://facultydirectory.uchc.edu/profile%3FprofileId%3DRodrigues-Bernardo", "rating": "", "reviews": "", "place_id": "ChIJDQk6ocKt54kRYa916roJA-I", "latitude": 41.7327995, "longitude": -72.79110589999999, "subtypes": "Neurologist"}, {"name": "The Ayer Neuroscience Institute", "address": "One Towne Park Plz, Norwich, CT 06360", "city": "Norwich", "state": "Connecticut", "state_code": "CT", "phone": "+1 860-889-9035", "website": "https://hartfordhealthcaremedicalgroup.org/locations/location-details%3Fid%3Da1P5b00000IUCWuEAP", "rating": 3, "reviews": 4, "place_id": "ChIJH3RhDAFx5okRE92uv5IfbVQ", "latitude": 41.5532772, "longitude": -72.0823688, "subtypes": "Neurologist"}, {"name": "David Spiro, DO", "address": "1000 Asylum Ave # 4304, Hartford, CT 06105", "city": "Hartford", "state": "Connecticut", "state_code": "CT", "phone": "+1 860-714-6980", "website": "https://www.trinityhealthofne.org/provider/david-m-spiro-do-neurological-surgery", "rating": 4.7, "reviews": 131, "place_id": "ChIJ7aDE_VlT5okRGWkJRiX4vKw", "latitude": 41.7726954, "longitude": -72.6985645, "subtypes": "Neurosurgeon"}, {"name": "Yolanda M Pena Md", "address": "40 Dale Rd #203, Avon, CT 06001", "city": "Avon", "state": "Connecticut", "state_code": "CT", "phone": "+1 860-676-8115", "website": "", "rating": 3, "reviews": 6, "place_id": "ChIJqXfclMSo54kRsy2n9UgZKPk", "latitude": 41.8122803, "longitude": -72.863502, "subtypes": "Neurologist"}, {"name": "NeuroHealth of Connecticut", "address": "15 N Main St Suite 100, West Hartford, CT 06107", "city": "West Hartford", "state": "Connecticut", "state_code": "CT", "phone": "+1 860-519-5227", "website": "https://neurohealthct.com/", "rating": 5, "reviews": 7, "place_id": "ChIJjSNN3Bqt54kRf-JPIRG9aSA", "latitude": 41.7629262, "longitude": -72.74210529999999, "subtypes": "Neurophysiologist"}, {"name": "Payam Moein, MD", "address": "79 Sand Pit Rd Suite 301, Danbury, CT 06810", "city": "Danbury", "state": "Connecticut", "state_code": "CT", "phone": "+1 203-748-2551", "website": "https://findcare.nuvancehealth.org/provider/payam-moein/2006678%3Fy_source%3D1_Mjk5MzQ2ODYtNzE1LWxvY2F0aW9uLndlYnNpdGU%253D", "rating": 5, "reviews": 1, "place_id": "ChIJkWULSTD_54kRe6gvQzYMXus", "latitude": 41.411591, "longitude": -73.43168419999999, "subtypes": "Neurologist"}, {"name": "Berland Robert H MD", "address": "100 Wells St # 1b, Hartford, CT 06103", "city": "Hartford", "state": "Connecticut", "state_code": "CT", "phone": "+1 860-278-8937", "website": "", "rating": 2.5, "reviews": 11, "place_id": "ChIJV-6vRGVT5okRV9QSnxwraiI", "latitude": 41.7634237, "longitude": -72.675313, "subtypes": "Neurologist"}, {"name": "Dr. Alexander P. Miano, MD", "address": "701 Cottage Grove Rd # B230, Bloomfield, CT 06002", "city": "Bloomfield", "state": "Connecticut", "state_code": "CT", "phone": "+1 860-243-8425", "website": "", "rating": "", "reviews": "", "place_id": "ChIJE1QmFh-r54kRw6_kZFkTPKs", "latitude": 41.8164321, "longitude": -72.7344013, "subtypes": "Neurologist"}, {"name": "Javed Khader Eliyas, MD", "address": "1000 Asylum Ave # 4304, Hartford, CT 06105", "city": "Hartford", "state": "Connecticut", "state_code": "CT", "phone": "+1 860-714-6980", "website": "https://www.trinityhealthofne.org/provider/javed-khader-eliyas-md-neurological-surgery%3Futm_source%3DTHONE-google%26utm_medium%3Dgmb%26utm_campaign%3Dneurosurgery%26utm_id%3Dreputation", "rating": 4.9, "reviews": 47, "place_id": "ChIJL5HxmP5T5okRkPl_Zcj_xHA", "latitude": 41.7726954, "longitude": -72.6985645, "subtypes": "Neurosurgeon"}, {"name": "Dr. Michael Krinsky", "address": "580 Cottage Grove Rd Ste 106, Bloomfield, CT 06002", "city": "Bloomfield", "state": "Connecticut", "state_code": "CT", "phone": "+1 860-243-9709", "website": "", "rating": "", "reviews": "", "place_id": "ChIJB1hKSCer54kRDh3Coc_MjRQ", "latitude": 41.8180142, "longitude": -72.7268838, "subtypes": "Neurologist"}, {"name": "Dr. Jaime Imitola Herrera MD", "address": "135 Dowling Way, Farmington, CT 06030", "city": "Farmington", "state": "Connecticut", "state_code": "CT", "phone": "", "website": "https://health.uconn.edu/find-a-provider/physician/Imitola%2520Herrera-Jaime", "rating": "", "reviews": "", "place_id": "ChIJq0tIWQdhOIgRZV7KhDqr02U", "latitude": 41.7341065, "longitude": -72.7901122, "subtypes": "Neurologist"}, {"name": "Mark Schomer, MD", "address": "85 Seymour St, Hartford, CT 06106", "city": "Hartford", "state": "Connecticut", "state_code": "CT", "phone": "+1 860-837-7500", "website": "https://www.connecticutchildrens.org/about-us/find-a-doctor/mark-l-schomer-md/", "rating": 4.2, "reviews": 5, "place_id": "ChIJr-Esc1BR5okRwv8zGimPKe8", "latitude": 41.7544767, "longitude": -72.6820975, "subtypes": "Pediatric neurologist"}, {"name": "Richard S. Young, MD", "address": "505 Farmington Ave 2nd Floor, Farmington, CT 06032", "city": "Farmington", "state": "Connecticut", "state_code": "CT", "phone": "+1 860-837-7500", "website": "https://www.connecticutchildrens.org/about-us/find-a-doctor/richard-young-md-mph/", "rating": 5, "reviews": 4, "place_id": "ChIJUSi43hRT5okROM8hjmTu66s", "latitude": 41.7251422, "longitude": -72.8050645, "subtypes": "Pediatric neurologist"}, {"name": "Francis J. DiMario, MD", "address": "505 Farmington Ave 2nd Floor, Farmington, CT 06032", "city": "Farmington", "state": "Connecticut", "state_code": "CT", "phone": "+1 860-837-7500", "website": "https://www.connecticutchildrens.org/about-us/find-a-doctor/francis-dimario-md/", "rating": 4, "reviews": 4, "place_id": "ChIJUSi43hRT5okRVbSP_eCD_s4", "latitude": 41.7251422, "longitude": -72.8050645, "subtypes": "Pediatric neurologist"}, {"name": "Robert Bonwetsch, MD", "address": "79 Sand Pit Rd Suite 301, Danbury, CT 06810", "city": "Danbury", "state": "Connecticut", "state_code": "CT", "phone": "+1 203-748-2551", "website": "https://findcare.nuvancehealth.org/provider/robert-bonwetsch/1746248%3Fy_source%3D1_MjM5MTY3MDgtNzE1LWxvY2F0aW9uLndlYnNpdGU%253D", "rating": 3.4, "reviews": 13, "place_id": "ChIJkWULSTD_54kRm45RTPCpOVg", "latitude": 41.4139667, "longitude": -73.43081839999999, "subtypes": "Neurologist"}, {"name": "Ashmanie Mahatoo, MD", "address": "Mandell MS Center, 490 Blue Hills Ave, Hartford, CT 06112", "city": "Hartford", "state": "Connecticut", "state_code": "CT", "phone": "+1 860-714-2149", "website": "https://www.trinityhealthofne.org/provider/ashmanie-mahatoo-md-neurology", "rating": "", "reviews": "", "place_id": "ChIJL7MXjk1V5okRyLJY69oJJfk", "latitude": 41.8000519, "longitude": -72.6945989, "subtypes": "Neurologist"}, {"name": "Joel Bauman, MD", "address": "435 Lewis Ave #103, Meriden, CT 06451", "city": "Meriden", "state": "Connecticut", "state_code": "CT", "phone": "+1 860-696-2290", "website": "https://hartfordhealthcaremedicalgroup.org/JoelBauman", "rating": 4.8, "reviews": 95, "place_id": "ChIJibiG-IR544kRpDlgqxuFhgs", "latitude": 41.5493063, "longitude": -72.8011451, "subtypes": "Neurosurgeon"}, {"name": "Louisa Kalsner, MD", "address": "505 Farmington Ave 2nd Floor, Farmington, CT 06032", "city": "Farmington", "state": "Connecticut", "state_code": "CT", "phone": "+1 860-837-7500", "website": "https://www.connecticutchildrens.org/about-us/find-a-doctor/louisa-kalsner-md/", "rating": 5, "reviews": 2, "place_id": "ChIJoUaA0BRT5okR6ZQ3tmiQ27A", "latitude": 41.7251422, "longitude": -72.8050645, "subtypes": "Pediatric neurologist"}, {"name": "Efrat Feldman", "address": "114 Woodland St, Hartford, CT 06105", "city": "Hartford", "state": "Connecticut", "state_code": "CT", "phone": "+1 860-522-3711", "website": "https://www.trinityhealthofne.org/provider/efrat-feldman-md-neurology", "rating": "", "reviews": "", "place_id": "ChIJWfl5jldT5okR3w9-O7PFLG0", "latitude": 41.7745877, "longitude": -72.6984919, "subtypes": "Neurologist"}, {"name": "David T. Greco, MD", "address": "79 Sand Pit Rd Suite 301, Danbury, CT 06810", "city": "Danbury", "state": "Connecticut", "state_code": "CT", "phone": "+1 203-748-2551", "website": "https://findcare.nuvancehealth.org/provider/david-t-greco/1747992%3Fy_source%3D1_MjM5MTYzNDEtNzE1LWxvY2F0aW9uLndlYnNpdGU%253D", "rating": 2.6, "reviews": 8, "place_id": "ChIJkWULSTD_54kR-pdsVl5CmjU", "latitude": 41.4116363, "longitude": -73.4319816, "subtypes": "Neurologist"}, {"name": "Lila Worden, MD", "address": "505 Farmington Ave 2nd Floor, Farmington, CT 06032", "city": "Farmington", "state": "Connecticut", "state_code": "CT", "phone": "+1 860-837-7500", "website": "https://www.connecticutchildrens.org/about-us/find-a-doctor/lila-worden-md/", "rating": 3, "reviews": 4, "place_id": "ChIJb3JToBVT5okR-QmlCHmZJzE", "latitude": 41.7251422, "longitude": -72.8050645, "subtypes": "Pediatric neurologist"}, {"name": "Krista Grande, MD", "address": "85 Seymour St, Hartford, CT 06106", "city": "Hartford", "state": "Connecticut", "state_code": "CT", "phone": "+1 860-837-7500", "website": "https://www.connecticutchildrens.org/about-us/find-a-doctor/krista-grande-md/", "rating": 5, "reviews": 3, "place_id": "ChIJH2i8xONT5okRCa2TvWhoeO8", "latitude": 41.7544767, "longitude": -72.6820975, "subtypes": "Pediatric neurologist"}, {"name": "LAKSHMI LEISHANGTHEM", "address": "263 Farmington Ave, Farmington, CT 060300001", "city": "Farmington", "state": "Connecticut", "state_code": "CT", "phone": "+1 860-679-7503", "website": "", "rating": 3, "reviews": 2, "place_id": "ChIJq6qOz8Ot54kR1LCsRr7gQJ4", "latitude": 41.7348386, "longitude": -72.7874059, "subtypes": "Neurologist"}, {"name": "Marcia Leonard Md", "address": "101 Main St, Unionville, CT 06085", "city": "Unionville", "state": "Connecticut", "state_code": "CT", "phone": "+1 860-402-4632", "website": "", "rating": "", "reviews": "", "place_id": "ChIJZ19H44Sv54kRa7gP1Ve0ick", "latitude": 41.75974129999999, "longitude": -72.8896766, "subtypes": "Pediatric neurologist"}, {"name": "Mandell MS Center-Waterbury", "address": "Rehabilitation Department, 56 Franklin St, Waterbury, CT 06706", "city": "Waterbury", "state": "Connecticut", "state_code": "CT", "phone": "+1 203-709-6500", "website": "https://www.trinityhealthofne.org/location/mandell-ms-center-waterbury", "rating": 4.8, "reviews": 22, "place_id": "ChIJuURYSWjB54kRx9sjCV5l_-I", "latitude": 41.5527404, "longitude": -73.0367139, "subtypes": "Neurologist"}, {"name": "Dr. Bhargava", "address": "134 Grandview Ave STE 208, Waterbury, CT 06708", "city": "Waterbury", "state": "Connecticut", "state_code": "CT", "phone": "+1 203-755-3279", "website": "http://ctchildneurology.com/", "rating": 3.8, "reviews": 44, "place_id": "ChIJq5viLbXB54kRWrSTqVCt0Cw", "latitude": 41.5601455, "longitude": -73.06104669999999, "subtypes": "Neurologist"}, {"name": "Katherine Kedzierski, MD", "address": "1579 Straits Turnpike STE 2A, Middlebury, CT 06762", "city": "Middlebury", "state": "Connecticut", "state_code": "CT", "phone": "+1 203-758-8995", "website": "https://www.trinityhealthofne.org/provider/katherine-kedzierski-md-neurology", "rating": 4.8, "reviews": 179, "place_id": "ChIJB6eWNXfq54kR00Hkz8ECLA8", "latitude": 41.5519079, "longitude": -73.0949984, "subtypes": "Neurologist"}, {"name": "Ct Neurodevelopmental Services", "address": "134 Grandview Ave STE 208, Waterbury, CT 06708", "city": "Waterbury", "state": "Connecticut", "state_code": "CT", "phone": "+1 203-755-3279", "website": "http://ctchildneurology.com/", "rating": 4.6, "reviews": 26, "place_id": "ChIJq5viLbXB54kR3qAEdik0nnU", "latitude": 41.5601695, "longitude": -73.0609609, "subtypes": "Pediatric neurologist"}, {"name": "Pooia Fattahi, MD", "address": "1579 Straits Turnpike STE 2A, Middlebury, CT 06762", "city": "Middlebury", "state": "Connecticut", "state_code": "CT", "phone": "+1 203-758-8995", "website": "https://www.trinityhealthofne.org/provider/pooia-fattahi-md-neurology", "rating": 4.8, "reviews": 211, "place_id": "ChIJX90q6Xbq54kR0QsFt4CJW1Q", "latitude": 41.5519073, "longitude": -73.0950009, "subtypes": "Neurologist"}, {"name": "Xiao Weng, MD", "address": "1579 Straits Turnpike STE 2A, Middlebury, CT 06762", "city": "Middlebury", "state": "Connecticut", "state_code": "CT", "phone": "+1 203-758-8995", "website": "https://www.trinityhealthofne.org/provider/xiao-jun-weng-md-neurology", "rating": 4.9, "reviews": 152, "place_id": "ChIJv4vn4fDr54kRA3daQjeyzoA", "latitude": 41.5519073, "longitude": -73.0950009, "subtypes": "Neurologist"}, {"name": "Trinity Health Of New England Medical Group \u2013 Neurology", "address": "1579 Straits Turnpike STE 2A, Middlebury, CT 06762", "city": "Middlebury", "state": "Connecticut", "state_code": "CT", "phone": "+1 203-758-8995", "website": "https://www.trinityhealthofne.org/location/trinity-health-of-new-england-medical-group-neurology-1", "rating": 4.5, "reviews": 150, "place_id": "ChIJ5f4q6Xbq54kRBDzEZzXE2JE", "latitude": 42, "longitude": -73, "subtypes": "Neurologist"}, {"name": "Culligan Neil W MD", "address": "1389 W Main St STE 212, Waterbury, CT 06708", "city": "Waterbury", "state": "Connecticut", "state_code": "CT", "phone": "+1 203-755-7367", "website": "", "rating": 5, "reviews": 1, "place_id": "ChIJyQJDvMfB54kRZhePF5Kv87A", "latitude": 41.5493771, "longitude": -73.0659585, "subtypes": "Neurologist"}, {"name": "Dr. Victor Ylagan", "address": "1625 Straits Turnpike Suite 304A, Middlebury, CT 06762", "city": "Middlebury", "state": "Connecticut", "state_code": "CT", "phone": "+1 203-568-2959", "website": "https://www.alliancemedicalgroup.com/providers/victor-ylagan/", "rating": 3, "reviews": 6, "place_id": "ChIJ6bPIkFLr54kRrejcByj6EcM", "latitude": 41.5541371, "longitude": -73.09375159999999, "subtypes": "Neurologist"}, {"name": "Dr. Sreedevi D. Nampoothiri, MD", "address": "88 Grandview Ave, Waterbury, CT 06708", "city": "Waterbury", "state": "Connecticut", "state_code": "CT", "phone": "+1 203-573-7265", "website": "", "rating": 5, "reviews": 2, "place_id": "ChIJW5AFH7XB54kRTZ7DOt9ys7U", "latitude": 41.5590581, "longitude": -73.0604791, "subtypes": "Neurologist"}, {"name": "Aleksandr Isakov, MD", "address": "1579 Straits Turnpike STE 2A, Middlebury, CT 06762", "city": "Middlebury", "state": "Connecticut", "state_code": "CT", "phone": "+1 203-758-8995", "website": "https://www.trinityhealthofne.org/provider/aleksandr-isakov-md-neurology", "rating": 4.7, "reviews": 170, "place_id": "ChIJVVVVCeVgwokR_W4d1N1Y4xY", "latitude": 41.5519073, "longitude": -73.0950009, "subtypes": "Neurologist"}, {"name": "Associated Neurologists: Alshansky Anna MD", "address": "1389 W Main St #212, Waterbury, CT 06708", "city": "Waterbury", "state": "Connecticut", "state_code": "CT", "phone": "+1 203-755-7367", "website": "", "rating": "", "reviews": "", "place_id": "ChIJyQJDvMfB54kR9XgoN_GfT1E", "latitude": 41.5497484, "longitude": -73.06587999999999, "subtypes": "Neurologist"}, {"name": "Dr. Li Zhang, MD", "address": "56 Franklin St, Waterbury, CT 06706", "city": "Waterbury", "state": "Connecticut", "state_code": "CT", "phone": "+1 203-525-3687", "website": "", "rating": 3, "reviews": 2, "place_id": "ChIJK-zhxAbB54kRW0E6h2_MUQM", "latitude": 41.5529483, "longitude": -73.0368663, "subtypes": "Neurologist"}, {"name": "Associated Neurologists: Habibi Behzad MD", "address": "1389 W Main St #212, Waterbury, CT 06708", "city": "Waterbury", "state": "Connecticut", "state_code": "CT", "phone": "+1 203-755-7367", "website": "", "rating": "", "reviews": "", "place_id": "ChIJyQJDvMfB54kR-POrBvdxSmM", "latitude": 41.5497484, "longitude": -73.06587999999999, "subtypes": "Neurologist"}, {"name": "Associated Neurologists: Lavallee Michelle MD", "address": "1389 W Main St, Waterbury, CT 06708", "city": "Waterbury", "state": "Connecticut", "state_code": "CT", "phone": "+1 203-755-7367", "website": "", "rating": "", "reviews": "", "place_id": "ChIJyQJDvMfB54kRfhUsoXOsK7s", "latitude": 41.5497484, "longitude": -73.06587999999999, "subtypes": "Neurologist"}, {"name": "Damian Moskal, MD", "address": "56 Franklin St 5th Floor, Waterbury, CT 06706", "city": "Waterbury", "state": "Connecticut", "state_code": "CT", "phone": "+1 860-522-3711", "website": "https://www.trinityhealthofne.org/provider/damian-moskal-md-neurology%3Futm_source%3DTHONE-google%26utm_medium%3Dgmb%26utm_campaign%3Dneurology%26utm_id%3Dreputation", "rating": 5, "reviews": 2, "place_id": "ChIJs51pWzHB54kR_AiYy0WACUs", "latitude": 41.5527881, "longitude": -73.0369765, "subtypes": "Neurologist"}, {"name": "Dr. Cara Pittari, MD - Alliance Medical Group", "address": "1625 Straits Turnpike Suite 304A, Middlebury, CT 06762", "city": "Middlebury", "state": "Connecticut", "state_code": "CT", "phone": "+1 203-568-2959", "website": "https://www.alliancemedicalgroup.com/provider/cara-pittari-md/", "rating": 3.3, "reviews": 4, "place_id": "ChIJXbbuWt_r54kRZWY-yhh_0NY", "latitude": 41.5541371, "longitude": -73.09375159999999, "subtypes": "Neurologist"}, {"name": "Abigail L. Chua DO", "address": "280 S Main St #103, Cheshire, CT 06410", "city": "Cheshire", "state": "Connecticut", "state_code": "CT", "phone": "+1 860-696-2925", "website": "", "rating": 4.2, "reviews": 20, "place_id": "ChIJZcVafZe354kRPLds_Fhx9iI", "latitude": 41.4946316, "longitude": -72.9028555, "subtypes": "Neurologist"}, {"name": "Renee D. Kane APRN", "address": "280 S Main St #103, Cheshire, CT 06410", "city": "Cheshire", "state": "Connecticut", "state_code": "CT", "phone": "+1 860-696-2925", "website": "https://hartfordhealthcaremedicalgroup.org/ReneeKane", "rating": 5, "reviews": 49, "place_id": "ChIJZcVafZe354kRrefO7ZQOaVI", "latitude": 41.4946316, "longitude": -72.9028555, "subtypes": "Neurologist"}, {"name": "Rachel Colman, MD", "address": "280 S Main St #103, Cheshire, CT 06410", "city": "Cheshire", "state": "Connecticut", "state_code": "CT", "phone": "+1 860-696-2925", "website": "https://hartfordhealthcaremedicalgroup.org/RachelColmanPoupko", "rating": 4.7, "reviews": 35, "place_id": "ChIJ99wEfB_F54kRD5VAWXBJKKg", "latitude": 41.4946955, "longitude": -72.9030231, "subtypes": "Neurologist"}, {"name": "Nuvance Health Medical Practice - Neurology Southbury", "address": "22 Old Waterbury Rd, Southbury, CT 06488", "city": "Southbury", "state": "Connecticut", "state_code": "CT", "phone": "+1 203-748-2551", "website": "https://www.nuvancehealth.org/locations/nuvance-health-medical-practice-neurology-southbury%3Futm_source%3Dlistings%26utm_medium%3Dorganic%26utm_campaign%3DYext%26y_source%3D1_MTA0OTAyMjAwMS03MTUtbG9jYXRpb24ud2Vic2l0ZQ%253D%253D", "rating": "", "reviews": "", "place_id": "ChIJsZJ1Qj3v54kRcrT1JbWHnWI", "latitude": 41.4811471, "longitude": -73.2124994, "subtypes": "Neurologist"}, {"name": "Nirav Sanghani, MD", "address": "56 Franklin St 5th Floor, Waterbury, CT 06706", "city": "Waterbury", "state": "Connecticut", "state_code": "CT", "phone": "+1 860-522-3711", "website": "https://www.trinityhealthofne.org/provider/nirav-sanghani-md-neurology%3Futm_source%3DTHONE-google%26utm_medium%3Dgmb%26utm_campaign%3Dneurology%26utm_id%3Dreputation", "rating": "", "reviews": "", "place_id": "ChIJbwhl2ynB54kR7Xs4ArVWIrw", "latitude": 41.5527881, "longitude": -73.0369765, "subtypes": "Neurologist"}, {"name": "H.R. Sami, MD, MSc CT Neurological Specialist", "address": "Keystone Building, 85 Barnes Rd #301, Wallingford, CT 06492", "city": "Wallingford", "state": "Connecticut", "state_code": "CT", "phone": "+1 203-630-1000", "website": "http://www.neurology.clinic/", "rating": 4.9, "reviews": 32, "place_id": "ChIJiySjrQLK54kRtMdZd3YQibI", "latitude": 41.4860789, "longitude": -72.8063737, "subtypes": "Neurologist"}, {"name": "Mariam Nasiri, APRN", "address": "462 Queen St #201, Southington, CT 06489", "city": "Southington", "state": "Connecticut", "state_code": "CT", "phone": "+1 860-621-1896", "website": "https://hartfordhealthcaremedicalgroup.org/MariamNasiri", "rating": 5, "reviews": 17, "place_id": "ChIJK8Vokzi354kRDpYyS9TtrcE", "latitude": 41.6289603, "longitude": -72.8749478, "subtypes": "Neurologist"}, {"name": "Dr. Kenneth Kaplove", "address": "1625 Straits Turnpike #307, Middlebury, CT 06762", "city": "Middlebury", "state": "Connecticut", "state_code": "CT", "phone": "+1 203-758-8995", "website": "", "rating": "", "reviews": "", "place_id": "ChIJpWgpNXfq54kRs4Zi2WtzrIU", "latitude": 41.5542096, "longitude": -73.0936249, "subtypes": "Neurologist"}, {"name": "Michelle Lavallee-Dagostine MD", "address": "280 S Main St #102, Cheshire, CT 06410", "city": "Cheshire", "state": "Connecticut", "state_code": "CT", "phone": "+1 860-870-6385", "website": "https://hartfordhealthcaremedicalgroup.org/MichelleDagostine", "rating": 4.9, "reviews": 60, "place_id": "ChIJz_Jp1xzK54kRtZqTptr3-8M", "latitude": 41.4946316, "longitude": -72.9028555, "subtypes": "Neurologist"}, {"name": "David Greco, MD", "address": "56 Franklin St 5th Floor, Waterbury, CT 06706", "city": "Waterbury", "state": "Connecticut", "state_code": "CT", "phone": "+1 203-709-6500", "website": "https://www.trinityhealthofne.org/provider/david-t-greco-md-neurology", "rating": "", "reviews": "", "place_id": "ChIJyQJDvMfB54kRk7n_7WO6J9Q", "latitude": 41.5527881, "longitude": -73.0369765, "subtypes": "Neurologist"}, {"name": "Brian Wong, MD", "address": "462 Queen St #201, Southington, CT 06489", "city": "Southington", "state": "Connecticut", "state_code": "CT", "phone": "+1 860-628-3910", "website": "https://hartfordhealthcaremedicalgroup.org/BrianWong", "rating": 4.6, "reviews": 83, "place_id": "ChIJ4dWP03K354kRrcoo_AvLS24", "latitude": 41.6289603, "longitude": -72.8749478, "subtypes": "Neurologist"}, {"name": "Veeresh Kumar N. Shivamurthy, MD", "address": "56 Franklin St 5th Floor, Waterbury, CT 06706", "city": "Waterbury", "state": "Connecticut", "state_code": "CT", "phone": "+1 860-522-3711", "website": "https://www.trinityhealthofne.org/provider/veeresh-kumar-nanjangud-shivamurthy-md-neurology", "rating": "", "reviews": "", "place_id": "ChIJhQt8iE7B54kR8aG0FegEz2A", "latitude": 41.5527881, "longitude": -73.0369765, "subtypes": "Neurologist"}, {"name": "Jonica Pagnucco, PA-C", "address": "462 Queen St #201, Southington, CT 06489", "city": "Southington", "state": "Connecticut", "state_code": "CT", "phone": "+1 860-621-1896", "website": "https://hartfordhealthcaremedicalgroup.org/JonicaPagnucco", "rating": 5, "reviews": 109, "place_id": "ChIJVyc5mrTB54kRZuTYrH8ABzM", "latitude": 41.6289603, "longitude": -72.8749478, "subtypes": "Neurologist"}, {"name": "Dr. Michael E. Karnasiewicz, MD", "address": "500 Chase Pkwy, Waterbury, CT 06708", "city": "Waterbury", "state": "Connecticut", "state_code": "CT", "phone": "+1 203-755-6677", "website": "", "rating": 3, "reviews": 6, "place_id": "ChIJ725mvbjB54kR4If4rViF0YY", "latitude": 41.5478014, "longitude": -73.0649968, "subtypes": "Neurosurgeon"}, {"name": "Kitaj Madeleine B MD", "address": "30 Quaker Farms Rd Unit 2, Southbury, CT 06488", "city": "Southbury", "state": "Connecticut", "state_code": "CT", "phone": "", "website": "http://www.kitajheadachecenter.com/kitaj.html", "rating": 3.9, "reviews": 7, "place_id": "ChIJx30SmaHo54kRyxdlb8wejDw", "latitude": 41.4628057, "longitude": -73.1613295, "subtypes": "Neurologist"}, {"name": "Xiao Jun Weng, MD", "address": "56 Franklin St, Waterbury, CT 06706", "city": "Waterbury", "state": "Connecticut", "state_code": "CT", "phone": "+1 203-758-8995", "website": "https://www.trinityhealthofne.org/provider/xiao-jun-weng-md-neurology", "rating": "", "reviews": "", "place_id": "ChIJz5KdyZ7B54kRjmfrpg4P1X0", "latitude": 41.5527881, "longitude": -73.0369765, "subtypes": "Neurologist"}, {"name": "The Ayer Neuroscience Institute Headache Center", "address": "280 S Main St #103, Cheshire, CT 06410", "city": "Cheshire", "state": "Connecticut", "state_code": "CT", "phone": "+1 860-696-2925", "website": "https://hartfordhealthcare.org/services/headache-center/locations", "rating": 5, "reviews": 2, "place_id": "ChIJM7PJ9FPF54kRDw0Irq5lEfw", "latitude": 41.4946316, "longitude": -72.9028555, "subtypes": "Neurologist"}, {"name": "Ashmanie Mahatoo, MD", "address": "56 Franklin St 5th Floor, Waterbury, CT 06706", "city": "Waterbury", "state": "Connecticut", "state_code": "CT", "phone": "+1 203-709-6550", "website": "https://www.trinityhealthofne.org/provider/ashmanie-mahatoo-md-neurology", "rating": 1, "reviews": 1, "place_id": "ChIJ5aSIPIHB54kRUpx_wf6XvVg", "latitude": 41.5527881, "longitude": -73.0369765, "subtypes": "Neurologist"}, {"name": "Hartford HealthCare Neuroscience Institute Seizure and Epilepsy Clinic", "address": "462 Queen St #201, Southington, CT 06489", "city": "Southington", "state": "Connecticut", "state_code": "CT", "phone": "+1 860-972-3600", "website": "https://hartfordhealthcaremedicalgroup.org/locations/location-details%3Fid%3Da1P0a00000A9IoHEAV", "rating": 3.8, "reviews": 6, "place_id": "ChIJoRqiyMO354kRXVf26i7N0VE", "latitude": 41.6289603, "longitude": -72.8749478, "subtypes": "Neurologist"}, {"name": "Dr. Amy I. O'donnell, MD", "address": "176 Kettletown Woods Rd, Southbury, CT 06488", "city": "Southbury", "state": "Connecticut", "state_code": "CT", "phone": "", "website": "", "rating": 5, "reviews": 1, "place_id": "ChIJ33DlD_fl54kRZHLBu2LGM68", "latitude": 41.4599885, "longitude": -73.195314, "subtypes": "Neurologist"}, {"name": "Lubna Jafri, MD", "address": "280 S Main St #102, Cheshire, CT 06410", "city": "Cheshire", "state": "Connecticut", "state_code": "CT", "phone": "+1 860-870-6385", "website": "https://hartfordhealthcaremedicalgroup.org/LubnaJafri", "rating": 5, "reviews": 9, "place_id": "ChIJ260IFZbF54kRjgCX_k0X5hQ", "latitude": 41.4946316, "longitude": -72.9028555, "subtypes": "Neurologist"}, {"name": "Dr. Kateryna Kurako", "address": "61 Bradley St, Bristol, CT 06010", "city": "Bristol", "state": "Connecticut", "state_code": "CT", "phone": "+1 860-584-8021", "website": "", "rating": 5, "reviews": 1, "place_id": "ChIJ___bJ0a654kReB_Bgyg4h80", "latitude": 41.6799189, "longitude": -72.9341297, "subtypes": "Neurologist"}, {"name": "Associated Neurologists: Bonwetsch Robert MD", "address": "1389 W Main St #212, Waterbury, CT 06708", "city": "Waterbury", "state": "Connecticut", "state_code": "CT", "phone": "+1 203-755-7367", "website": "", "rating": 1, "reviews": 1, "place_id": "ChIJyQJDvMfB54kR8VsT7N3K5oI", "latitude": 41.5497484, "longitude": -73.06587999999999, "subtypes": "Neurologist"}, {"name": "Elie Sader, MD", "address": "56 Franklin St 5th Floor, Waterbury, CT 06706", "city": "Waterbury", "state": "Connecticut", "state_code": "CT", "phone": "+1 860-522-3711", "website": "https://www.trinityhealthofne.org/provider/elie-sader-md-neurology", "rating": "", "reviews": "", "place_id": "ChIJlweLjp7B54kRwO0fLyJJmkw", "latitude": 41.5527881, "longitude": -73.0369765, "subtypes": "Neurologist"}, {"name": "Greco Peter C MD", "address": "133 Scovill St # 214, Waterbury, CT 06706", "city": "Waterbury", "state": "Connecticut", "state_code": "CT", "phone": "+1 203-753-6004", "website": "", "rating": 2.3, "reviews": 3, "place_id": "ChIJzRVZbAHB54kR6cL6cSMm06M", "latitude": 41.5534189, "longitude": -73.0360998, "subtypes": "Neurologist"}, {"name": "Associated Neurologists: Markind Samuel H MD", "address": "1389 W Main St #212, Waterbury, CT 06708", "city": "Waterbury", "state": "Connecticut", "state_code": "CT", "phone": "+1 203-755-7367", "website": "", "rating": "", "reviews": "", "place_id": "ChIJyQJDvMfB54kR-Dhwv-mec8w", "latitude": 41.5497484, "longitude": -73.06587999999999, "subtypes": "Neurologist"}, {"name": "Associated Neurologists: Mashman Jan MD", "address": "1389 W Main St #212, Waterbury, CT 06708", "city": "Waterbury", "state": "Connecticut", "state_code": "CT", "phone": "+1 203-755-7367", "website": "", "rating": "", "reviews": "", "place_id": "ChIJyQJDvMfB54kRezWjpQKhSzA", "latitude": 41.5497484, "longitude": -73.06587999999999, "subtypes": "Neurologist"}, {"name": "Dr. Alphonse R. Bobowick, MD", "address": "134 Grandview Ave, Waterbury, CT 06708", "city": "Waterbury", "state": "Connecticut", "state_code": "CT", "phone": "+1 203-757-8735", "website": "", "rating": "", "reviews": "", "place_id": "ChIJq5viLbXB54kRtvUR5_4tUNc", "latitude": 41.5601512, "longitude": -73.0609576, "subtypes": "Neurologist"}, {"name": "Nuvance Health Medical Practice - Neurology Norwalk", "address": "761 Main Ave Entrance B, Suite 201A, Norwalk, CT 06851", "city": "Norwalk", "state": "Connecticut", "state_code": "CT", "phone": "+1 203-853-5000", "website": "https://www.nuvancehealth.org/locations/nuvance-health-medical-practice-neurology-norwalk%3Futm_source%3Dlistings%26utm_medium%3Dorganic%26utm_campaign%3DYext%26y_source%3D1_MjQzMTkyMzItNzE1LWxvY2F0aW9uLndlYnNpdGU%253D", "rating": 2, "reviews": 4, "place_id": "ChIJ0b1lqssd6IkRXSO_eFJLO64", "latitude": 41.1590288, "longitude": -73.4221519, "subtypes": "Neurologist"}, {"name": "Daryl R. Story, MD", "address": "761 Main Ave Suite 201A, Norwalk, CT 06851", "city": "Norwalk", "state": "Connecticut", "state_code": "CT", "phone": "+1 203-853-5000", "website": "https://findcare.nuvancehealth.org/provider/daryl-r-story/1825546%3Fy_source%3D1_MzU5ODA1MjYtNzE1LWxvY2F0aW9uLndlYnNpdGU%253D", "rating": 3.1, "reviews": 7, "place_id": "ChIJd0fCCS0c6IkRiYaaWaIrFOA", "latitude": 41.1590713, "longitude": -73.4223233, "subtypes": "Neurologist"}, {"name": "Michael L. Fitzpatrick, MD", "address": "761 Main Ave Suite 201A, Norwalk, CT 06851", "city": "Norwalk", "state": "Connecticut", "state_code": "CT", "phone": "+1 203-853-5000", "website": "https://findcare.nuvancehealth.org/provider/michael-l-fitzpatrick/2251698%3Fy_source%3D1_NTQ5MTE2NzgtNzE1LWxvY2F0aW9uLndlYnNpdGU%253D", "rating": 4, "reviews": 9, "place_id": "ChIJIQ1ctS8d6IkRSSgxqq9C3vI", "latitude": 41.1590713, "longitude": -73.4223233, "subtypes": "Neurologist"}, {"name": "Louis Cuzzone, MD", "address": "761 Main Ave Suite 201A, Norwalk, CT 06851", "city": "Norwalk", "state": "Connecticut", "state_code": "CT", "phone": "+1 203-853-5000", "website": "https://findcare.nuvancehealth.org/provider/louis-cuzzone/1825403%3Fy_source%3D1_MzU5ODA1NDAtNzE1LWxvY2F0aW9uLndlYnNpdGU%253D", "rating": 3.7, "reviews": 3, "place_id": "ChIJd0fCCS0c6IkRv-_Uo-_KmCg", "latitude": 41.1590713, "longitude": -73.4223233, "subtypes": "Neurologist"}, {"name": "Elite Brain & Spine of Connecticut", "address": "761 Main Ave Suite 201A, Norwalk, CT 06851", "city": "Norwalk", "state": "Connecticut", "state_code": "CT", "phone": "+1 203-853-0003", "website": "https://elitebrainspine.com/%3Futm_source%3DGMBSocialClimb%26utm_medium%3DEliteBrainSpine%26utm_campaign%3DNorwalk", "rating": 5, "reviews": 9, "place_id": "ChIJe1kqOgQd6IkRRBNHSzDVFLQ", "latitude": 41.1590713, "longitude": -73.4223233, "subtypes": "Neurosurgeon"}, {"name": "Scott P. Sanderson, MD | Neurosurgeon at Elite Brain and Spine of Connecticut", "address": "761 Main Ave Ste 201, Norwalk, CT 06851", "city": "Norwalk", "state": "Connecticut", "state_code": "CT", "phone": "+1 203-853-0003", "website": "https://elitebrainspine.com/%3Futm_source%3DGMBSocialClimb%26utm_medium%3DEliteBrain%26Spine%26utm_campaign%3DScottSandersonNorwalk", "rating": 4.4, "reviews": 25, "place_id": "ChIJC9MuES8c6IkR8Ko2_RTgZ1I", "latitude": 41.1596385, "longitude": -73.42111349999999, "subtypes": "Neurosurgeon"}, {"name": "S. Javed Shahid", "address": "148 East Ave Suite 3D, Norwalk, CT 06851", "city": "Norwalk", "state": "Connecticut", "state_code": "CT", "phone": "+1 203-853-0003", "website": "http://ctbrainandspine.com/", "rating": 5, "reviews": 3, "place_id": "ChIJC9MuES8c6IkRvk9lmCrHJ1Q", "latitude": 41.1100566, "longitude": -73.4093864, "subtypes": "Neurologist"}, {"name": "Irina Taraban, MD", "address": "605 West Ave, Norwalk, CT 06850", "city": "Norwalk", "state": "Connecticut", "state_code": "CT", "phone": "+1 203-853-5000", "website": "https://findcare.nuvancehealth.org/provider/Irina%2520%2520Taraban/1825703%3Fy_source%3D1_MzU5ODA1MzgtNzE1LWxvY2F0aW9uLndlYnNpdGU%253D", "rating": 1.6, "reviews": 8, "place_id": "ChIJd0fCCS0c6IkR_V7Jgw4ALAg", "latitude": 41.1133378, "longitude": -73.4151643, "subtypes": "Neurologist"}, {"name": "Dr. Peter McAllister. Westport Ct", "address": "30 Buxton Farm Rd, Stamford, CT 06905", "city": "Stamford", "state": "Connecticut", "state_code": "CT", "phone": "+1 203-914-1900", "website": "http://www.neinh.com/", "rating": 4.9, "reviews": 83, "place_id": "ChIJb6ALokShwokR5F7N6Bb-jKA", "latitude": 41.1113507, "longitude": -73.5450943, "subtypes": "Neurologist"}, {"name": "Marcus, Joshua D S", "address": "148 East Ave Suite 3D, Norwalk, CT 06851", "city": "Norwalk", "state": "Connecticut", "state_code": "CT", "phone": "+1 203-853-0003", "website": "https://findcare.nuvancehealth.org/provider/JoshuaDSMarcus/1747018%3Fy_source%3D1_MTA2OTQ2NTUtNzE1LWxvY2F0aW9uLndlYnNpdGU%253D", "rating": 4.4, "reviews": 9, "place_id": "ChIJf8IKndod6IkROw6lnQ4VABU", "latitude": 41.1102261, "longitude": -73.40931979999999, "subtypes": "Neurosurgeon"}, {"name": "Zara Khan, MD", "address": "300 Post Rd W #102, Westport, CT 06880", "city": "Westport", "state": "Connecticut", "state_code": "CT", "phone": "+1 203-332-1949", "website": "https://hartfordhealthcaremedicalgroup.org/ZaraKhan", "rating": 4.8, "reviews": 43, "place_id": "ChIJhd2RIXsd6IkR8gJEfPwjW1A", "latitude": 41.1321156, "longitude": -73.37570629999999, "subtypes": "Neurologist"}, {"name": "Brain Health Institute", "address": "1 Turkey Hill Rd S Suite 201, Westport, CT 06880", "city": "Westport", "state": "Connecticut", "state_code": "CT", "phone": "+1 203-391-6105", "website": "http://brainhealthct.com/", "rating": 5, "reviews": 12, "place_id": "ChIJm-HcBXAb6IkRT0OQTqt0d1I", "latitude": 41.1383922, "longitude": -73.3202522, "subtypes": "Neurologist"}, {"name": "Yuliya Koshkina, APRN", "address": "761 Main Ave Suite 201A, Norwalk, CT 06851", "city": "Norwalk", "state": "Connecticut", "state_code": "CT", "phone": "+1 203-853-5000", "website": "https://findcare.nuvancehealth.org/provider/yuliya-koshkina/3095185%3Fy_source%3D1_MTA2NzExOTI4MC03MTUtbG9jYXRpb24ud2Vic2l0ZQ%253D%253D", "rating": "", "reviews": "", "place_id": "ChIJm1lXhhcd6IkRFHEszHtEbv0", "latitude": 41.1590713, "longitude": -73.4223233, "subtypes": "Neurologist"}, {"name": "Levine Robert A MD", "address": "637 West Ave #200, Norwalk, CT 06850", "city": "Norwalk", "state": "Connecticut", "state_code": "CT", "phone": "+1 203-853-5000", "website": "", "rating": "", "reviews": "", "place_id": "ChIJd0fCCS0c6IkRln4l1Y0Grpk", "latitude": 41.1141191, "longitude": -73.4149414, "subtypes": "Neurologist"}, {"name": "Chana Kelley, APRN", "address": "761 Main Ave Suite 201A, Norwalk, CT 06851", "city": "Norwalk", "state": "Connecticut", "state_code": "CT", "phone": "+1 203-853-5000", "website": "https://findcare.nuvancehealth.org/provider/chana-kelley/3153622%3Fy_source%3D1_MTA3OTUzMjE0MC03MTUtbG9jYXRpb24ud2Vic2l0ZQ%253D%253D", "rating": "", "reviews": "", "place_id": "ChIJW4Wh9N0d6IkRLxqY4vOZxiw", "latitude": 41.1590713, "longitude": -73.4223233, "subtypes": "Neurologist"}, {"name": "Dr. Roger H. Kaye, MD", "address": "149 East Ave, Norwalk, CT 06851", "city": "Norwalk", "state": "Connecticut", "state_code": "CT", "phone": "+1 203-853-0004", "website": "", "rating": 3.3, "reviews": 3, "place_id": "ChIJpUnRj9Qd6IkRGmlpizDijms", "latitude": 41.1107331, "longitude": -73.4071087, "subtypes": "Neurosurgeon"}, {"name": "Jonathon Lebovitz, MD | Neurosurgeon at Elite Brain & Spine of Connecticut", "address": "148 East Ave Suite 3D, Norwalk, CT 06851", "city": "Norwalk", "state": "Connecticut", "state_code": "CT", "phone": "+1 203-853-0003", "website": "https://elitebrainspine.com/jonathon-lebovitz/", "rating": "", "reviews": "", "place_id": "ChIJmR8xIDId6IkROrtvuWgalqY", "latitude": 41.1100907, "longitude": -73.409357, "subtypes": "Neurosurgeon"}, {"name": "Dr. James L. Thompson Jr, MD", "address": "605 West Ave #200, Norwalk, CT 06850", "city": "Norwalk", "state": "Connecticut", "state_code": "CT", "phone": "+1 203-853-5000", "website": "", "rating": "", "reviews": "", "place_id": "ChIJd0fCCS0c6IkR1TqComAZiSc", "latitude": 41.1133378, "longitude": -73.4151643, "subtypes": "Neurologist"}, {"name": "Dr. Gerald B. Weiss, MD", "address": "91 East Ave, Norwalk, CT 06851", "city": "Norwalk", "state": "Connecticut", "state_code": "CT", "phone": "+1 203-299-1360", "website": "", "rating": 5, "reviews": 1, "place_id": "ChIJe6cO9jAc6IkR62B2mPokovI", "latitude": 41.1170324, "longitude": -73.40775409999999, "subtypes": "Neurologist"}, {"name": "Ryan Mansi, APRN", "address": "One Towne Park Plz, Norwich, CT 06360", "city": "Norwich", "state": "Connecticut", "state_code": "CT", "phone": "+1 860-972-3600", "website": "https://hartfordhealthcaremedicalgroup.org/RyanMansi", "rating": 4.5, "reviews": 28, "place_id": "ChIJ51CC519x5okRcIysqMVi2xU", "latitude": 41.5528645, "longitude": -72.10312259999999, "subtypes": "Neurologist"}, {"name": "Sandhya Mehla, MD", "address": "One Town Park Plaza, Norwich, CT 06360", "city": "Norwich", "state": "Connecticut", "state_code": "CT", "phone": "+1 860-696-2925", "website": "https://hartfordhealthcaremedicalgroup.org/SandhyaMehla", "rating": 5, "reviews": 20, "place_id": "ChIJL8Yz551x5okR534UGxdfeDA", "latitude": 41.5532772, "longitude": -72.0823688, "subtypes": "Neurologist"}, {"name": "Justin Montanye, MD", "address": "One Towne Park Plaza, W Town St, Norwich, CT 06360", "city": "Norwich", "state": "Connecticut", "state_code": "CT", "phone": "+1 860-886-1433", "website": "https://hartfordhealthcaremedicalgroup.org/JustinMontanye", "rating": 4.4, "reviews": 74, "place_id": "ChIJp5gPNypL5okRdAz38xGKoug", "latitude": 41.5529719, "longitude": -72.1032151, "subtypes": "Neurologist"}, {"name": "John Tauro, DO", "address": "One Towne Park Plaza, W Town St, Norwich, CT 06360", "city": "Norwich", "state": "Connecticut", "state_code": "CT", "phone": "+1 860-886-1433", "website": "https://hartfordhealthcaremedicalgroup.org/JohnTauro", "rating": 4.7, "reviews": 52, "place_id": "ChIJP_CBSWhx5okRvajp6lGTk3E", "latitude": 41.5532772, "longitude": -72.0823688, "subtypes": "Neurologist"}, {"name": "Derek Smith, MD", "address": "One Towne Park Plaza, W Town St, Norwich, CT 06360", "city": "Norwich", "state": "Connecticut", "state_code": "CT", "phone": "+1 860-886-1433", "website": "https://hartfordhealthcaremedicalgroup.org/DerekSmith", "rating": 4.4, "reviews": 85, "place_id": "ChIJq7-CiqRx5okR_mbO3xW7SVU", "latitude": 41.5529123, "longitude": -72.10327629999999, "subtypes": "Neurologist"}, {"name": "Paul Fidrych, APRN", "address": "One Towne Park Plaza, E Town St, Norwich, CT 06360", "city": "Norwich", "state": "Connecticut", "state_code": "CT", "phone": "+1 860-886-1433", "website": "https://hartfordhealthcaremedicalgroup.org/PaulFidrych", "rating": 4.8, "reviews": 26, "place_id": "ChIJS3ew3e9x5okRHzLchF81u5g", "latitude": 41.5505941, "longitude": -72.0923411, "subtypes": "Neurologist"}, {"name": "Gonsalves Dawn A MD", "address": "40 Mansfield Ave, Willimantic, CT 06226", "city": "Willimantic", "state": "Connecticut", "state_code": "CT", "phone": "", "website": "", "rating": "", "reviews": "", "place_id": "ChIJ7-isiuVj5okRTLBDgtoUz9w", "latitude": 41.7153924, "longitude": -72.2256271, "subtypes": "Neurologist"}, {"name": "Laurence Radin, MD", "address": "5 Dayton Rd #201, Waterford, CT 06385", "city": "Waterford", "state": "Connecticut", "state_code": "CT", "phone": "+1 860-886-1433", "website": "https://hartfordhealthcaremedicalgroup.org/LaurenceRadin", "rating": 4.8, "reviews": 38, "place_id": "ChIJ800iN1IO5okRuZ09Uv-N9gg", "latitude": 41.37241119999999, "longitude": -72.1341158, "subtypes": "Neurologist"}, {"name": "Jessica Bailey-DeBlois, APRN", "address": "One Towne Park Plz, Norwich, CT 06360", "city": "Norwich", "state": "Connecticut", "state_code": "CT", "phone": "+1 860-886-1433", "website": "https://hartfordhealthcaremedicalgroup.org/JessicaBaileyDeBlois", "rating": 5, "reviews": 24, "place_id": "ChIJCwqSEZlx5okRNuW1jSEEDGM", "latitude": 41.5600853, "longitude": -72.097475, "subtypes": "Neurologist"}, {"name": "Hartford Neurology LLC: Bluth Lawrence MD", "address": "622 Hebron Ave STE 102, Glastonbury, CT 06033", "city": "Glastonbury", "state": "Connecticut", "state_code": "CT", "phone": "+1 860-522-4429", "website": "https://hartfordneurology.com/", "rating": 2.4, "reviews": 9, "place_id": "ChIJBb8awKNR5okRwl4E9nwoQ-U", "latitude": 41.7139798, "longitude": -72.58919569999999, "subtypes": "Neurologist"}, {"name": "Meghan Ward, MD", "address": "One Towne Park Plz, Norwich, CT 06360", "city": "Norwich", "state": "Connecticut", "state_code": "CT", "phone": "+1 860-886-1433", "website": "https://hartfordhealthcaremedicalgroup.org/MeghanWard", "rating": 3.6, "reviews": 16, "place_id": "ChIJ_YRSdY1x5okR_ppGsWZwzeU", "latitude": 41.5529911, "longitude": -72.1032297, "subtypes": "Neurologist"}, {"name": "Mark Hornyak, MD", "address": "One Towne Park Plaza, Norwich, CT 06360", "city": "Norwich", "state": "Connecticut", "state_code": "CT", "phone": "+1 860-889-9035", "website": "https://hartfordhealthcaremedicalgroup.org/MarkHornyak", "rating": 4.2, "reviews": 58, "place_id": "ChIJ4eJ_JhZx5okRR_OkR77_4Jk", "latitude": 41.5529911, "longitude": -72.1032297, "subtypes": "Neurosurgeon"}, {"name": "Aakash Bhargava, MD", "address": "One Towne Park Plaza, Norwich, CT 06360", "city": "Norwich", "state": "Connecticut", "state_code": "CT", "phone": "+1 860-696-2925", "website": "https://hartfordhealthcaremedicalgroup.org/AakashBhargava", "rating": 4.5, "reviews": 15, "place_id": "ChIJ2_sm3Adx5okR8ADUfG51yBQ", "latitude": 41.546969, "longitude": -72.0922147, "subtypes": "Neurologist"}, {"name": "Coiculescu Olivia E MD", "address": "194 Howard St, New London, CT 06320", "city": "New London", "state": "Connecticut", "state_code": "CT", "phone": "+1 860-440-0640", "website": "", "rating": 4.4, "reviews": 17, "place_id": "ChIJFwcSSFIO5okRk04RhdxXvr0", "latitude": 41.3447864, "longitude": -72.0989191, "subtypes": "Neurologist"}, {"name": "Bernardo de Andrada Pereira, MD", "address": "330 Washington St # 540, Norwich, CT 06360", "city": "Norwich", "state": "Connecticut", "state_code": "CT", "phone": "+1 860-889-9035", "website": "https://hartfordhealthcaremedicalgroup.org/BernardodeAndradaPereira", "rating": 4.8, "reviews": 28, "place_id": "ChIJBcLX22dz5okRQzCSuLPFTOE", "latitude": 41.5432233, "longitude": -72.0884767, "subtypes": "Neurosurgeon"}, {"name": "Dr. Anthony G. Alessi, MD", "address": "330 Washington St #530, Norwich, CT 06360", "city": "Norwich", "state": "Connecticut", "state_code": "CT", "phone": "+1 860-889-3227", "website": "http://www.alessimd.com/", "rating": 4.8, "reviews": 4, "place_id": "ChIJ-1iqn3Rx5okRiAw_dvbEB6w", "latitude": 41.5432233, "longitude": -72.0884767, "subtypes": "Neurologist"}, {"name": "Neal Weisbrod, MD", "address": "100 Perkins Farm Dr Suite 303, Mystic, CT 06355", "city": "Mystic", "state": "Connecticut", "state_code": "CT", "phone": "+1 860-886-1433", "website": "https://hartfordhealthcaremedicalgroup.org/NealWeisbrod", "rating": 4.5, "reviews": 2, "place_id": "ChIJV_4ITmfh5YkRtyprItbzLb4", "latitude": 41.3725698, "longitude": -71.9438053, "subtypes": "Neurologist"}, {"name": "Ahmed Anees MD", "address": "357 E Center St, Manchester, CT 06040", "city": "Manchester", "state": "Connecticut", "state_code": "CT", "phone": "", "website": "", "rating": 5, "reviews": 1, "place_id": "ChIJQ5SsOM5Z5okRJ5TwwApC65I", "latitude": 41.7786492, "longitude": -72.5070808, "subtypes": "Neurologist"}, {"name": "Benjamin Dorfman, MD", "address": "1914 E Main St #2, Torrington, CT 06790", "city": "Torrington", "state": "Connecticut", "state_code": "CT", "phone": "+1 860-870-6385", "website": "https://hartfordhealthcaremedicalgroup.org/BenjaminDorfman", "rating": 4.7, "reviews": 40, "place_id": "ChIJ4TZ3RzvF54kR9Tly5zKAeBo", "latitude": 41.8187248, "longitude": -73.0762211, "subtypes": "Neurologist"}, {"name": "Dr. Margaret E. O'donoghue, MD", "address": "80 S Main St, Middletown, CT 06457", "city": "Middletown", "state": "Connecticut", "state_code": "CT", "phone": "+1 860-358-5970", "website": "http://middlesexhospital.org/find-a-physician/margaret-o-donoghue", "rating": 4.3, "reviews": 6, "place_id": "ChIJnetjikJK5okRmWdb69IpY4g", "latitude": 41.5541592, "longitude": -72.648517, "subtypes": "Neurologist"}, {"name": "Children's Neurology Services LLC: Kleiman Michele D MD", "address": "147 Saybrook Rd, Middletown, CT 06457", "city": "Middletown", "state": "Connecticut", "state_code": "CT", "phone": "+1 860-635-3600", "website": "https://cnskids.org/", "rating": 3.4, "reviews": 21, "place_id": "ChIJIRCZxBNK5okRSIdzah-Gca0", "latitude": 41.5466821, "longitude": -72.6347515, "subtypes": "Pediatric neurologist"}, {"name": "Dr. Anis Racy, MD", "address": "1 Towne Park Plz, Norwich, CT 06360", "city": "Norwich", "state": "Connecticut", "state_code": "CT", "phone": "+1 860-886-1433", "website": "", "rating": "", "reviews": "", "place_id": "ChIJ1cFRM4ukToYRRwAqKqWOYOA", "latitude": 41.5528645, "longitude": -72.10312259999999, "subtypes": "Neurologist"}, {"name": "Tinklepaugh David L MD", "address": "1 Towne Park Plz, Norwich, CT 06360", "city": "Norwich", "state": "Connecticut", "state_code": "CT", "phone": "+1 860-886-1433", "website": "", "rating": "", "reviews": "", "place_id": "ChIJq7-CiqRx5okRcJtUm5GiEHg", "latitude": 41.5528645, "longitude": -72.10312259999999, "subtypes": "Neurologist"}, {"name": "Moro De Casill Maria MD", "address": "1 Towne Park Plz, Norwich, CT 06360", "city": "Norwich", "state": "Connecticut", "state_code": "CT", "phone": "+1 860-886-1433", "website": "", "rating": "", "reviews": "", "place_id": "ChIJq7-CiqRx5okRL5ChM5gDo2M", "latitude": 41.5528645, "longitude": -72.10312259999999, "subtypes": "Neurologist"}, {"name": "Shutish C. Patel, M.D.", "address": "555 Willard Ave, Newington, CT 06111", "city": "Newington", "state": "Connecticut", "state_code": "CT", "phone": "+1 860-666-6951", "website": "http://www.va.gov/", "rating": 5, "reviews": 1, "place_id": "ChIJ3XNavZ-y54kRbqgWHVlhMEs", "latitude": 41.702555, "longitude": -72.7349424, "subtypes": "Neurologist"}, {"name": "Joseph Casaly, MD", "address": "100 Perkins Farm Dr Suite 303, Mystic, CT 06355", "city": "Mystic", "state": "Connecticut", "state_code": "CT", "phone": "+1 860-696-2925", "website": "https://rymap.org/business/joseph-casaly-md-edjb2a", "rating": 4.6, "reviews": 22, "place_id": "ChIJ_4GFTK4P5okRpKj-y3LBKeo", "latitude": 41.3725698, "longitude": -71.9438053, "subtypes": "Neurologist"}, {"name": "Christopher Hillery, PA-C", "address": "100 Perkins Farm Dr #102, Mystic, CT 06355", "city": "Mystic", "state": "Connecticut", "state_code": "CT", "phone": "+1 860-870-6385", "website": "https://hartfordhealthcaremedicalgroup.org/ChristopherHillery", "rating": 5, "reviews": 36, "place_id": "ChIJ23FC3zvh5YkRk2hoNBza_iQ", "latitude": 41.3725698, "longitude": -71.9438053, "subtypes": "Neurologist"}, {"name": "Elena Bortan, MD", "address": "100 Perkins Farm Dr #102, Mystic, CT 06355", "city": "Mystic", "state": "Connecticut", "state_code": "CT", "phone": "+1 860-870-6385", "website": "https://hartfordhealthcaremedicalgroup.org/ElenaBortan", "rating": 4.9, "reviews": 33, "place_id": "ChIJC6QJBwT35okRXkLwpNO1NHo", "latitude": 41.3725698, "longitude": -71.9438053, "subtypes": "Neurologist"}, {"name": "Andrea Lauter, APRN", "address": "100 Perkins Farm Dr Suite 303, Mystic, CT 06355", "city": "Mystic", "state": "Connecticut", "state_code": "CT", "phone": "+1 860-886-1433", "website": "https://hartfordhealthcaremedicalgroup.org/AndreaLauter", "rating": 4.8, "reviews": 22, "place_id": "ChIJ7cbMomXh5YkRgopO1kl8kN4", "latitude": 41.3725536, "longitude": -71.9438057, "subtypes": "Neurologist"}, {"name": "Jessica Lawton, PA-C", "address": "100 Perkins Farm Dr #102, Mystic, CT 06355", "city": "Mystic", "state": "Connecticut", "state_code": "CT", "phone": "+1 860-870-6385", "website": "https://hartfordhealthcaremedicalgroup.org/JessicaLawton", "rating": 5, "reviews": 56, "place_id": "ChIJ23sYdXz35okRDlWR3_Q-4zA", "latitude": 41.3677946, "longitude": -71.9400606, "subtypes": "Neurologist"}, {"name": "Maria Moro-de-Casillas, MD", "address": "100 Perkins Farm Dr #102, Mystic, CT 06355", "city": "Mystic", "state": "Connecticut", "state_code": "CT", "phone": "+1 860-870-6385", "website": "https://hartfordhealthcaremedicalgroup.org/MariaMorodecasillas", "rating": 4.9, "reviews": 61, "place_id": "ChIJOVGGN1HV5YkRgIG643qckOk", "latitude": 41.3725698, "longitude": -71.9438053, "subtypes": "Neurologist"}, {"name": "The Ayer Neuroscience Institute Headache Center", "address": "100 Perkins Farm Dr Suite 303, Mystic, CT 06355", "city": "Mystic", "state": "Connecticut", "state_code": "CT", "phone": "+1 860-886-1433", "website": "https://hartfordhealthcare.org/services/headache-center/locations", "rating": "", "reviews": "", "place_id": "ChIJC_uT3wDh5YkRldXiZixG1Qg", "latitude": 41.3725698, "longitude": -71.9438053, "subtypes": "Neurologist"}, {"name": "David Tinklepaugh, MD", "address": "100 Perkins Farm Dr Suite 303, Stonington, CT 06378", "city": "Stonington", "state": "Connecticut", "state_code": "CT", "phone": "+1 860-886-1433", "website": "https://hartfordhealthcaremedicalgroup.org/DavidTinklepaugh", "rating": 5, "reviews": 45, "place_id": "ChIJ1cFRM4ukToYR8_fEdWJ4dAQ", "latitude": 41.3725698, "longitude": -71.9438053, "subtypes": "Neurologist"}, {"name": "David & Rhoda Chase Family Movement Disorders Center", "address": "100 Perkins Farm Dr #102, Mystic, CT 06355", "city": "Mystic", "state": "Connecticut", "state_code": "CT", "phone": "+1 860-870-6385", "website": "https://hartfordhealthcaremedicalgroup.org/locations/location-details%3Fid%3Da1P0a00000MfsUWEAZ", "rating": 1, "reviews": 1, "place_id": "ChIJN95Wkyvh5YkR1x93_8rimxo", "latitude": 41.3725698, "longitude": -71.9438053, "subtypes": "Neurologist"}, {"name": "Katherine Podraza, MD", "address": "100 Perkins Farm Dr Suite 303, Mystic, CT 06355", "city": "Mystic", "state": "Connecticut", "state_code": "CT", "phone": "+1 860-696-2925", "website": "https://hartfordhealthcaremedicalgroup.org/KatherinePodraza", "rating": 5, "reviews": 2, "place_id": "ChIJawTXkL3h5YkRlBRtMGUej7I", "latitude": 41.3725536, "longitude": -71.9438057, "subtypes": "Neurologist"}, {"name": "Bilal Hameed, MD", "address": "194 Howard St, New London, CT 06320", "city": "New London", "state": "Connecticut", "state_code": "CT", "phone": "+1 860-440-0640", "website": "https://medicine.yale.edu/profile/bilal-hameed/", "rating": 5, "reviews": 1, "place_id": "ChIJq6rqnlkO5okR1v2AncZWIiU", "latitude": 41.3447924, "longitude": -72.09890899999999, "subtypes": "Neurologist"}, {"name": "Patrick Doherty, MD", "address": "194 Howard St, New London, CT 06320", "city": "New London", "state": "Connecticut", "state_code": "CT", "phone": "+1 860-442-0564", "website": "https://www.yalemedicine.org/specialists/patrick-doherty", "rating": 4.3, "reviews": 27, "place_id": "ChIJZeckbVIO5okR9lx7yLgkXNk", "latitude": 41.3447739, "longitude": -72.0988698, "subtypes": "Neurosurgeon"}, {"name": "Kelly Heilman APRN", "address": "196 Waterford Pkwy S #201b, Waterford, CT 06385", "city": "Waterford", "state": "Connecticut", "state_code": "CT", "phone": "+1 860-696-2925", "website": "", "rating": 5, "reviews": 2, "place_id": "ChIJgyD9nusR5okRsjieDzIFQ2s", "latitude": 41.3661934, "longitude": -72.1621194, "subtypes": "Neurologist"}, {"name": "JUSTIN TYRONE MONTANYE", "address": "326 Washington St, Norwich, CT 063602740", "city": "Norwich", "state": "Connecticut", "state_code": "CT", "phone": "+1 860-889-8331", "website": "", "rating": 4, "reviews": 1, "place_id": "ChIJ97TWhXRx5okRdnSRB1T2dHA", "latitude": 41.5425414, "longitude": -72.0888772, "subtypes": "Neurologist"}, {"name": "Jacky Yeung, MD", "address": "Lawrence + Memorial Medical Office Building, 194 Howard St Ste 3W, New London, CT 06320", "city": "New London", "state": "Connecticut", "state_code": "CT", "phone": "+1 203-785-2805", "website": "http://yalemedicine.org/", "rating": 5, "reviews": 6, "place_id": "ChIJv92do0QP5okROvjUj1lgtXY", "latitude": 41.3447864, "longitude": -72.0989191, "subtypes": "Neurosurgeon"}, {"name": "Shoreline Neurology, LLC - G. Gary Lian, MD, PhD", "address": "180 Westbrook Rd Building 5, Essex, CT 06426", "city": "Essex", "state": "Connecticut", "state_code": "CT", "phone": "+1 860-767-1034", "website": "https://shorelineneurology.com/", "rating": 3.1, "reviews": 10, "place_id": "ChIJb-84wFAj5okRIUQEGQkA_Ig", "latitude": 41.3357963, "longitude": -72.41977399999999, "subtypes": "Neurologist"}, {"name": "Caitlin Loomis, MD", "address": "194 Howard St, New London, CT 06320", "city": "New London", "state": "Connecticut", "state_code": "CT", "phone": "+1 877-925-3637", "website": "https://www.yalemedicine.org/specialists/caitlin-loomis", "rating": 1, "reviews": 1, "place_id": "ChIJ-eJxO5QP5okRU2cK-nCkqLw", "latitude": 41.3447719, "longitude": -72.09893989999999, "subtypes": "Neurologist"}, {"name": "Neer Zeevi", "address": "365 Montauk Ave, New London, CT 06320", "city": "New London", "state": "Connecticut", "state_code": "CT", "phone": "+1 860-442-0711", "website": "", "rating": "", "reviews": "", "place_id": "ChIJ64_zfVIO5okRaYmUvvGIWhM", "latitude": 41.3363732, "longitude": -72.1056199, "subtypes": "Neurologist"}, {"name": "Dr. Douglas M. Brandt, MD", "address": "365 Montauk Ave, New London, CT 06320", "city": "New London", "state": "Connecticut", "state_code": "CT", "phone": "+1 860-442-0711", "website": "http://www.lmhospital.org/", "rating": "", "reviews": "", "place_id": "ChIJFewNSFIO5okRrL-gsXfy6uA", "latitude": 41.3354375, "longitude": -72.1049075, "subtypes": "Neurologist"}, {"name": "Egon Doppenberg, MD", "address": "2 Highland Ave #306, Groton, CT 06340", "city": "Groton", "state": "Connecticut", "state_code": "CT", "phone": "", "website": "", "rating": "", "reviews": "", "place_id": "ChIJDwjhpiYM5okRxCzcRhhuRSg", "latitude": 41.3729623, "longitude": -72.07744749999999, "subtypes": "Neurosurgeon"}, {"name": "Yale New Haven Health Neurology \u2013 North Haven", "address": "Neurology, 8 Devine St Suite 1, North Haven, CT 06473", "city": "North Haven", "state": "Connecticut", "state_code": "CT", "phone": "+1 877-925-3637", "website": "https://www.ynhhs.org/locations/north-haven-8-devine-street-neuro", "rating": 3.3, "reviews": 3, "place_id": "ChIJM6sys-TR54kRIQ6r9S26DUA", "latitude": 41.381255, "longitude": -72.8789199, "subtypes": "Neurologist"}, {"name": "Mayer Joshua Hasbani MD", "address": "136 Sherman Ave STE 308, New Haven, CT 06511", "city": "New Haven", "state": "Connecticut", "state_code": "CT", "phone": "+1 203-562-8071", "website": "http://hasbanineurology.com/", "rating": 3.7, "reviews": 100, "place_id": "ChIJISDclarZ54kRYlhXJS6JRS4", "latitude": 41.3106603, "longitude": -72.94521329999999, "subtypes": "Neurologist"}, {"name": "Hamid Hamada DO", "address": "950 Campbell Ave, West Haven, CT 06516", "city": "West Haven", "state": "Connecticut", "state_code": "CT", "phone": "+1 203-932-5711", "website": "http://www.connecticut.va.gov/", "rating": "", "reviews": "", "place_id": "ChIJgYBpJo7Y54kRtNwXa8OcxcM", "latitude": 41.2844004, "longitude": -72.9576103, "subtypes": "Neurologist"}, {"name": "Dr. Tanya Z. Fischer, MD", "address": "950 Campbell Ave, West Haven, CT 06516", "city": "West Haven", "state": "Connecticut", "state_code": "CT", "phone": "+1 203-932-4724", "website": "", "rating": "", "reviews": "", "place_id": "ChIJZeK3Lo7Y54kRqxtJNOCAfcs", "latitude": 41.2844004, "longitude": -72.9576103, "subtypes": "Neurologist"}, {"name": "Hasbani Moshe MD", "address": "136 Sherman Ave # 505, New Haven, CT 06511", "city": "New Haven", "state": "Connecticut", "state_code": "CT", "phone": "+1 203-562-8071", "website": "https://hasbanineurology.com/", "rating": 2.5, "reviews": 14, "place_id": "ChIJISDclarZ54kRL0o7aFCbeYo", "latitude": 41.3106603, "longitude": -72.94521329999999, "subtypes": "Neurologist"}, {"name": "Sameer Ali, MD", "address": "950 Campbell Ave, West Haven, CT 06516", "city": "West Haven", "state": "Connecticut", "state_code": "CT", "phone": "+1 203-932-5711", "website": "http://www.connecticut.va.gov/providerinfo/index.asp", "rating": "", "reviews": "", "place_id": "ChIJU6cqXJDY54kR9W-qZPjSpWQ", "latitude": 41.2844004, "longitude": -72.9576103, "subtypes": "Neurologist"}, {"name": "Dr. Jeremy Moeller", "address": "800 Howard Ave, New Haven, CT 06519", "city": "New Haven", "state": "Connecticut", "state_code": "CT", "phone": "+1 203-785-2140", "website": "https://medicine.yale.edu/profile/jeremy-moeller/", "rating": 5, "reviews": 1, "place_id": "ChIJR2K6j1HY54kRZQLlM4J094Q", "latitude": 41.3025011, "longitude": -72.9363253, "subtypes": "Neurologist"}, {"name": "Dr. Gordon F. Buchanan, MD", "address": "950 Campbell Ave, West Haven, CT 06516", "city": "West Haven", "state": "Connecticut", "state_code": "CT", "phone": "+1 203-932-5711", "website": "http://www.connecticut.va.gov/", "rating": "", "reviews": "", "place_id": "ChIJVx3ILo7Y54kRnECeFnnRLiE", "latitude": 41.2844152, "longitude": -72.9576369, "subtypes": "Neurologist"}, {"name": "Sewell Richard MD", "address": "950 Campbell Ave # 35, West Haven, CT 06516", "city": "West Haven", "state": "Connecticut", "state_code": "CT", "phone": "+1 203-937-4835", "website": "", "rating": "", "reviews": "", "place_id": "ChIJZeK3Lo7Y54kRCJqckf30YFQ", "latitude": 41.2836612, "longitude": -72.96045099999999, "subtypes": "Neurologist"}, {"name": "Bhaskar Roy, MBBS, MBioMedSci, MHS", "address": "800 Howard Ave Lower Level, New Haven, CT 06519", "city": "New Haven", "state": "Connecticut", "state_code": "CT", "phone": "+1 203-785-4085", "website": "https://www.yalemedicine.org/specialists/bhaskar-roy", "rating": "", "reviews": "", "place_id": "ChIJLe6qj1HY54kRow6NmMARvQY", "latitude": 41.3025363, "longitude": -72.93628369999999, "subtypes": "Neurologist"}, {"name": "Dr. Joachim M. Baehring, MD", "address": "333 Cedar St Tmp3, New Haven, CT 06510", "city": "New Haven", "state": "Connecticut", "state_code": "CT", "phone": "+1 203-785-7284", "website": "http://www.yale.edu/", "rating": 5, "reviews": 7, "place_id": "ChIJPbL2i1HY54kRtDW6Cth2YHs", "latitude": 41.30323, "longitude": -72.93386989999999, "subtypes": "Neurologist"}, {"name": "Dr. Jeffrey Dewey", "address": "800 Howard Ave, New Haven, CT 06519", "city": "New Haven", "state": "Connecticut", "state_code": "CT", "phone": "+1 203-737-1057", "website": "https://medicine.yale.edu/profile/jeffrey-dewey/", "rating": 5, "reviews": 1, "place_id": "ChIJR2K6j1HY54kRiCLXUKqEtHs", "latitude": 41.3025011, "longitude": -72.9363253, "subtypes": "Neurologist"}, {"name": "Veronica Santini, MD, MA", "address": "Lower Level, 800 Howard Ave, New Haven, CT 06519", "city": "New Haven", "state": "Connecticut", "state_code": "CT", "phone": "+1 877-925-3637", "website": "https://www.yalemedicine.org/specialists/veronica-santini", "rating": "", "reviews": "", "place_id": "ChIJt150j1HY54kRmGKMYqyjLO4", "latitude": 41.3025011, "longitude": -72.9363253, "subtypes": "Neurologist"}, {"name": "Dr. Steven P. Novella, MD", "address": "800 Howard Ave, New Haven, CT 06519", "city": "New Haven", "state": "Connecticut", "state_code": "CT", "phone": "+1 203-785-4085", "website": "http://medicine.yale.edu/", "rating": 3.8, "reviews": 4, "place_id": "ChIJPbL2i1HY54kRe10Heyg8Ci4", "latitude": 41.3027443, "longitude": -72.93619819999999, "subtypes": "Neurologist"}, {"name": "Dr. Joseph T. King Jr, MD", "address": "950 Campbell Ave, West Haven, CT 06516", "city": "West Haven", "state": "Connecticut", "state_code": "CT", "phone": "+1 203-932-5711", "website": "https://medicine.yale.edu/profile/joseph-king/", "rating": 4, "reviews": 1, "place_id": "ChIJZeK3Lo7Y54kR6zzHjWKGVIM", "latitude": 41.2844152, "longitude": -72.9576369, "subtypes": "Neurosurgeon"}, {"name": "Srinath Kadimi", "address": "800 Howard Ave, New Haven, CT 065191369", "city": "New Haven", "state": "Connecticut", "state_code": "CT", "phone": "+1 203-785-2140", "website": "https://medicine.yale.edu/profile/srinath-kadimi/", "rating": 5, "reviews": 1, "place_id": "ChIJR2K6j1HY54kRrji3r8pnTmA", "latitude": 41.3025011, "longitude": -72.9363253, "subtypes": "Neurologist"}, {"name": "Dr. Elbert G. Richardson Jr, MD", "address": "950 Campbell Ave, West Haven, CT 06516", "city": "West Haven", "state": "Connecticut", "state_code": "CT", "phone": "+1 203-932-5711", "website": "http://www.connecticut.va.gov/", "rating": "", "reviews": "", "place_id": "ChIJZeK3Lo7Y54kRL_3-U4WGkt8", "latitude": 41.2844004, "longitude": -72.9576103, "subtypes": "Neurologist"}, {"name": "Ayse Tinaz", "address": "800 Howard Ave, New Haven, CT 065191369", "city": "New Haven", "state": "Connecticut", "state_code": "CT", "phone": "+1 203-785-2140", "website": "", "rating": 5, "reviews": 1, "place_id": "ChIJR2K6j1HY54kR77yOC5M3R44", "latitude": 41.3025011, "longitude": -72.9363253, "subtypes": "Neurologist"}, {"name": "Daniel DiCapua, MD", "address": "Lower Level, 800 Howard Ave, New Haven, CT 06519", "city": "New Haven", "state": "Connecticut", "state_code": "CT", "phone": "+1 203-785-4085", "website": "https://www.yalemedicine.org/specialists/daniel-dicapua", "rating": 5, "reviews": 1, "place_id": "ChIJLbA-aVLY54kRZnlMrErP0jY", "latitude": 41.3025011, "longitude": -72.9363253, "subtypes": "Neurologist"}, {"name": "Ana Vives-Rodriguez, MD", "address": "Lower Level, 800 Howard Ave, New Haven, CT 06519", "city": "New Haven", "state": "Connecticut", "state_code": "CT", "phone": "+1 877-925-3637", "website": "https://www.yalemedicine.org/specialists/ana-vives-rodriguez", "rating": "", "reviews": "", "place_id": "ChIJ_Vsbj1HY54kR9PdjG6Od4_8", "latitude": 41.3025011, "longitude": -72.9363253, "subtypes": "Neurologist"}, {"name": "Hirsch Lawrence J MD", "address": "15 York St, New Haven, CT 06510", "city": "New Haven", "state": "Connecticut", "state_code": "CT", "phone": "+1 203-688-1861", "website": "https://medicine.yale.edu/profile/lawrence-hirsch/", "rating": 5, "reviews": 3, "place_id": "ChIJ1YuXEVLY54kRrHki_ER_MWs", "latitude": 41.3034194, "longitude": -72.93513279999999, "subtypes": "Neurologist"}, {"name": "Adithya Sivaraju, MD, MHA", "address": "800 Howard Ave Lower Level, New Haven, CT 06519", "city": "New Haven", "state": "Connecticut", "state_code": "CT", "phone": "+1 203-785-4085", "website": "https://www.yalemedicine.org/specialists/adithya-sivaraju", "rating": "", "reviews": "", "place_id": "ChIJE0iwj1HY54kRtaO2MisHeM0", "latitude": 41.3025041, "longitude": -72.9363125, "subtypes": "Neurologist"}, {"name": "Aline Herlopian, MD", "address": "Lower Level, 800 Howard Ave, New Haven, CT 06519", "city": "New Haven", "state": "Connecticut", "state_code": "CT", "phone": "+1 203-785-4085", "website": "https://www.yalemedicine.org/specialists/aline-herlopian", "rating": 5, "reviews": 1, "place_id": "ChIJR2K6j1HY54kR22yld98-4jo", "latitude": 41.3025011, "longitude": -72.9363253, "subtypes": "Neurologist"}, {"name": "Tokuno Hajime A MD", "address": "950 Campbell Ave, West Haven, CT 06516", "city": "West Haven", "state": "Connecticut", "state_code": "CT", "phone": "+1 203-932-5711", "website": "", "rating": "", "reviews": "", "place_id": "ChIJZeK3Lo7Y54kRmPbdK7tfA48", "latitude": 41.2844004, "longitude": -72.9576103, "subtypes": "Neurologist"}, {"name": "Richa Sharma, MD, MPH", "address": "Lower Level, 800 Howard Ave, New Haven, CT 06519", "city": "New Haven", "state": "Connecticut", "state_code": "CT", "phone": "+1 203-785-4085", "website": "https://www.yalemedicine.org/specialists/richa-sharma", "rating": 5, "reviews": 1, "place_id": "ChIJR2K6j1HY54kRAwqRpUEM8Kk", "latitude": 41.3025011, "longitude": -72.9363253, "subtypes": "Neurologist"}, {"name": "Dr. Richard J. Nowak, MD", "address": "20 York St, New Haven, CT 06510", "city": "New Haven", "state": "Connecticut", "state_code": "CT", "phone": "+1 203-688-4242", "website": "https://medicine.yale.edu/neurology/people/richard_nowak.profile", "rating": 4, "reviews": 4, "place_id": "ChIJLbA-aVLY54kRKLRRKWxc7a8", "latitude": 41.3045436, "longitude": -72.9357954, "subtypes": "Neurologist"}, {"name": "Dr. Arash Salardini, MD", "address": "800 Howard Ave, New Haven, CT 06519", "city": "New Haven", "state": "Connecticut", "state_code": "CT", "phone": "+1 203-785-4085", "website": "http://yalemedicalgroup.org/services/org.aspx%3ForgID%3D108788%23page1", "rating": 5, "reviews": 1, "place_id": "ChIJCwZ6j1HY54kR6_Xc7MQVcIk", "latitude": 41.3025841, "longitude": -72.936415, "subtypes": "Neurologist"}, {"name": "Adam Jasne, MD", "address": "800 Howard Ave Lower Level, New Haven, CT 06519", "city": "New Haven", "state": "Connecticut", "state_code": "CT", "phone": "+1 203-785-4085", "website": "", "rating": "", "reviews": "", "place_id": "ChIJz6gNj1HY54kRcr_TYIpjLD4", "latitude": 41.3025842, "longitude": -72.9363547, "subtypes": "Neurologist"}, {"name": "Roslyn P Einbinder Md", "address": "60 Temple St, New Haven, CT 06510", "city": "New Haven", "state": "Connecticut", "state_code": "CT", "phone": "+1 203-562-4088", "website": "", "rating": 3.2, "reviews": 5, "place_id": "ChIJQ9rjfUzY54kRQwqwGtOKY7Q", "latitude": 41.3041873, "longitude": -72.92952989999999, "subtypes": "Neurologist"}, {"name": "Sayed Azizi, MD, PhD", "address": "800 Howard Ave, New Haven, CT 06519", "city": "New Haven", "state": "Connecticut", "state_code": "CT", "phone": "+1 877-925-3637", "website": "https://www.yalemedicine.org/specialists/sayed-azizi", "rating": 5, "reviews": 1, "place_id": "ChIJl7VLMBHZ54kRP-tESWQx64Y", "latitude": 41.3025011, "longitude": -72.9363253, "subtypes": "Neurologist"}, {"name": "Shelli Farhadian, MD PHD", "address": "800 Howard Ave Lower Level, New Haven, CT 06519", "city": "New Haven", "state": "Connecticut", "state_code": "CT", "phone": "+1 203-785-4085", "website": "https://www.yalemedicine.org/specialists/shelli-farhadian", "rating": "", "reviews": "", "place_id": "ChIJu1qtj1HY54kRcPCXGXQReMc", "latitude": 41.3025061, "longitude": -72.9362783, "subtypes": "Neurologist"}, {"name": "Ognen Petroff, MD", "address": "800 Howard Ave Lower Level, New Haven, CT 06519", "city": "New Haven", "state": "Connecticut", "state_code": "CT", "phone": "+1 203-785-4085", "website": "", "rating": "", "reviews": "", "place_id": "ChIJz7Gdj1HY54kRdCgmFQFTe04", "latitude": 41.3025525, "longitude": -72.936399, "subtypes": "Neurologist"}, {"name": "Lawrence Hirsch, MD", "address": "800 Howard Ave Lower Level, New Haven, CT 06519", "city": "New Haven", "state": "Connecticut", "state_code": "CT", "phone": "+1 203-785-3865", "website": "https://www.yalemedicine.org/specialists/lawrence-hirsch", "rating": "", "reviews": "", "place_id": "ChIJR2K6j1HY54kRen9acJolOOI", "latitude": 41.3025011, "longitude": -72.9363253, "subtypes": "Neurologist"}, {"name": "Dr. Stephen G. Waxman, MD", "address": "800 Howard Ave, New Haven, CT 06519", "city": "New Haven", "state": "Connecticut", "state_code": "CT", "phone": "+1 203-785-2140", "website": "https://medicine.yale.edu/profile/stephen-waxman/", "rating": "", "reviews": "", "place_id": "ChIJPbL2i1HY54kRRldRYMlTF6A", "latitude": 41.3025011, "longitude": -72.9363253, "subtypes": "Neurologist"}, {"name": "Joseph Schindler, MD", "address": "800 Howard Ave, New Haven, CT 06519", "city": "New Haven", "state": "Connecticut", "state_code": "CT", "phone": "+1 203-737-1057", "website": "http://medicine.yale.edu/", "rating": "", "reviews": "", "place_id": "ChIJPbL2i1HY54kRHXhImKLtRek", "latitude": 41.3021612, "longitude": -72.9362022, "subtypes": "Neurologist"}, {"name": "Victor Bushlyar, MD", "address": "800 Howard Ave, New Haven, CT 06519", "city": "New Haven", "state": "Connecticut", "state_code": "CT", "phone": "", "website": "https://www.yalemedicine.org/specialists/victor-bushlyar", "rating": "", "reviews": "", "place_id": "ChIJneqsj1HY54kRGL62hqfoCSE", "latitude": 41.3025182, "longitude": -72.936281, "subtypes": "Neurologist"}, {"name": "Bilal Hameed, MD", "address": "800 Howard Ave Lower Level, New Haven, CT 06519", "city": "New Haven", "state": "Connecticut", "state_code": "CT", "phone": "+1 203-785-4085", "website": "", "rating": "", "reviews": "", "place_id": "ChIJITNtj1HY54kRI8rG8ncRz6k", "latitude": 41.3026002, "longitude": -72.9363678, "subtypes": "Neurologist"}, {"name": "David King-Stephens, MD", "address": "Lower Level, 800 Howard Ave, New Haven, CT 06519", "city": "New Haven", "state": "Connecticut", "state_code": "CT", "phone": "+1 203-785-4085", "website": "", "rating": 5, "reviews": 1, "place_id": "ChIJR2K6j1HY54kRooQM0T3FldQ", "latitude": 41.3025011, "longitude": -72.9363253, "subtypes": "Neurologist"}, {"name": "Darren C. Volpe, MD", "address": "800 Howard Ave, New Haven, CT 06519", "city": "New Haven", "state": "Connecticut", "state_code": "CT", "phone": "+1 877-925-3637", "website": "https://www.yalemedicine.org/specialists/darren-volpe", "rating": "", "reviews": "", "place_id": "ChIJF769j1HY54kRu6RGDO5WyUk", "latitude": 41.3025032, "longitude": -72.93636149999999, "subtypes": "Neurologist"}, {"name": "Sara Schaefer, MD, MHS", "address": "800 Howard Ave Lower Level, New Haven, CT 06519", "city": "New Haven", "state": "Connecticut", "state_code": "CT", "phone": "+1 203-785-4085", "website": "https://www.yalemedicine.org/specialists/sara-schaefer", "rating": "", "reviews": "", "place_id": "ChIJA5Ksj1HY54kR4GTfmNvGy6s", "latitude": 41.3025202, "longitude": -72.93628369999999, "subtypes": "Neurologist"}, {"name": "Richard Nowak, MD, MS", "address": "800 Howard Ave Lower Level, New Haven, CT 06519", "city": "New Haven", "state": "Connecticut", "state_code": "CT", "phone": "+1 203-785-4085", "website": "", "rating": "", "reviews": "", "place_id": "ChIJh-0Oj1HY54kRF7XWJvttaWM", "latitude": 41.30257719999999, "longitude": -72.93633779999999, "subtypes": "Neurologist"}, {"name": "Dr. Geoffrey Miller, MD", "address": "20 York St # 2, New Haven, CT 06510", "city": "New Haven", "state": "Connecticut", "state_code": "CT", "phone": "+1 203-785-4643", "website": "http://www.ynhh.org/", "rating": 5, "reviews": 1, "place_id": "ChIJLbA-aVLY54kR4rtH8kvfmTE", "latitude": 41.3045436, "longitude": -72.9357954, "subtypes": "Neurologist"}, {"name": "Babar Khokhar, MD, MBA", "address": "Lower Level, 800 Howard Ave, New Haven, CT 06519", "city": "New Haven", "state": "Connecticut", "state_code": "CT", "phone": "+1 203-785-4085", "website": "https://www.yalemedicine.org/specialists/babar-khokhar", "rating": "", "reviews": "", "place_id": "ChIJTfJsZvDZ54kRCUHhvVX9oUk", "latitude": 41.3025011, "longitude": -72.9363253, "subtypes": "Neurologist"}, {"name": "Dr. Amar Patel", "address": "20 York St, New Haven, CT 06510", "city": "New Haven", "state": "Connecticut", "state_code": "CT", "phone": "+1 203-785-2791", "website": "https://medicine.yale.edu/profile/amar-patel/", "rating": 3, "reviews": 2, "place_id": "ChIJVVUVQFLY54kRJA1Mc08aRzU", "latitude": 41.3042236, "longitude": -72.93581379999999, "subtypes": "Neurologist"}, {"name": "Sirisha Sanamandra, MD", "address": "Lower Level, 800 Howard Ave, New Haven, CT 06519", "city": "New Haven", "state": "Connecticut", "state_code": "CT", "phone": "+1 203-785-4085", "website": "https://www.yalemedicine.org/specialists/sirisha-sanamandra", "rating": "", "reviews": "", "place_id": "ChIJcbdSjlHY54kRyZ4gloL8lxE", "latitude": 41.3025011, "longitude": -72.9363253, "subtypes": "Neurologist"}, {"name": "Hamada Altalib, DO, MPH", "address": "Lower Level, 800 Howard Ave, New Haven, CT 06519", "city": "New Haven", "state": "Connecticut", "state_code": "CT", "phone": "+1 203-785-4085", "website": "https://www.yalemedicine.org/specialists/hamada-hamid", "rating": "", "reviews": "", "place_id": "ChIJuYy_j1HY54kRdfsgVn7Za_g", "latitude": 41.3025011, "longitude": -72.9363253, "subtypes": "Neurologist"}, {"name": "Reshma Narula, MD", "address": "Lower Level, 800 Howard Ave, New Haven, CT 06519", "city": "New Haven", "state": "Connecticut", "state_code": "CT", "phone": "+1 203-785-4085", "website": "https://www.yalemedicine.org/specialists/reshma-narula", "rating": "", "reviews": "", "place_id": "ChIJbQezj1HY54kRrcPrnl8rZZ4", "latitude": 41.3025011, "longitude": -72.9363253, "subtypes": "Neurologist"}, {"name": "Dr. Bahman Jabbari, MD", "address": "40 Temple St, New Haven, CT 06510", "city": "New Haven", "state": "Connecticut", "state_code": "CT", "phone": "+1 203-785-4085", "website": "", "rating": 5, "reviews": 1, "place_id": "ChIJR6dte0zY54kRel_7PSbJZxg", "latitude": 41.3041442, "longitude": -72.9295203, "subtypes": "Neurophysiologist"}, {"name": "Bertrand Tseng, MD, PhD, AB", "address": "Lower Level, 800 Howard Ave, New Haven, CT 06519", "city": "New Haven", "state": "Connecticut", "state_code": "CT", "phone": "+1 203-785-4085", "website": "https://www.yalemedicine.org/specialists/bertrand-tseng", "rating": 3, "reviews": 2, "place_id": "ChIJR2K6j1HY54kRZpKAQ5yV5JA", "latitude": 41.3025011, "longitude": -72.9363253, "subtypes": "Neurologist"}, {"name": "Dr. Adeel Zubair", "address": "800 Howard Ave, New Haven, CT 06519", "city": "New Haven", "state": "Connecticut", "state_code": "CT", "phone": "+1 203-785-4216", "website": "https://medicine.yale.edu/profile/adeel-zubair/", "rating": "", "reviews": "", "place_id": "ChIJR2K6j1HY54kRNO3t3034zns", "latitude": 41.3025011, "longitude": -72.9363253, "subtypes": "Neurologist"}, {"name": "Charles Matouk, MD", "address": "Lower Level Yale Physicians Building, 800 Howard Ave, New Haven, CT 06519", "city": "New Haven", "state": "Connecticut", "state_code": "CT", "phone": "+1 203-785-2805", "website": "http://yalemedicine.org/", "rating": 4.6, "reviews": 10, "place_id": "ChIJm632i1HY54kRCqoPNbyRqYM", "latitude": 41.302671, "longitude": -72.93625759999999, "subtypes": "Neurosurgeon"}, {"name": "Dr. Adam De Havenon", "address": "15 York St, New Haven, CT 06510", "city": "New Haven", "state": "Connecticut", "state_code": "CT", "phone": "+1 801-554-9439", "website": "https://medicine.yale.edu/profile/adam-dehavenon/", "rating": "", "reviews": "", "place_id": "ChIJXZEdEFLY54kROlxMVpATuOE", "latitude": 41.3034632, "longitude": -72.9349873, "subtypes": "Neurologist"}, {"name": "Dr. Frederick K. Nahm, MD", "address": "800 Howard Ave, New Haven, CT 06519", "city": "New Haven", "state": "Connecticut", "state_code": "CT", "phone": "+1 203-785-2140", "website": "", "rating": "", "reviews": "", "place_id": "ChIJPbL2i1HY54kRPNzLqK2bAeg", "latitude": 41.3026728, "longitude": -72.9362589, "subtypes": "Neurologist"}, {"name": "Dr. Noam Y. Harel, MD", "address": "333 Cedar St, New Haven, CT 06510", "city": "New Haven", "state": "Connecticut", "state_code": "CT", "phone": "+1 203-785-2140", "website": "http://www.yale.edu/", "rating": "", "reviews": "", "place_id": "ChIJLd9V-E3Y54kR0sFUY8AW3ls", "latitude": 41.30323, "longitude": -72.93386989999999, "subtypes": "Neurologist"}, {"name": "Yale Neurosurgery: Di Luna Michael L MD", "address": "800 Howard Ave # 203, New Haven, CT 06519", "city": "New Haven", "state": "Connecticut", "state_code": "CT", "phone": "+1 203-785-2809", "website": "https://medicine.yale.edu/profile/michael-diluna/", "rating": 3.2, "reviews": 13, "place_id": "ChIJPbL2i1HY54kR_yQsBpSGguM", "latitude": 41.3026734, "longitude": -72.93625639999999, "subtypes": "Neurosurgeon"}, {"name": "Dr. Sung-Min Park", "address": "800 Howard Ave Lowr Level, New Haven, CT 06519", "city": "New Haven", "state": "Connecticut", "state_code": "CT", "phone": "+1 203-785-2140", "website": "", "rating": "", "reviews": "", "place_id": "ChIJR2K6j1HY54kRTtfrd0DQbSQ", "latitude": 41.3025011, "longitude": -72.9363253, "subtypes": "Neurologist"}, {"name": "JOSEPH BLAISE GUARNACCIA", "address": "800 Howard Ave, New Haven, CT 06519", "city": "New Haven", "state": "Connecticut", "state_code": "CT", "phone": "+1 203-785-4216", "website": "", "rating": "", "reviews": "", "place_id": "ChIJR2K6j1HY54kRcfwKFw-0MWg", "latitude": 41.3025011, "longitude": -72.9363253, "subtypes": "Neurologist"}, {"name": "Azevedo Christina J MD", "address": "15 York St, New Haven, CT 06510", "city": "New Haven", "state": "Connecticut", "state_code": "CT", "phone": "+1 203-785-3351", "website": "", "rating": "", "reviews": "", "place_id": "ChIJ1YuXEVLY54kRe1cLJPk1YSo", "latitude": 41.3034194, "longitude": -72.93513279999999, "subtypes": "Neurologist"}, {"name": "Rachel Forman, MD", "address": "20 York St, New Haven, CT 06510", "city": "New Haven", "state": "Connecticut", "state_code": "CT", "phone": "+1 877-925-3637", "website": "https://www.yalemedicine.org/specialists/rachel-forman", "rating": "", "reviews": "", "place_id": "ChIJJ3PBv7bZ54kROXD2QqDmBkk", "latitude": 41.3042236, "longitude": -72.93581379999999, "subtypes": "Neurologist"},