[{"name": "David Kaminskas, MD", "address": "642 Ulukahiki St #207, Kailua, HI 96734", "city": "Kailua", "state": "Hawaii", "state_code": "HI", "phone": "+1 808-263-5009", "website": "https://doctors.adventisthealth.org/provider/David%2BA%2BKaminskas/1340892", "rating": 3.6, "reviews": 14, "place_id": "ChIJOXXgs7UUAHwRq2fGyXMOl6c", "latitude": 21.3807922, "longitude": -157.7576292, "subtypes": "Neurologist"}, {"name": "Jason Charles Viereck", "address": "642 Ulukahiki St Suite 300, Kailua, HI 967344439", "city": "Kailua", "state": "Hawaii", "state_code": "HI", "phone": "+1 808-263-5500", "website": "https://doctors.adventisthealth.org/search%3Fprovider_name%3DJason%2520C%2520Viereck%26sort%3Drelevance%26tt%3D7f0d2abb-93bb-4517-b489-c7adfec0cbed%26ut%3Daa799266-3a43-43f8-8a1b-7f81a6a222c8%26timestamp%3D2026-02-12T18%253A57%253A42.721Z", "rating": 2.3, "reviews": 3, "place_id": "ChIJ9c1vurUUAHwRZJHXEkqPlco", "latitude": 21.3807922, "longitude": -157.7576292, "subtypes": "Neurologist"}, {"name": "Dr. Irisa Devine MD", "address": "642 Ulukahiki St Suite 300, Kailua, HI 96734", "city": "Kailua", "state": "Hawaii", "state_code": "HI", "phone": "+1 808-261-4476", "website": "https://www.adventisthealth.org/provider/irisa-melitapaka-devine-md-neurology---child-neurology", "rating": 5, "reviews": 3, "place_id": "ChIJOXXgs7UUAHwRDs3kzkx_-RE", "latitude": 21.3807922, "longitude": -157.7576292, "subtypes": "Neurologist"}, {"name": "William Beringer", "address": "30 Aulike St # 601, Kailua, HI 96734", "city": "Kailua", "state": "Hawaii", "state_code": "HI", "phone": "+1 808-744-6638", "website": "https://doctors.adventisthealth.org/provider/william-f-beringer/1339704", "rating": 3.8, "reviews": 23, "place_id": "ChIJ___PE9wUAHwRPATbo2Gj5OI", "latitude": 21.3963547, "longitude": -157.7425708, "subtypes": "Neurosurgeon"}, {"name": "Dr. James F. Pierce, MD", "address": "642 Ulukahiki St #103, Kailua, HI 96734", "city": "Kailua", "state": "Hawaii", "state_code": "HI", "phone": "+1 808-263-5174", "website": "", "rating": "", "reviews": "", "place_id": "ChIJxYkj5LUUAHwR1OgJ1cRuFsw", "latitude": 21.3809008, "longitude": -157.7577732, "subtypes": "Neurologist"}, {"name": "Dr. Aixa D. Espinosa-Morales, MD", "address": "642 Ulukahiki St #300, Kailua, HI 96734", "city": "Kailua", "state": "Hawaii", "state_code": "HI", "phone": "+1 808-261-4476", "website": "http://www.adventisthealth.org/", "rating": "", "reviews": "", "place_id": "ChIJA3MNlbUUAHwRbewm5uQadmA", "latitude": 21.3812021, "longitude": -157.7575865, "subtypes": "Neurologist"}, {"name": "Romero Ray R MD", "address": "94-216 Farrington Hwy, Waipahu, HI 96797", "city": "Waipahu", "state": "Hawaii", "state_code": "HI", "phone": "+1 808-680-0558", "website": "", "rating": 3, "reviews": 25, "place_id": "ChIJdd3wrGtkAHwRKio1imGdiz0", "latitude": 21.3801698, "longitude": -158.0211631, "subtypes": "Neurologist"}, {"name": "Shu Huidy MD", "address": "98-1079 Moanalua Rd # 5, Aiea, HI 96701", "city": "Aiea", "state": "Hawaii", "state_code": "HI", "phone": "+1 808-486-6000", "website": "https://www.hawaiipacifichealth.org/find-a-physician/search-results/Huidy-Shu/1096", "rating": 4.5, "reviews": 6, "place_id": "ChIJ8bFoEE1vAHwRcFGLSZ_fuEo", "latitude": 21.3834586, "longitude": -157.9383976, "subtypes": "Neurologist"}, {"name": "Hawaii Pacific Neuroscience", "address": "2230 Liliha St #104, Honolulu, HI 96817", "city": "Honolulu", "state": "Hawaii", "state_code": "HI", "phone": "+1 808-261-4476", "website": "http://hawaiineuroscience.com/", "rating": 4.4, "reviews": 181, "place_id": "ChIJoXINlbUUAHwRTBmLQgm72Ro", "latitude": 21.3294374, "longitude": -157.8526178, "subtypes": "Neurologist"}, {"name": "Dr. Jeffrey E Liu, MD", "address": "1380 Lusitana St # 705, Honolulu, HI 96813", "city": "Honolulu", "state": "Hawaii", "state_code": "HI", "phone": "+1 808-537-5555", "website": "", "rating": 4.6, "reviews": 9, "place_id": "ChIJDUgIW95tAHwRUvK0VyUzRls", "latitude": 21.3082099, "longitude": -157.8529532, "subtypes": "Neurologist"}, {"name": "Michael R. Slattery, M.D.", "address": "98-1238 Ka\u02bbahumanu St #300, Pearl City, HI 96782", "city": "Pearl City", "state": "Hawaii", "state_code": "HI", "phone": "+1 808-456-7378", "website": "http://sleepcenterhawaii.com/", "rating": "", "reviews": "", "place_id": "ChIJj2LRsHuC0IkRlEfSADvBbZ8", "latitude": 21.3884867, "longitude": -157.9540562, "subtypes": "Neurologist"}, {"name": "East Hawaii Health Clinic - Neurology", "address": "1190 Waianuenue Ave, Hilo, HI 96720", "city": "Hilo", "state": "Hawaii", "state_code": "HI", "phone": "+1 808-932-3730", "website": "https://www.easthawaiihealthclinics.org/neurology/", "rating": 5, "reviews": 1, "place_id": "ChIJu0U08R-1U3kRMFJctjhEyWA", "latitude": 19.7183156, "longitude": -155.113247, "subtypes": "Neurologist"}, {"name": "Herrera William MD", "address": "1190 Waianuenue Ave, Hilo, HI 96720", "city": "Hilo", "state": "Hawaii", "state_code": "HI", "phone": "+1 808-932-4230", "website": "https://www.hbmc.org/physician/herrera-william/", "rating": 4.6, "reviews": 7, "place_id": "ChIJn5LBwFVLUnkR5Fksh149j2A", "latitude": 19.7182454, "longitude": -155.1127462, "subtypes": "Neurologist"}, {"name": "Michael B. Russo MD, INC - Honolulu Neuroscience Clinic", "address": "1335 Kalanianaole St, Hilo, HI 96720", "city": "Hilo", "state": "Hawaii", "state_code": "HI", "phone": "+1 808-294-3332", "website": "https://www.hawaiisleepneurologist.com/", "rating": 4, "reviews": 39, "place_id": "ChIJtUtUuLK0U3kRxLyivZerkr0", "latitude": 19.7344618, "longitude": -155.0405002, "subtypes": "Neurologist"}, {"name": "Dr. Kore Liow MD", "address": "2230 Liliha St, Honolulu, HI 96817", "city": "Honolulu", "state": "Hawaii", "state_code": "HI", "phone": "+1 808-261-4476", "website": "https://hawaiineuroscience.com/doctor/dr-kore-kai-liow/", "rating": 3.7, "reviews": 3, "place_id": "ChIJV2AHlbUUAHwRzEycEeEIP-k", "latitude": 21.3298332, "longitude": -157.8529012, "subtypes": "Neurologist"}, {"name": "Brent A. Burroughs, MD", "address": "The Queen's Medical Center- West Oahu, Clinical Service Center, 91-2135 Fort Weaver Rd 3rd Floor, Ewa Beach, HI 96706", "city": "Ewa Beach", "state": "Hawaii", "state_code": "HI", "phone": "+1 808-691-3135", "website": "https://www.queens.org/services/neuroscience/locations/qmc-west-oahu/", "rating": 3.2, "reviews": 9, "place_id": "ChIJiarEyMhlAHwRoHLE5Zl4G_s", "latitude": 21.3718069, "longitude": -158.027199, "subtypes": "Neurologist"}, {"name": "Dr. Sharin Y. Burton, MD", "address": "3288 Moanalua Rd, Honolulu, HI 96819", "city": "Honolulu", "state": "Hawaii", "state_code": "HI", "phone": "+1 808-432-0000", "website": "", "rating": 1, "reviews": 1, "place_id": "ChIJr0kmuN5uAHwRhiKYrASvdhI", "latitude": 21.363393, "longitude": -157.899511, "subtypes": "Neurologist"}, {"name": "Dr. Steven Glazier", "address": "888 S King St, Honolulu, HI 96813", "city": "Honolulu", "state": "Hawaii", "state_code": "HI", "phone": "+1 808-522-4476", "website": "https://www.hawaiipacifichealth.org/find-a-physician/search-results/Steven-Glazier/1333", "rating": 4.3, "reviews": 10, "place_id": "ChIJFUsW0-ZtAHwR1ol3lVLsF-s", "latitude": 21.3026678, "longitude": -157.8506461, "subtypes": "Neurologist"}, {"name": "Dr. Kenneth K. Nakano, MD", "address": "1301 Punchbowl St, Honolulu, HI 96813", "city": "Honolulu", "state": "Hawaii", "state_code": "HI", "phone": "+1 808-782-3210", "website": "", "rating": "", "reviews": "", "place_id": "ChIJ1T1Hud9tAHwRa9nuRFwjlCw", "latitude": 21.3083247, "longitude": -157.8538344, "subtypes": "Neurologist"}, {"name": "Ridge Leah L Dr", "address": "1010 S King St, Honolulu, HI 96814", "city": "Honolulu", "state": "Hawaii", "state_code": "HI", "phone": "+1 808-486-7199", "website": "https://www.hawaiipacifichealth.org/find-a-physician/search-results/Leah-L-Ridge/198", "rating": 3.2, "reviews": 14, "place_id": "ChIJPzxu-uZtAHwRS7clCrmW4tA", "latitude": 21.301748, "longitude": -157.8485323, "subtypes": "Neurologist"}, {"name": "Dr. Todd R. Devere, MD", "address": "3288 Moanalua Rd, Honolulu, HI 96819", "city": "Honolulu", "state": "Hawaii", "state_code": "HI", "phone": "+1 808-432-0000", "website": "https://healthy.kaiserpermanente.org/hawaii/provider/todd-devere-5839268", "rating": "", "reviews": "", "place_id": "ChIJ-6YnuN5uAHwR4VAaR3_OO2o", "latitude": 21.3635557, "longitude": -157.8996402, "subtypes": "Neurologist"}, {"name": "Leo M Maher Md Llc", "address": "1380 Lusitana St #1012, Honolulu, HI 96813", "city": "Honolulu", "state": "Hawaii", "state_code": "HI", "phone": "+1 808-545-3299", "website": "", "rating": 5, "reviews": 5, "place_id": "ChIJDUgIW95tAHwR7TjcSRFWctQ", "latitude": 21.3080213, "longitude": -157.852902, "subtypes": "Neurologist"}, {"name": "Fay Gao", "address": "550 S Beretania St., Honolulu, HI 96813", "city": "Honolulu", "state": "Hawaii", "state_code": "HI", "phone": "+1 808-691-1000", "website": "", "rating": 3.7, "reviews": 6, "place_id": "ChIJ__-PVN5tAHwRrbAr26hQL1E", "latitude": 21.3064087, "longitude": -157.8544093, "subtypes": "Neurologist"}, {"name": "Drazin Thomas A MD", "address": "1329 Lusitana St # 702, Honolulu, HI 96813", "city": "Honolulu", "state": "Hawaii", "state_code": "HI", "phone": "+1 808-536-7042", "website": "", "rating": 2.8, "reviews": 13, "place_id": "ChIJXfHBbN5tAHwRhh31Kcr2mZo", "latitude": 21.3075359, "longitude": -157.8521078, "subtypes": "Neurologist"}, {"name": "Canonico Monique M DO", "address": "3288 Moanalua Rd, Honolulu, HI 96819", "city": "Honolulu", "state": "Hawaii", "state_code": "HI", "phone": "+1 808-432-0000", "website": "", "rating": "", "reviews": "", "place_id": "ChIJ6QMPTtluAHwR06sC-p85bYE", "latitude": 21.363468, "longitude": -157.8998167, "subtypes": "Neurologist"}, {"name": "Sung Bae Lee, MD", "address": "Queen's Physicians Office Buidling III, 550 S Beretania St. Suite 405, Honolulu, HI 96813", "city": "Honolulu", "state": "Hawaii", "state_code": "HI", "phone": "+1 808-691-8866", "website": "", "rating": 5, "reviews": 2, "place_id": "ChIJ_____9ptAHwRJmIL7Dn2DKQ", "latitude": 21.306678, "longitude": -157.854381, "subtypes": "Neurologist"}, {"name": "Dr. Michiko K. Bruno", "address": "Queen's POB III, 550 S Beretania St. Suite 405, Honolulu, HI 96813", "city": "Honolulu", "state": "Hawaii", "state_code": "HI", "phone": "+1 808-691-8866", "website": "", "rating": 3.7, "reviews": 6, "place_id": "ChIJDUgIW95tAHwR30XJIlrjIEw", "latitude": 21.306678, "longitude": -157.854381, "subtypes": "Neurologist"}, {"name": "Dr. George E Powell, MD", "address": "2180 Main St, Wailuku, HI 96793", "city": "Wailuku", "state": "Hawaii", "state_code": "HI", "phone": "+1 808-249-8080", "website": "http://www.mauimedical.com/", "rating": 2.4, "reviews": 23, "place_id": "ChIJ1ywYfmnTVHkRur26eVs5BLo", "latitude": 20.8874065, "longitude": -156.504733, "subtypes": "Neurologist"}, {"name": "Tasaki Cora S MD", "address": "1885 Main St # 205, Wailuku, HI 96793", "city": "Wailuku", "state": "Hawaii", "state_code": "HI", "phone": "+1 808-244-6776", "website": "", "rating": 3.4, "reviews": 19, "place_id": "ChIJgUh8xGrTVHkRG2VVHJBynB8", "latitude": 20.887928, "longitude": -156.4996301, "subtypes": "Neurologist"}, {"name": "Direnfeld Lorne MD", "address": "89 Ho'okele St STE 204, Kahului, HI 96732", "city": "Kahului", "state": "Hawaii", "state_code": "HI", "phone": "+1 808-877-5811", "website": "", "rating": "", "reviews": "", "place_id": "ChIJk5bFKuzSVHkR08bR4WN7YmQ", "latitude": 20.875506, "longitude": -156.4570383, "subtypes": "Neurologist"}, {"name": "Maui Brain & Spine", "address": "85 Maui Lani Pkwy, Wailuku, HI 96793", "city": "Wailuku", "state": "Hawaii", "state_code": "HI", "phone": "+1 844-394-4774", "website": "", "rating": 4, "reviews": 12, "place_id": "ChIJ9V_dJs3TVHkRS7vGACJKktY", "latitude": 20.8861787, "longitude": -156.4904259, "subtypes": "Neurosurgeon"}, {"name": "Mark Gibson", "address": "80 Mahalani St, Wailuku, HI 96793", "city": "Wailuku", "state": "Hawaii", "state_code": "HI", "phone": "+1 808-643-7979", "website": "https://healthy.kaiserpermanente.org/hawaii/provider/mark-gibson-5790236", "rating": "", "reviews": "", "place_id": "ChIJRyyq-RfTVHkRxzVXBcEK-KI", "latitude": 20.8874523, "longitude": -156.4868806, "subtypes": "Neurologist"}, {"name": "Terry Shimamoto, MD", "address": "321 N Kuakini St STE 605, Honolulu, HI 96817", "city": "Honolulu", "state": "Hawaii", "state_code": "HI", "phone": "+1 808-523-5886", "website": "https://doctors.adventisthealth.org/provider/Terry%2BK%2BShimamoto/1959773", "rating": 5, "reviews": 1, "place_id": "ChIJXZEqPNZtAHwRTvzhKeL01i8", "latitude": 21.3215932, "longitude": -157.8563731, "subtypes": "Neurologist"}, {"name": "Keith Abe LLC", "address": "1401 S Beretania St. Suite 950, Honolulu, HI 96814", "city": "Honolulu", "state": "Hawaii", "state_code": "HI", "phone": "+1 808-983-6676", "website": "http://www.hawaiiresidency.org/pediatric-residency/keith-abe-md", "rating": 5, "reviews": 1, "place_id": "ChIJ_2bzIuttAHwRWDxkqscz-FM", "latitude": 21.2998218, "longitude": -157.8392508, "subtypes": "Pediatric neurologist"}, {"name": "Dr. Monique M. Canonico", "address": "Parking lot, 2828 Paa St # 2420A, Honolulu, HI 96819", "city": "Honolulu", "state": "Hawaii", "state_code": "HI", "phone": "+1 808-432-7450", "website": "", "rating": 5, "reviews": 1, "place_id": "ChIJM70wMeVuAHwRgPkyhR88v9I", "latitude": 21.3458403, "longitude": -157.8945611, "subtypes": "Neurologist"}, {"name": "Woodward Mark A MD", "address": "1 Jarrett White Rd, TRIPLER AMC, HI 96859", "city": "TRIPLER AMC", "state": "Hawaii", "state_code": "HI", "phone": "+1 808-433-2778", "website": "", "rating": "", "reviews": "", "place_id": "ChIJP8GwkcNuAHwRfQEbCKQWaVY", "latitude": 21.3597645, "longitude": -157.8900314, "subtypes": "Neurologist"}, {"name": "Kevin Kimata, MD", "address": "321 N Kuakini St STE 605, Honolulu, HI 96817", "city": "Honolulu", "state": "Hawaii", "state_code": "HI", "phone": "+1 808-523-5886", "website": "https://doctors.adventisthealth.org/provider/Kevin%2BG%2BKimata/1959677", "rating": 5, "reviews": 1, "place_id": "ChIJXZEqPNZtAHwRAcNSF45sonQ", "latitude": 21.3214661, "longitude": -157.8562279, "subtypes": "Neurologist"}, {"name": "Melvin H.C. Yee, MD", "address": "321 N Kuakini St STE 810, Honolulu, HI 96817", "city": "Honolulu", "state": "Hawaii", "state_code": "HI", "phone": "+1 808-523-5885", "website": "https://doctors.adventisthealth.org/provider/Melvin%2BH%2BC%2BYee/1959764", "rating": 2.8, "reviews": 4, "place_id": "ChIJXZEqPNZtAHwRHACCHhkJnD8", "latitude": 21.3214661, "longitude": -157.8562279, "subtypes": "Neurologist"}, {"name": "Alexandra Galati", "address": "550 S Beretania St. Suite 405, Honolulu, HI 96813", "city": "Honolulu", "state": "Hawaii", "state_code": "HI", "phone": "+1 808-691-8866", "website": "https://www.queens.org/providers/2370/alexandra-n-galati/", "rating": 5, "reviews": 1, "place_id": "ChIJFVf20d9tAHwRGFUiUZuYZBM", "latitude": 21.306678, "longitude": -157.854381, "subtypes": "Neurologist"}, {"name": "James W. Pearce, M.D.", "address": "888 S King St, Honolulu, HI 96813", "city": "Honolulu", "state": "Hawaii", "state_code": "HI", "phone": "+1 808-522-4476", "website": "https://www.hawaiipacifichealth.org/find-a-physician/search-results/James-W-Pearce/62", "rating": 2, "reviews": 10, "place_id": "ChIJ2cvv1OBtAHwR9YIFD7Zy9xA", "latitude": 21.3027001, "longitude": -157.8504034, "subtypes": "Neurologist"}, {"name": "Reinish Lawrence W MD", "address": "45-710 Keaahala Rd #109, Kaneohe, HI 96744", "city": "Kaneohe", "state": "Hawaii", "state_code": "HI", "phone": "+1 808-247-2191", "website": "", "rating": "", "reviews": "", "place_id": "ChIJyTuz165rAHwRKaZR2ZZTGmg", "latitude": 21.4050711, "longitude": -157.8157625, "subtypes": "Neurologist"}, {"name": "Dr. Wayne D. Levy, MD", "address": "1 Jarrett White Rd, TRIPLER AMC, HI 96859", "city": "TRIPLER AMC", "state": "Hawaii", "state_code": "HI", "phone": "+1 808-433-2460", "website": "", "rating": "", "reviews": "", "place_id": "ChIJ3xTzLMNuAHwRM64H1SVth6E", "latitude": 21.3597645, "longitude": -157.8900314, "subtypes": "Neurologist"}, {"name": "Yim Gregory K MD", "address": "45-710 Kamehameha Hwy, Kaneohe, HI 96744", "city": "Kaneohe", "state": "Hawaii", "state_code": "HI", "phone": "+1 808-247-6644", "website": "https://www.windwardpediatrics.com/", "rating": 5, "reviews": 1, "place_id": "ChIJH5QzcgNrAHwRqJTAgmqDsi0", "latitude": 21.4067429, "longitude": -157.7997982, "subtypes": "Pediatric neurologist"}, {"name": "Sakurai Sharin Y MD", "address": "3288 Moanalua Rd, Honolulu, HI 96819", "city": "Honolulu", "state": "Hawaii", "state_code": "HI", "phone": "+1 808-432-0000", "website": "", "rating": "", "reviews": "", "place_id": "ChIJ6QMPTtluAHwRWID1-VHmZPw", "latitude": 21.363393, "longitude": -157.899511, "subtypes": "Neurologist"}, {"name": "Thomas Noh, MD - Neurosurgeon in Hawaii", "address": "500 Ala Moana Blvd Building 4, #4-470, Honolulu, HI 96813", "city": "Honolulu", "state": "Hawaii", "state_code": "HI", "phone": "+1 808-909-9115", "website": "http://www.anhawaii.com/", "rating": 4.9, "reviews": 32, "place_id": "ChIJp5GT4IptAHwRPUETj-ZrAEQ", "latitude": 21.3005046, "longitude": -157.8620714, "subtypes": "Neurosurgeon"}, {"name": "Dr. Alan G. Stein, MD", "address": "1301 Punchbowl St #1, Honolulu, HI 96813", "city": "Honolulu", "state": "Hawaii", "state_code": "HI", "phone": "+1 808-691-8866", "website": "", "rating": 3.7, "reviews": 6, "place_id": "ChIJ1T1Hud9tAHwRzEaQSRpgzs0", "latitude": 21.3078718, "longitude": -157.8548819, "subtypes": "Neurologist"}, {"name": "Dr. Robert C. Pedersen, MD", "address": "1 Jarrett White Rd, Honolulu, HI 96819", "city": "Honolulu", "state": "Hawaii", "state_code": "HI", "phone": "", "website": "", "rating": 1, "reviews": 1, "place_id": "ChIJ3xTzLMNuAHwRVcs-lipNmuI", "latitude": 21.3597645, "longitude": -157.8900314, "subtypes": "Neurologist"}, {"name": "Privy Nero Care", "address": "1428 Alokele St, Honolulu, HI 96817", "city": "Honolulu", "state": "Hawaii", "state_code": "HI", "phone": "", "website": "", "rating": "", "reviews": "", "place_id": "ChIJJ4PQaABvAHwRNxaYQLNC8BI", "latitude": 21.3278496, "longitude": -157.8735916, "subtypes": "Neurologist"}, {"name": "Hirota Brandon K MD", "address": "888 S King St, Honolulu, HI 96813", "city": "Honolulu", "state": "Hawaii", "state_code": "HI", "phone": "+1 808-522-4476", "website": "https://www.hawaiipacifichealth.org/find-a-physician/search-results/Brandon-Hirota/1015", "rating": 5, "reviews": 1, "place_id": "ChIJXZEqPNZtAHwRJR7Jcn4sKHc", "latitude": 21.3023315, "longitude": -157.8503146, "subtypes": "Neurologist"}, {"name": "Nakamoto Beau K MD", "address": "888 S King St, Honolulu, HI 96813", "city": "Honolulu", "state": "Hawaii", "state_code": "HI", "phone": "+1 808-522-4000", "website": "http://straubhealth.org/", "rating": 4, "reviews": 4, "place_id": "ChIJ2cvv1OBtAHwRCBDOfzrx7qI", "latitude": 21.3027989, "longitude": -157.8508051, "subtypes": "Neurologist"}, {"name": "Sada Okumura, MD", "address": "1401 S Beretania St. Suite 950, Honolulu, HI 96814", "city": "Honolulu", "state": "Hawaii", "state_code": "HI", "phone": "+1 808-522-4000", "website": "http://straubhealth.org/", "rating": 5, "reviews": 1, "place_id": "ChIJ2cvv1OBtAHwRjsdWnwDBkZ4", "latitude": 21.2998203, "longitude": -157.8393158, "subtypes": "Neurologist"}, {"name": "Sada Okumura", "address": "888 S King St, Honolulu, HI 968133097", "city": "Honolulu", "state": "Hawaii", "state_code": "HI", "phone": "+1 800-645-3055", "website": "", "rating": 1, "reviews": 1, "place_id": "ChIJVYiw1eZtAHwRSefYgTjH0-0", "latitude": 21.3025781, "longitude": -157.8507719, "subtypes": "Neurologist"}, {"name": "Dr. Michon Morita, MD", "address": "1380 Lusitana St # 712, Honolulu, HI 96813", "city": "Honolulu", "state": "Hawaii", "state_code": "HI", "phone": "+1 808-529-0508", "website": "", "rating": 4.6, "reviews": 11, "place_id": "ChIJDUgIW95tAHwRad5e48MkfZ4", "latitude": 21.3080213, "longitude": -157.852902, "subtypes": "Neurosurgeon"}, {"name": "Dr. Stuart W. Pang, MD", "address": "3288 Moanalua Rd, Honolulu, HI 96819", "city": "Honolulu", "state": "Hawaii", "state_code": "HI", "phone": "+1 808-432-0000", "website": "", "rating": 5, "reviews": 1, "place_id": "ChIJ6QMPTtluAHwRvNJthzYvp5E", "latitude": 21.3633277, "longitude": -157.8998789, "subtypes": "Neurologist"}, {"name": "Straub Clinic & Hospital: Gerber Mark S MD", "address": "888 S King St, Honolulu, HI 96813", "city": "Honolulu", "state": "Hawaii", "state_code": "HI", "phone": "+1 808-522-4000", "website": "https://www.hawaiipacifichealth.org/straub/", "rating": 3.5, "reviews": 8, "place_id": "ChIJ2cvv1OBtAHwRL5dCJrXSefU", "latitude": 21.3030246, "longitude": -157.8511103, "subtypes": "Neurosurgeon"}, {"name": "Watters Michael R MD", "address": "1356 Lusitana St, Honolulu, HI 96813", "city": "Honolulu", "state": "Hawaii", "state_code": "HI", "phone": "+1 808-983-6000", "website": "http://www.kapiolani.org/", "rating": "", "reviews": "", "place_id": "ChIJo5S5Qt5tAHwRlwQwMpKWUag", "latitude": 21.3073211, "longitude": -157.8528375, "subtypes": "Neurologist"}, {"name": "Dr. Karen Morgenshtern Yacoby", "address": "550 S Beretania St. Suite 405, Honolulu, HI 96813", "city": "Honolulu", "state": "Hawaii", "state_code": "HI", "phone": "+1 808-691-8866", "website": "https://www.queens.org/providers/2204/karen-v-morgenshtern-yacoby/", "rating": 3.7, "reviews": 3, "place_id": "ChIJFVf20d9tAHwRxufgER8MTvU", "latitude": 21.306678, "longitude": -157.854381, "subtypes": "Neurologist"}, {"name": "Peter W Rossi Md", "address": "250 Ward Ave #170, Honolulu, HI 96814", "city": "Honolulu", "state": "Hawaii", "state_code": "HI", "phone": "", "website": "", "rating": "", "reviews": "", "place_id": "ChIJhYH2reFtAHwRoxAEfN1toMY", "latitude": 21.2961786, "longitude": -157.8570776, "subtypes": "Neurologist"}, {"name": "Obana William G Dr Inc", "address": "1380 Lusitana St # 410, Honolulu, HI 96813", "city": "Honolulu", "state": "Hawaii", "state_code": "HI", "phone": "+1 808-523-9993", "website": "", "rating": 5, "reviews": 6, "place_id": "ChIJDUgIW95tAHwRmu5T5c8JRYs", "latitude": 21.3080213, "longitude": -157.852902, "subtypes": "Neurosurgeon"}, {"name": "David Panczykowski", "address": "550 S Beretania St. Suite 405, Honolulu, HI 96813", "city": "Honolulu", "state": "Hawaii", "state_code": "HI", "phone": "+1 808-691-8866", "website": "", "rating": 5, "reviews": 1, "place_id": "ChIJFVf20d9tAHwRnTlQ2V16CM8", "latitude": 21.306678, "longitude": -157.854381, "subtypes": "Neurosurgeon"}, {"name": "Dr. Victoria Wong", "address": "550 S Beretania St. Suite 405, Honolulu, HI 96813", "city": "Honolulu", "state": "Hawaii", "state_code": "HI", "phone": "+1 808-691-8866", "website": "https://www.queens.org/providers/1568/victoria-ss-wong/", "rating": "", "reviews": "", "place_id": "ChIJFVf20d9tAHwR9XysCFncQpE", "latitude": 21.306678, "longitude": -157.854381, "subtypes": "Neurologist"}, {"name": "Hawaii Neuropsychology Center", "address": "1188 Bishop St STE 2701, Honolulu, HI 96813", "city": "Honolulu", "state": "Hawaii", "state_code": "HI", "phone": "+1 808-585-9494", "website": "", "rating": "", "reviews": "", "place_id": "ChIJY1-TuXVuAHwRWyQ4r-o9lYM", "latitude": 21.3105731, "longitude": -157.8590107, "subtypes": "Neurophysiologist"}, {"name": "MONIQUE M. CANONICO", "address": "711 Kapiolani Blvd Suite 500, Honolulu, HI 96813", "city": "Honolulu", "state": "Hawaii", "state_code": "HI", "phone": "+1 808-942-8108", "website": "", "rating": "", "reviews": "", "place_id": "ChIJJfUf7uFtAHwRRC7txv459I0", "latitude": 21.301318, "longitude": -157.8559533, "subtypes": "Neurologist"}, {"name": "St Francis Med Center Neurological: Chang Walter Y M MD", "address": "2228 Liliha St #406, Honolulu, HI 96817", "city": "Honolulu", "state": "Hawaii", "state_code": "HI", "phone": "+1 808-547-6759", "website": "", "rating": "", "reviews": "", "place_id": "ChIJS7SwNytsAHwR9BDp8PX6Xi4", "latitude": 21.3289397, "longitude": -157.8526553, "subtypes": "Neurologist"}, {"name": "Reid Hoshide", "address": "405 N Kuakini St STE 1001, Honolulu, HI 96817", "city": "Honolulu", "state": "Hawaii", "state_code": "HI", "phone": "+1 808-457-4057", "website": "http://www.neurosurgicalinstituteofhawaii.org/", "rating": 3.9, "reviews": 7, "place_id": "ChIJFVf20d9tAHwRi6aKBCzvJbc", "latitude": 21.3226528, "longitude": -157.8570599, "subtypes": "Neurosurgeon"}, {"name": "Dr. Pola Chojecka", "address": "1301 Punchbowl St, Honolulu, HI 96813", "city": "Honolulu", "state": "Hawaii", "state_code": "HI", "phone": "+1 808-691-1000", "website": "https://www.queens.org/providers/228/pola-a-chojecka/", "rating": "", "reviews": "", "place_id": "ChIJ__-PVN5tAHwRCBT4LVlONQo", "latitude": 21.3084698, "longitude": -157.8538581, "subtypes": "Neurologist"}, {"name": "SHARIN Y S BURTON", "address": "711 Kapiolani Blvd Suite 500, Honolulu, HI 96813", "city": "Honolulu", "state": "Hawaii", "state_code": "HI", "phone": "+1 808-942-8108", "website": "", "rating": "", "reviews": "", "place_id": "ChIJJfUf7uFtAHwRDilLlBQl-yA", "latitude": 21.301318, "longitude": -157.8559533, "subtypes": "Neurologist"}, {"name": "Gabriele Barthlen", "address": "1188 Bishop St, Honolulu, HI 96813", "city": "Honolulu", "state": "Hawaii", "state_code": "HI", "phone": "+1 808-456-7378", "website": "", "rating": "", "reviews": "", "place_id": "ChIJ__-DuXVuAHwRBhN-THpInDo", "latitude": 21.3105731, "longitude": -157.859051, "subtypes": "Neurologist"}, {"name": "Dr. Joseph Kipta", "address": "550 S Beretania St. #501, Honolulu, HI 96813", "city": "Honolulu", "state": "Hawaii", "state_code": "HI", "phone": "+1 808-691-5027", "website": "https://www.hawaiipacifichealth.org/find-a-physician/search-results/Joseph-Kipta/1503", "rating": "", "reviews": "", "place_id": "ChIJhfRQ0t9tAHwRFJ0f0hrd4cs", "latitude": 21.3065747, "longitude": -157.8542177, "subtypes": "Neurologist"}, {"name": "Oshiro Eric M MD", "address": "321 N Kuakini St, Honolulu, HI 96817", "city": "Honolulu", "state": "Hawaii", "state_code": "HI", "phone": "+1 808-536-3671", "website": "", "rating": "", "reviews": "", "place_id": "ChIJXZEqPNZtAHwRvfdPs0tYV60", "latitude": 21.3216288, "longitude": -157.8559476, "subtypes": "Neurosurgeon"}, {"name": "Dr. Douglas Valenta, MD", "address": "1301 Punchbowl St, Honolulu, HI 96813", "city": "Honolulu", "state": "Hawaii", "state_code": "HI", "phone": "+1 808-691-7152", "website": "", "rating": "", "reviews": "", "place_id": "ChIJ1T1Hud9tAHwRFikfXICI8Ic", "latitude": 21.3083247, "longitude": -157.8538344, "subtypes": "Neurologist"}, {"name": "Hayashida Steven F MD", "address": "1329 Lusitana St # 702, Honolulu, HI 96813", "city": "Honolulu", "state": "Hawaii", "state_code": "HI", "phone": "+1 808-536-0630", "website": "", "rating": "", "reviews": "", "place_id": "ChIJXfHBbN5tAHwREFltF61zhLI", "latitude": 21.3075359, "longitude": -157.8521078, "subtypes": "Neurosurgeon"}, {"name": "Dr. Leslie Rudzinski", "address": "1301 Punchbowl St, Honolulu, HI 96813", "city": "Honolulu", "state": "Hawaii", "state_code": "HI", "phone": "+1 808-691-1000", "website": "https://www.queens.org/providers/1216/leslie-a-rudzinski/", "rating": "", "reviews": "", "place_id": "ChIJ__-PVN5tAHwR7jdgzZJOCGE", "latitude": 21.3084698, "longitude": -157.8538581, "subtypes": "Neurologist"}, {"name": "Dr. Calvin Kam", "address": "1301 Punchbowl St, Honolulu, HI 96813", "city": "Honolulu", "state": "Hawaii", "state_code": "HI", "phone": "+1 808-538-9011", "website": "", "rating": "", "reviews": "", "place_id": "ChIJA7zauN9tAHwRtIBgF-EQuWs", "latitude": 21.3083247, "longitude": -157.8538344, "subtypes": "Neurosurgeon"}, {"name": "Dr. Vivian Chin", "address": "550 S Beretania St. Suite 405, Honolulu, HI 96813", "city": "Honolulu", "state": "Hawaii", "state_code": "HI", "phone": "+1 808-691-7697", "website": "", "rating": 5, "reviews": 1, "place_id": "ChIJFVf20d9tAHwR3y1WAv_AZPo", "latitude": 21.306678, "longitude": -157.854381, "subtypes": "Neurologist"}, {"name": "Dr. Peggy Murphy", "address": "848 S Beretania St. STE 402, Honolulu, HI 96813", "city": "Honolulu", "state": "Hawaii", "state_code": "HI", "phone": "+1 808-348-0095", "website": "", "rating": 3.7, "reviews": 3, "place_id": "ChIJAQBwqO5tAHwR4QwcOrlU3pc", "latitude": 21.3045071, "longitude": -157.8500391, "subtypes": "Neurophysiologist"}, {"name": "Dr. Linda Chang, MD", "address": "1301 Punchbowl St, Honolulu, HI 96813", "city": "Honolulu", "state": "Hawaii", "state_code": "HI", "phone": "+1 808-538-9011", "website": "", "rating": "", "reviews": "", "place_id": "ChIJ1T1Hud9tAHwRhBczX1cS1y4", "latitude": 21.3084698, "longitude": -157.8538581, "subtypes": "Neurologist"}, {"name": "Sarah Graner, MD", "address": "321 N Kuakini St STE 810, Honolulu, HI 96817", "city": "Honolulu", "state": "Hawaii", "state_code": "HI", "phone": "+1 808-523-5885", "website": "https://doctors.adventisthealth.org/provider/Sarah%2BT%2BGraner/1959673", "rating": "", "reviews": "", "place_id": "ChIJXwJxWnZtAHwRAuBVu4amOLM", "latitude": 21.3215492, "longitude": -157.8559229, "subtypes": "Neurologist"}, {"name": "Joel Ulloth", "address": "85 Maui Lani Pkwy, Wailuku, HI 96793", "city": "Wailuku", "state": "Hawaii", "state_code": "HI", "phone": "+1 808-442-5700", "website": "", "rating": 5, "reviews": 6, "place_id": "ChIJIaPAUBbTVHkRiVcJlb9TQ68", "latitude": 20.8861787, "longitude": -156.4904259, "subtypes": "Neurosurgeon"}, {"name": "Krushelnycky Bohdan MD", "address": "2228 Liliha St STE 207, Honolulu, HI 96817", "city": "Honolulu", "state": "Hawaii", "state_code": "HI", "phone": "+1 808-532-2266", "website": "", "rating": "", "reviews": "", "place_id": "ChIJS7SwNytsAHwR5d6pSHXtQ6w", "latitude": 21.3289397, "longitude": -157.8526553, "subtypes": "Neurologist"}, {"name": "Dr. Surendra D. Rao, MD", "address": "3-3420 Kuhio Hwy B, Lihue, HI 96766", "city": "Lihue", "state": "Hawaii", "state_code": "HI", "phone": "+1 808-245-1500", "website": "https://www.hawaiipacifichealth.org/find-a-physician/search-results/Surendra-D-Rao/576", "rating": 3, "reviews": 8, "place_id": "ChIJTzKs6GEeB3wRs08ZgXkxJJA", "latitude": 21.9860142, "longitude": -159.3649968, "subtypes": "Neurologist"}]