[{"name": "Nitz Dennis MD", "address": "3701 Lindenwood St, Sioux City, IA 51104", "city": "Sioux City", "state": "Iowa", "state_code": "IA", "phone": "", "website": "", "rating": "", "reviews": "", "place_id": "ChIJObtZRw8IjocRrI0DAyyE08g", "latitude": 42.5345692, "longitude": -96.4200839, "subtypes": "Neurologist"}, {"name": "Todd Zimprich, MD", "address": "801 5th St, Sioux City, IA 51101", "city": "Sioux City", "state": "Iowa", "state_code": "IA", "phone": "+1 712-279-2010", "website": "", "rating": "", "reviews": "", "place_id": "ChIJGQUAJhP9jYcRDkJ60_oWxB8", "latitude": 42.4956386, "longitude": -96.4009146, "subtypes": "Neurologist"}, {"name": "Grudem Jon M MD", "address": "5708 Sunnybrook Dr, Sioux City, IA 51106", "city": "Sioux City", "state": "Iowa", "state_code": "IA", "phone": "+1 605-217-2667", "website": "", "rating": "", "reviews": "", "place_id": "ChIJUUZQIyD8jYcRH-fcF3vphRc", "latitude": 42.452471, "longitude": -96.331991, "subtypes": "Neurologist"}, {"name": "Dr. Irving L. Wolfe, DO", "address": "2600 Grand Ave, Des Moines, IA 50312", "city": "Des Moines", "state": "Iowa", "state_code": "IA", "phone": "+1 515-255-7414", "website": "http://www.centraliowaneuro.com/about.html", "rating": 4.4, "reviews": 14, "place_id": "ChIJm_fkzcee7ocRtmxtRn-YaXI", "latitude": 41.5840512, "longitude": -93.65182589999999, "subtypes": "Neurologist"}, {"name": "Bruce Hughes, MD", "address": "1111 6th Ave a100, Des Moines, IA 50314", "city": "Des Moines", "state": "Iowa", "state_code": "IA", "phone": "+1 515-358-0011", "website": "https://www.mercyone.org/provider/bruce-hughes-md-neurology", "rating": 3.9, "reviews": 23, "place_id": "ChIJgcOcIQqZ7ocR9f07qhSVEqk", "latitude": 41.5986713, "longitude": -93.6228884, "subtypes": "Neurologist"}, {"name": "Joseph Sherrill II, MD, FACS", "address": "1215 Pleasant St Suite 608, Des Moines, IA 50309", "city": "Des Moines", "state": "Iowa", "state_code": "IA", "phone": "+1 515-875-9560", "website": "https://www.iowaclinic.com/doctors/d89/joseph-sherrill/%3Futm_source%3Dextnet%26utm_medium%3Dyext", "rating": 4.4, "reviews": 41, "place_id": "ChIJUR3SmxuZ7ocRVzRWL5C7n-8", "latitude": 41.58941189999999, "longitude": -93.6341296, "subtypes": "Neurologist"}, {"name": "Mark Puricelli, DO", "address": "1111 6th Ave a100, Des Moines, IA 50314", "city": "Des Moines", "state": "Iowa", "state_code": "IA", "phone": "+1 515-358-0011", "website": "https://www.mercyone.org/provider/mark-puricelli-do-neurology", "rating": 1.5, "reviews": 23, "place_id": "ChIJgcOcIQqZ7ocR3ZtqgeC4XmA", "latitude": 41.5986713, "longitude": -93.6228884, "subtypes": "Neurologist"}, {"name": "Dr. Debra A. Benjamin, DO", "address": "3600 30th St, Des Moines, IA 50310", "city": "Des Moines", "state": "Iowa", "state_code": "IA", "phone": "+1 515-699-5741", "website": "http://www.centraliowa.va.gov/", "rating": 5, "reviews": 6, "place_id": "ChIJbbjoLAec7ocR16hdGH2lwrc", "latitude": 41.6277272, "longitude": -93.65981239999999, "subtypes": "Neurologist"}, {"name": "Randall Hamilton, MD", "address": "1111 6th Ave a100, Des Moines, IA 50314", "city": "Des Moines", "state": "Iowa", "state_code": "IA", "phone": "+1 515-358-0011", "website": "https://www.mercyone.org/provider/randall-hamilton-md-neurology", "rating": 5, "reviews": 4, "place_id": "ChIJgcOcIQqZ7ocRZK_t_3W8_1Y", "latitude": 41.5986713, "longitude": -93.6228884, "subtypes": "Neurologist"}, {"name": "Asit Tripathy, MD", "address": "1215 Pleasant St Ste 303, Des Moines, IA 50309", "city": "Des Moines", "state": "Iowa", "state_code": "IA", "phone": "+1 515-241-6544", "website": "https://www.unitypoint.org/providers/Asit-Tripathy-1167758%3Futm_source%3Dgmb%26utm_medium%3Dweb%26utm_campaign%3Dbrandify", "rating": 4, "reviews": 4, "place_id": "ChIJxdrjhBuZ7ocRzaxYLmvmNXE", "latitude": 41.5895221, "longitude": -93.63407049999999, "subtypes": "Neurologist"}, {"name": "Lynn K. Struck, MD", "address": "6000 University Ave # 210, West Des Moines, IA 50266", "city": "West Des Moines", "state": "Iowa", "state_code": "IA", "phone": "+1 515-241-2080", "website": "https://www.unitypoint.org/providers/Lynn-K-Struck-1167851%3Futm_source%3Dgmb%26utm_medium%3Dweb%26utm_campaign%3Dbrandify", "rating": 4.4, "reviews": 7, "place_id": "ChIJL467ohuZ7ocRRa3qk66uUng", "latitude": 41.5991174, "longitude": -93.7960386, "subtypes": "Neurologist"}, {"name": "Calvin Hansen M.D.", "address": "1221 Pleasant St Ste 300, Des Moines, IA 50309", "city": "Des Moines", "state": "Iowa", "state_code": "IA", "phone": "+1 515-241-2080", "website": "https://www.unitypoint.org/desmoines/provider.aspx%3Fid%3D4985%26clinicid%3D69", "rating": 5, "reviews": 1, "place_id": "ChIJL467ohuZ7ocRQNsbnDYyDcs", "latitude": 41.5900715, "longitude": -93.6350404, "subtypes": "Neurologist"}, {"name": "Dr. Mostafa Hammoudi, MD", "address": "1221 Pleasant St Ste 300, Des Moines, IA 50309", "city": "Des Moines", "state": "Iowa", "state_code": "IA", "phone": "+1 805-658-5800", "website": "http://www.cmhshealth.org/find-a-physician/%3Ffap_specialty%3DNeurology%26fap_lastname%3D", "rating": 5, "reviews": 3, "place_id": "ChIJL467ohuZ7ocRIHbQ7Q-wIfw", "latitude": 41.59008499999999, "longitude": -93.63502299999999, "subtypes": "Neurologist"}, {"name": "Duangchai Narawong, MD", "address": "1215 Pleasant St Ste 303, Des Moines, IA 50309", "city": "Des Moines", "state": "Iowa", "state_code": "IA", "phone": "+1 515-241-6544", "website": "https://www.unitypoint.org/providers/Duangchai-Narawong-1165337%3Futm_source%3Dgmb%26utm_medium%3Dweb%26utm_campaign%3Dbrandify", "rating": 4.2, "reviews": 5, "place_id": "ChIJxdrjhBuZ7ocR4KMGvq7B_uE", "latitude": 41.5895221, "longitude": -93.63407049999999, "subtypes": "Neurologist"}, {"name": "Steven Adelman, DO", "address": "1111 6th Ave a100, Des Moines, IA 50314", "city": "Des Moines", "state": "Iowa", "state_code": "IA", "phone": "+1 515-358-0011", "website": "https://www.mercyone.org/provider/steven-adelman-do-neurology", "rating": 1.5, "reviews": 6, "place_id": "ChIJgcOcIQqZ7ocRO7wYQyzghjM", "latitude": 41.5986713, "longitude": -93.6228884, "subtypes": "Neurologist"}, {"name": "Neurosurgical Services: Baorini David MD", "address": "1200 Pleasant St # 608, Des Moines, IA 50309", "city": "Des Moines", "state": "Iowa", "state_code": "IA", "phone": "+1 515-241-6212", "website": "http://www.unitypoint.org/", "rating": 5, "reviews": 1, "place_id": "ChIJw0PpTxuZ7ocRjWR53bIWDa8", "latitude": 41.5890661, "longitude": -93.6335757, "subtypes": "Neurosurgeon"}, {"name": "Heike Schmolck, MD", "address": "1111 6th Ave a100, Des Moines, IA 50314", "city": "Des Moines", "state": "Iowa", "state_code": "IA", "phone": "+1 515-358-0011", "website": "https://www.mercyone.org/provider/heike-schmolck-md-neurology", "rating": 4, "reviews": 4, "place_id": "ChIJgcOcIQqZ7ocRCYCsbWIBvDA", "latitude": 41.5986713, "longitude": -93.6228884, "subtypes": "Neurologist"}, {"name": "Wendy Zadeh, MD", "address": "1801 Hickman Rd, Des Moines, IA 50314", "city": "Des Moines", "state": "Iowa", "state_code": "IA", "phone": "+1 515-282-2463", "website": "https://www.broadlawns.org/clinics-and-services/neurology", "rating": 5, "reviews": 1, "place_id": "ChIJf_Dkf_SZ7ocRGWeZnWbK7V8", "latitude": 41.616506, "longitude": -93.64214969999999, "subtypes": "Neurologist"}, {"name": "Amanda Croxton, DO", "address": "1215 Pleasant St Ste 303, Des Moines, IA 50309", "city": "Des Moines", "state": "Iowa", "state_code": "IA", "phone": "+1 515-241-6544", "website": "https://www.unitypoint.org/providers/Amanda-Croxton-1166075%3Futm_source%3Dgmb%26utm_medium%3Dweb%26utm_campaign%3Dbrandify", "rating": 3.4, "reviews": 5, "place_id": "ChIJd75oSPuZ7ocRZkHahCRKLQg", "latitude": 41.5895221, "longitude": -93.63407049999999, "subtypes": "Neurologist"}, {"name": "Troy Munson, MD", "address": "1111 6th Ave b1, Des Moines, IA 50314", "city": "Des Moines", "state": "Iowa", "state_code": "IA", "phone": "+1 515-358-0100", "website": "https://www.mercyone.org/provider/troy-munson-md-neurosurgery", "rating": 4.3, "reviews": 10, "place_id": "ChIJKRLqJn6Z7ocRdoxKuTzZ8A0", "latitude": 41.5986713, "longitude": -93.6228884, "subtypes": "Neurosurgeon"}, {"name": "Paul Babikian, MD", "address": "1111 6th Ave a100, Des Moines, IA 50314", "city": "Des Moines", "state": "Iowa", "state_code": "IA", "phone": "+1 515-358-0011", "website": "https://www.mercyone.org/provider/paul-babikian-md-neurology", "rating": 3.4, "reviews": 5, "place_id": "ChIJgcOcIQqZ7ocRekB7ZuxzmPc", "latitude": 41.5986713, "longitude": -93.6228884, "subtypes": "Neurologist"}, {"name": "Esmiralda Henderson, MD", "address": "1111 6th Ave b1, Des Moines, IA 50314", "city": "Des Moines", "state": "Iowa", "state_code": "IA", "phone": "+1 515-358-0100", "website": "https://www.mercyone.org/provider/esmiralda-henderson-md-neurosurgery", "rating": 4.4, "reviews": 5, "place_id": "ChIJdz9lOT2Z7ocRHM1sGQZXUBc", "latitude": 41.5986713, "longitude": -93.6228884, "subtypes": "Neurosurgeon"}, {"name": "Haley Masterson, MD", "address": "330 Laurel St Suite 1200, Des Moines, IA 50314", "city": "Des Moines", "state": "Iowa", "state_code": "IA", "phone": "+1 515-643-6290", "website": "https://www.mercyone.org/provider/haley-masterson-md-neurology", "rating": 3.6, "reviews": 5, "place_id": "ChIJc3lyDViZ7ocRHmngypWHzxg", "latitude": 41.5967996, "longitude": -93.62196689999999, "subtypes": "Neurologist"}, {"name": "Rifali Patel, MD", "address": "330 Laurel St Suite 1200, Des Moines, IA 50314", "city": "Des Moines", "state": "Iowa", "state_code": "IA", "phone": "+1 515-643-6290", "website": "https://www.mercyone.org/provider/rifali-patel-md-neurology", "rating": 3.2, "reviews": 6, "place_id": "ChIJHV6yWJGZ7ocRE9pu3yGroqg", "latitude": 41.5967996, "longitude": -93.62196689999999, "subtypes": "Neurologist"}, {"name": "David Friedgood, DO", "address": "1111 6th Ave, Des Moines, IA 50314", "city": "Des Moines", "state": "Iowa", "state_code": "IA", "phone": "+1 515-358-0011", "website": "http://mercyone.org/provider/David-Friedgood-DO-neurology", "rating": "", "reviews": "", "place_id": "ChIJ89pgBD-Z7ocRGf1VD26Y2RM", "latitude": 41.5986713, "longitude": -93.6228884, "subtypes": "Neurologist"}, {"name": "Dr. Joseph M. Doro, DO", "address": "3600 30th St, Des Moines, IA 50310", "city": "Des Moines", "state": "Iowa", "state_code": "IA", "phone": "+1 515-699-5999", "website": "http://www.centraliowa.va.gov/", "rating": 1, "reviews": 1, "place_id": "ChIJbbjoLAec7ocRRPnS7zcnCQQ", "latitude": 41.627869, "longitude": -93.65879799999999, "subtypes": "Neurologist"}, {"name": "Asuta Health - Ankeny", "address": "210 NE Delaware Ave #110, Ankeny, IA 50021", "city": "Ankeny", "state": "Iowa", "state_code": "IA", "phone": "+1 515-984-8814", "website": "https://asutahealth.org/", "rating": 4.8, "reviews": 305, "place_id": "ChIJZZD1aqua7ocR5NJe0V6IjaQ", "latitude": 41.7330925, "longitude": -93.58170419999999, "subtypes": "Neurologist"}, {"name": "Waldman Wendy A MD", "address": "1801 Hickman Rd, Des Moines, IA 50314", "city": "Des Moines", "state": "Iowa", "state_code": "IA", "phone": "+1 515-282-2200", "website": "http://www.broadlawns.org/", "rating": "", "reviews": "", "place_id": "ChIJv1FPnV2Z7ocREjEVH8Bjcg0", "latitude": 41.616506, "longitude": -93.64214969999999, "subtypes": "Neurologist"}, {"name": "John Wright, MD", "address": "1111 6th Ave a100, Des Moines, IA 50314", "city": "Des Moines", "state": "Iowa", "state_code": "IA", "phone": "+1 515-358-0011", "website": "https://www.mercyone.org/provider/john-wright-md-neurology", "rating": "", "reviews": "", "place_id": "ChIJ04xiLjaZ7ocRpFWRwDc_dcI", "latitude": 41.5986713, "longitude": -93.6228884, "subtypes": "Neurologist"}, {"name": "Dr. Winthrop S. Risk Jr, MD", "address": "811 5th Ave SE, Cedar Rapids, IA 52403", "city": "Cedar Rapids", "state": "Iowa", "state_code": "IA", "phone": "+1 319-362-7924", "website": "", "rating": 4.1, "reviews": 42, "place_id": "ChIJgVUaSEj35IcRLt1COAqXy5k", "latitude": 41.979096, "longitude": -91.6582347, "subtypes": "Neurologist"}, {"name": "Thomas M. Rogers DO", "address": "275 10th St SE Suite 3320, Cedar Rapids, IA 52403", "city": "Cedar Rapids", "state": "Iowa", "state_code": "IA", "phone": "+1 319-398-1721", "website": "https://www.pcofiowa.com/find-a-doctor/p53/thomas-rogers/", "rating": 4.2, "reviews": 5, "place_id": "ChIJHQS6QEr35IcRdX2HRahdBq8", "latitude": 41.9821511, "longitude": -91.6586275, "subtypes": "Neurologist"}, {"name": "Robert J. Struthers MD", "address": "275 10th St SE Suite 3320, Cedar Rapids, IA 52403", "city": "Cedar Rapids", "state": "Iowa", "state_code": "IA", "phone": "+1 319-398-1721", "website": "https://www.pcofiowa.com/find-a-doctor/p55/robert-struthers/", "rating": 5, "reviews": 9, "place_id": "ChIJwwwCe0j35IcR9J_vrHUhgnk", "latitude": 41.9821511, "longitude": -91.6586275, "subtypes": "Neurologist"}, {"name": "Shereen J. Chang MD", "address": "275 10th St SE Suite 3320, Cedar Rapids, IA 52403", "city": "Cedar Rapids", "state": "Iowa", "state_code": "IA", "phone": "+1 319-398-1721", "website": "https://www.pcofiowa.com/find-a-doctor/p47/shereen-chang/", "rating": 2.4, "reviews": 23, "place_id": "ChIJwwwCe0j35IcRe1setf-hdQg", "latitude": 41.9821511, "longitude": -91.6586275, "subtypes": "Neurologist"}, {"name": "Ivo Bekavac, MD, Ph.D.", "address": "2515 Cyclone Dr Suite D, Waterloo, IA 50701", "city": "Waterloo", "state": "Iowa", "state_code": "IA", "phone": "+1 319-243-1270", "website": "http://cvneurology.com/%3Futm_source%3DGMBSocialClimb%26utm_medium%3DIvoBekavac%252CMD%252CPh.D.", "rating": 4.8, "reviews": 269, "place_id": "ChIJjeqmaHNU5YcRYCFKYh5SemU", "latitude": 42.4682767, "longitude": -92.4077308, "subtypes": "Neurologist"}, {"name": "Cedar Valley Neurology", "address": "2515 Cyclone Dr Suite D, Waterloo, IA 50701", "city": "Waterloo", "state": "Iowa", "state_code": "IA", "phone": "+1 319-243-1270", "website": "https://cvneurology.com/%3Futm_source%3DGMBSocialClimb", "rating": 4.9, "reviews": 37, "place_id": "ChIJDQwWZUJV5YcR2YKhd4SOiXo", "latitude": 42.4682767, "longitude": -92.4077308, "subtypes": "Neurologist"}, {"name": "Michael W. Chen, DO", "address": "1 Edmundson Pl, Council Bluffs, IA 51503", "city": "Council Bluffs", "state": "Iowa", "state_code": "IA", "phone": "+1 712-396-4050", "website": "https://providers.bestcare.org/provider/Michael%2BW.%2BChen/1493541", "rating": 3.4, "reviews": 10, "place_id": "ChIJRSbWTZOEk4cRKx_FoTF6lnM", "latitude": 41.2686175, "longitude": -95.8354052, "subtypes": "Neurologist"}, {"name": "CHI Health Clinic Neurology (W Broadway)", "address": "3135 W Broadway, Council Bluffs, IA 51501", "city": "Council Bluffs", "state": "Iowa", "state_code": "IA", "phone": "+1 402-717-0070", "website": "https://www.chihealth.com/en/services/neuro.html%3Futm_source%3DLocalSearch%26utm_medium%3DFacility%26utm_campaign%3DCHIHealthClinic%26utm_term%3DCHIHealthClinicNeurology%2528WBroadway%2529%26y_source%3D1_MTQ1MjI4MjAtNzE1LWxvY2F0aW9uLndlYnNpdGU%253D", "rating": "", "reviews": "", "place_id": "ChIJR8ZYTgCFk4cRwr67hxxZKrc", "latitude": 41.2615634, "longitude": -95.8952762, "subtypes": "Neurologist"}, {"name": "Semira Ramic, DO", "address": "1015 Duff Ave, Ames, IA 50010", "city": "Ames", "state": "Iowa", "state_code": "IA", "phone": "+1 515-239-4400", "website": "https://www.mcfarlandclinic.com/doctors/semira-ramic%3Futm_medium%3Dorganic%26utm_source%3Dgoogle%2Bmy%2Bbusiness%26utm_campaign%3Dmcf_ramic-s", "rating": 4.8, "reviews": 52, "place_id": "ChIJc2zlVNRx7ocRdhbs4pbrPgs", "latitude": 42.0316176, "longitude": -93.61100619999999, "subtypes": "Neurologist"}, {"name": "Edward Clemmons, DO", "address": "1015 Duff Ave, Ames, IA 50010", "city": "Ames", "state": "Iowa", "state_code": "IA", "phone": "+1 515-239-4400", "website": "https://www.mcfarlandclinic.com/doctors/edward-clemmons%3Futm_medium%3Dorganic%26utm_source%3Dgoogle%2Bmy%2Bbusiness%26utm_campaign%3Dmcf_clemmons-e", "rating": 4.9, "reviews": 51, "place_id": "ChIJHw7jZWVw7ocRg6Ppyg23WIQ", "latitude": 42.0316364, "longitude": -93.6110155, "subtypes": "Neurologist"}, {"name": "Caitlin Jardon, ARNP", "address": "1015 Duff Ave, Ames, IA 50010", "city": "Ames", "state": "Iowa", "state_code": "IA", "phone": "+1 515-239-4400", "website": "https://www.mcfarlandclinic.com/doctors/caitlin-jardon%3Futm_medium%3Dorganic%26utm_source%3Dgoogle%2Bmy%2Bbusiness%26utm_campaign%3Dmcf_jardon-c", "rating": 4.9, "reviews": 33, "place_id": "ChIJ__-_4m9w7ocRaC7AdK5lNjo", "latitude": 42.0315187, "longitude": -93.6109372, "subtypes": "Neurologist"}, {"name": "Olesya Grinenko, MD", "address": "1015 Duff Ave, Ames, IA 50010", "city": "Ames", "state": "Iowa", "state_code": "IA", "phone": "+1 515-239-4400", "website": "https://www.mcfarlandclinic.com/doctors/olesya-grinenko%3Futm_medium%3Dorganic%26utm_source%3Dgoogle%2Bmy%2Bbusiness%26utm_campaign%3Dmcf_grinenko-o", "rating": 5, "reviews": 49, "place_id": "ChIJuYZUsVFx7ocR-Y2bamYWKxY", "latitude": 42.0315187, "longitude": -93.6109372, "subtypes": "Neurologist"}, {"name": "David B. Moore, MD", "address": "1015 Duff Ave, Ames, IA 50010", "city": "Ames", "state": "Iowa", "state_code": "IA", "phone": "+1 515-239-4400", "website": "https://www.mcfarlandclinic.com/doctors/david-moore%3Futm_medium%3Dorganic%26utm_source%3Dgoogle%2Bmy%2Bbusiness%26utm_campaign%3Dmcf_moore-d", "rating": 4.9, "reviews": 43, "place_id": "ChIJafDa_G9w7ocRN1KdRcRLsDY", "latitude": 42.0316338, "longitude": -93.6110465, "subtypes": "Neurologist"}, {"name": "Selden Spencer, MD, FAAN", "address": "1015 Duff Ave, Ames, IA 50010", "city": "Ames", "state": "Iowa", "state_code": "IA", "phone": "+1 515-239-4400", "website": "https://www.mcfarlandclinic.com/doctors/selden-spencer%3Futm_medium%3Dorganic%26utm_source%3Dgoogle%2Bmy%2Bbusiness%26utm_campaign%3Dmcf_spencer-s", "rating": 4.2, "reviews": 5, "place_id": "ChIJafDa_G9w7ocRadpgNsJMrPY", "latitude": 42.0316364, "longitude": -93.6110155, "subtypes": "Neurologist"}, {"name": "Anu Baweja, MD", "address": "1015 Duff Ave, Ames, IA 50010", "city": "Ames", "state": "Iowa", "state_code": "IA", "phone": "+1 515-239-4400", "website": "", "rating": 2.3, "reviews": 3, "place_id": "ChIJJRg5eWVw7ocRAInniJ30JP4", "latitude": 42.0316364, "longitude": -93.6110155, "subtypes": "Neurologist"}, {"name": "Emily Roalson, PA-C", "address": "1015 Duff Ave, Ames, IA 50010", "city": "Ames", "state": "Iowa", "state_code": "IA", "phone": "+1 515-239-4400", "website": "", "rating": "", "reviews": "", "place_id": "ChIJHw7jZWVw7ocRiCndpSwy63s", "latitude": 42.0315187, "longitude": -93.6109372, "subtypes": "Neurologist"}, {"name": "Michael E. Shy, MD", "address": "200 Hawkins Dr, Iowa City, IA 52242", "city": "Iowa City", "state": "Iowa", "state_code": "IA", "phone": "+1 319-384-6362", "website": "https://uihc.org/michael-e-shy", "rating": 5, "reviews": 4, "place_id": "ChIJQ_wy149B5IcRQ-lXhnkfU4g", "latitude": 41.6573635, "longitude": -91.5496586, "subtypes": "Neurologist"}, {"name": "Richard R. Neiman, MD", "address": "540 E Jefferson St, Iowa City, IA 52245", "city": "Iowa City", "state": "Iowa", "state_code": "IA", "phone": "+1 319-338-5451", "website": "", "rating": 3, "reviews": 2, "place_id": "ChIJi7bJA_tB5IcR_Bc_XiO2tjE", "latitude": 41.6632602, "longitude": -91.52774939999999, "subtypes": "Neurologist"}, {"name": "Deema Fattal, MD", "address": "200 Hawkins Dr, Iowa City, IA 52242", "city": "Iowa City", "state": "Iowa", "state_code": "IA", "phone": "+1 319-356-1616", "website": "https://uihc.org/deema-fattal", "rating": 3, "reviews": 2, "place_id": "ChIJITxlnZBB5IcRHLbe9yzue74", "latitude": 41.6596452, "longitude": -91.54862519999999, "subtypes": "Neurologist"}, {"name": "Christopher Groth, MD", "address": "200 Hawkins Dr, Iowa City, IA 52242", "city": "Iowa City", "state": "Iowa", "state_code": "IA", "phone": "+1 319-356-2571", "website": "https://neurology.medicine.uiowa.edu/profile/christopher-groth", "rating": 5, "reviews": 2, "place_id": "ChIJe-XSSJBB5IcRLW3tD_RlfcQ", "latitude": 41.659068, "longitude": -91.5479836, "subtypes": "Neurologist"}, {"name": "Jeremy D. Greenlee, MD", "address": "200 Hawkins Dr, Iowa City, IA 52242", "city": "Iowa City", "state": "Iowa", "state_code": "IA", "phone": "+1 319-356-2237", "website": "https://uihc.org/jeremy-d-greenlee", "rating": 4.7, "reviews": 12, "place_id": "ChIJITxlnZBB5IcRKbUw1tkRpBs", "latitude": 41.6594594, "longitude": -91.5479919, "subtypes": "Neurosurgeon"}, {"name": "Katie Lutz, MD", "address": "200 Hawkins Dr, Iowa City, IA 52242", "city": "Iowa City", "state": "Iowa", "state_code": "IA", "phone": "+1 319-356-1616", "website": "https://uihc.org/childrens/providers/katie-lutz", "rating": 5, "reviews": 1, "place_id": "ChIJsY6PN5BB5IcRUnYWWMeqfuk", "latitude": 41.6596442, "longitude": -91.54862589999999, "subtypes": "Neurologist"}, {"name": "Teri Thomsen, MD, JD", "address": "200 Hawkins Dr, Iowa City, IA 52242", "city": "Iowa City", "state": "Iowa", "state_code": "IA", "phone": "+1 319-356-4757", "website": "", "rating": 5, "reviews": 1, "place_id": "ChIJITxlnZBB5IcRQyfE__z_0pM", "latitude": 41.65965, "longitude": -91.5486148, "subtypes": "Neurologist"}, {"name": "Dr. Ann Killoran", "address": "200 Hawkins Dr, Iowa City, IA 52242", "city": "Iowa City", "state": "Iowa", "state_code": "IA", "phone": "+1 319-356-1616", "website": "", "rating": 5, "reviews": 1, "place_id": "ChIJsY6PN5BB5IcRvy7T32-wO1M", "latitude": 41.6596442, "longitude": -91.54862589999999, "subtypes": "Neurologist"}, {"name": "Arnold H. Menezes, MD", "address": "200 Hawkins Dr, Iowa City, IA 52242", "city": "Iowa City", "state": "Iowa", "state_code": "IA", "phone": "+1 319-356-1616", "website": "https://uihc.org/arnold-h-menezes", "rating": 4.4, "reviews": 15, "place_id": "ChIJITxlnZBB5IcRNQ-1bDYxDHQ", "latitude": 41.6573635, "longitude": -91.5496586, "subtypes": "Neurosurgeon"}, {"name": "Dr. Patrick W. Hitchon, MD", "address": "200 Hawkins Dr, Iowa City, IA 52242", "city": "Iowa City", "state": "Iowa", "state_code": "IA", "phone": "+1 319-356-2775", "website": "https://uihc.org/patrick-w-hitchon", "rating": 3.2, "reviews": 22, "place_id": "ChIJITxlnZBB5IcRd3BAb9-5NHc", "latitude": 41.6592133, "longitude": -91.5482557, "subtypes": "Neurosurgeon"}, {"name": "Mark Granner, MD", "address": "200 Hawkins Dr, Iowa City, IA 52242", "city": "Iowa City", "state": "Iowa", "state_code": "IA", "phone": "+1 319-356-7235", "website": "https://uihc.org/mark-granner", "rating": "", "reviews": "", "place_id": "ChIJITxlnZBB5IcRt3pu07YGfpE", "latitude": 41.6592133, "longitude": -91.5482557, "subtypes": "Neurologist"}, {"name": "Katherine Mathews, MD, FAAN", "address": "200 Hawkins Dr, Iowa City, IA 52242", "city": "Iowa City", "state": "Iowa", "state_code": "IA", "phone": "+1 319-356-1851", "website": "https://uichildrens.org/katherine-mathews", "rating": 5, "reviews": 2, "place_id": "ChIJITxlnZBB5IcRzMtBb9jCEKI", "latitude": 41.6594594, "longitude": -91.5479919, "subtypes": "Pediatric neurologist"}, {"name": "Malcolm Yeh, MD", "address": "200 Hawkins Dr C606, Iowa City, IA 52242", "city": "Iowa City", "state": "Iowa", "state_code": "IA", "phone": "+1 319-356-1616", "website": "https://uihc.org/malcolm-yeh", "rating": 5, "reviews": 1, "place_id": "ChIJITxlnZBB5IcRlHjYBxwG5y4", "latitude": 41.6594594, "longitude": -91.5479919, "subtypes": "Neurophysiologist"}, {"name": "Christine Gill", "address": "200 Hawkins Dr, Iowa City, IA 522421009", "city": "Iowa City", "state": "Iowa", "state_code": "IA", "phone": "+1 319-356-2571", "website": "https://neurology.medicine.uiowa.edu/profile/christine-gill", "rating": 5, "reviews": 2, "place_id": "ChIJe-XSSJBB5IcRFl_JLjenDF8", "latitude": 41.659068, "longitude": -91.5479836, "subtypes": "Neurologist"}, {"name": "Dr. Todd Ajax, MD", "address": "400 E Polk St, Washington, IA 52353", "city": "Washington", "state": "Iowa", "state_code": "IA", "phone": "+1 319-863-2048", "website": "http://www.mercyiowacity.org/", "rating": 5, "reviews": 160, "place_id": "ChIJi7bJA_tB5IcRrCa23aZiowI", "latitude": 41.663002, "longitude": -91.527954, "subtypes": "Neurologist"}, {"name": "Hiroto Kawasaki, MD, PhD", "address": "200 Hawkins Dr, Iowa City, IA 52242", "city": "Iowa City", "state": "Iowa", "state_code": "IA", "phone": "+1 319-384-8239", "website": "https://uihc.org/hiroto-kawasaki", "rating": 4, "reviews": 4, "place_id": "ChIJITxlnZBB5IcRRHE6GTD0XUY", "latitude": 41.6594594, "longitude": -91.5479919, "subtypes": "Neurosurgeon"}, {"name": "Satsuki Matsumoto, MD", "address": "200 Hawkins Dr, Iowa City, IA 52242", "city": "Iowa City", "state": "Iowa", "state_code": "IA", "phone": "+1 319-356-1616", "website": "https://uichildrens.org/satsuki-matsumoto", "rating": 5, "reviews": 1, "place_id": "ChIJITxlnZBB5IcRqp0Ob-o7rfc", "latitude": 41.65965, "longitude": -91.5486148, "subtypes": "Pediatric neurologist"}, {"name": "Dr. Christopher Nance", "address": "200 Hawkins Dr, Iowa City, IA 52242", "city": "Iowa City", "state": "Iowa", "state_code": "IA", "phone": "+1 319-356-1616", "website": "https://uihc.org/providers/christopher-s-nance", "rating": "", "reviews": "", "place_id": "ChIJsY6PN5BB5IcRnqJyQic6sUs", "latitude": 41.6596442, "longitude": -91.54862589999999, "subtypes": "Neurologist"}, {"name": "Ergun Uc, MD", "address": "200 Hawkins Dr C606, Iowa City, IA 52242", "city": "Iowa City", "state": "Iowa", "state_code": "IA", "phone": "+1 319-356-1616", "website": "https://uihc.org/ergun-uc", "rating": "", "reviews": "", "place_id": "ChIJITxlnZBB5IcRiuVE1Ak9X40", "latitude": 41.6594594, "longitude": -91.5479919, "subtypes": "Neurologist"}, {"name": "Dr. Dimah N. Saade, MD", "address": "200 Hawkins Dr, Iowa City, IA 52242", "city": "Iowa City", "state": "Iowa", "state_code": "IA", "phone": "+1 319-384-7333", "website": "https://medicine.uiowa.edu/pediatrics/profile/dimah-saade", "rating": 3.4, "reviews": 5, "place_id": "ChIJITxlnZBB5IcRZoszX814rmY", "latitude": 41.6592133, "longitude": -91.5482557, "subtypes": "Pediatric neurologist"}, {"name": "Gena Ghearing", "address": "200 Hawkins Dr, Iowa City, IA 52242", "city": "Iowa City", "state": "Iowa", "state_code": "IA", "phone": "+1 319-353-7323", "website": "https://uihc.org/providers/gena-r-ghearing", "rating": 1, "reviews": 1, "place_id": "ChIJsY6PN5BB5IcReZdVi0f2ftc", "latitude": 41.6596442, "longitude": -91.54862589999999, "subtypes": "Neurologist"}, {"name": "Dr. Eduardo M. Zilli, MD", "address": "200 Hawkins Dr, Iowa City, IA 52242", "city": "Iowa City", "state": "Iowa", "state_code": "IA", "phone": "+1 319-356-1616", "website": "http://www.uihealthcare.org/", "rating": "", "reviews": "", "place_id": "ChIJITxlnZBB5IcRNQUPKHvjGVE", "latitude": 41.6592133, "longitude": -91.5482557, "subtypes": "Neurologist"}, {"name": "Satoshi Yamaguchi, MD, PhD", "address": "200 Hawkins Dr, Iowa City, IA 52242", "city": "Iowa City", "state": "Iowa", "state_code": "IA", "phone": "+1 319-353-6605", "website": "https://uihc.org/providers/satoshi-yamaguchi", "rating": 3, "reviews": 2, "place_id": "ChIJsY6PN5BB5IcRlx_YUBlyRnc", "latitude": 41.6596442, "longitude": -91.54862589999999, "subtypes": "Neurosurgeon"}, {"name": "Sourabh Lahoti", "address": "200 Hawkins Dr, Iowa City, IA 52242", "city": "Iowa City", "state": "Iowa", "state_code": "IA", "phone": "+1 319-356-1616", "website": "", "rating": "", "reviews": "", "place_id": "ChIJsY6PN5BB5IcRttv9Z5TXM_E", "latitude": 41.6596442, "longitude": -91.54862589999999, "subtypes": "Neurologist"}, {"name": "Rup Sainju", "address": "200 Hawkins Dr, Iowa City, IA 52242", "city": "Iowa City", "state": "Iowa", "state_code": "IA", "phone": "+1 319-356-1616", "website": "https://neurology.medicine.uiowa.edu/profile/rup-sainju", "rating": "", "reviews": "", "place_id": "ChIJsY6PN5BB5IcRfXZxy_-zcZw", "latitude": 41.6596442, "longitude": -91.54862589999999, "subtypes": "Neurologist"}, {"name": "M. Eric Dyken, MD", "address": "200 Hawkins Dr, Iowa City, IA 52242", "city": "Iowa City", "state": "Iowa", "state_code": "IA", "phone": "+1 319-356-2572", "website": "https://uihc.org/m-eric-dyken", "rating": "", "reviews": "", "place_id": "ChIJITxlnZBB5IcRGIQ4e5MA08Y", "latitude": 41.6592133, "longitude": -91.5482557, "subtypes": "Neurologist"}, {"name": "Dr. Thoru Yamada, MD", "address": "200 Hawkins Dr, Iowa City, IA 52242", "city": "Iowa City", "state": "Iowa", "state_code": "IA", "phone": "+1 319-356-8770", "website": "http://www.uihealthcare.org/", "rating": "", "reviews": "", "place_id": "ChIJITxlnZBB5IcRCZPgXHXMJp4", "latitude": 41.6596442, "longitude": -91.54862589999999, "subtypes": "Neurologist"}, {"name": "John Kamholz", "address": "200 Hawkins Dr, Iowa City, IA 52242", "city": "Iowa City", "state": "Iowa", "state_code": "IA", "phone": "+1 319-356-1616", "website": "", "rating": "", "reviews": "", "place_id": "ChIJsY6PN5BB5IcRk6t-J9sVpzI", "latitude": 41.6596442, "longitude": -91.54862589999999, "subtypes": "Neurologist"}, {"name": "Dr. Harold P. Adams Jr, MD", "address": "200 Hawkins Dr, Iowa City, IA 52242", "city": "Iowa City", "state": "Iowa", "state_code": "IA", "phone": "+1 319-356-2572", "website": "", "rating": "", "reviews": "", "place_id": "ChIJITxlnZBB5IcRzEIDmAypUbg", "latitude": 41.6592133, "longitude": -91.5482557, "subtypes": "Neurologist"}, {"name": "Dr. Edward J. Clemmons, DO", "address": "200 Hawkins Dr, Iowa City, IA 52242", "city": "Iowa City", "state": "Iowa", "state_code": "IA", "phone": "+1 319-384-7333", "website": "", "rating": "", "reviews": "", "place_id": "ChIJITxlnZBB5IcRYWQH5Yb0BkQ", "latitude": 41.6594594, "longitude": -91.5479919, "subtypes": "Neurologist"}, {"name": "Dr. Jon M. Tippin, MD", "address": "Pomerantz Family Pavilion, 200 Hawkins Dr, Iowa City, IA 52242", "city": "Iowa City", "state": "Iowa", "state_code": "IA", "phone": "+1 319-356-1616", "website": "http://www.uihealthcare.org/", "rating": "", "reviews": "", "place_id": "ChIJITxlnZBB5IcRMKh7rSiT0Xg", "latitude": 41.6573931, "longitude": -91.5487715, "subtypes": "Neurologist"}, {"name": "Andrea Swenson", "address": "200 Hawkins Dr, Iowa City, IA 52242", "city": "Iowa City", "state": "Iowa", "state_code": "IA", "phone": "+1 319-356-1616", "website": "https://uihc.org/providers/andrea-swenson", "rating": "", "reviews": "", "place_id": "ChIJsY6PN5BB5IcR_26RldRZ_EQ", "latitude": 41.6596442, "longitude": -91.54862589999999, "subtypes": "Neurologist"}, {"name": "Dr. Tracey Cho", "address": "200 Hawkins Dr, Iowa City, IA 52242", "city": "Iowa City", "state": "Iowa", "state_code": "IA", "phone": "+1 319-356-1616", "website": "https://neurology.medicine.uiowa.edu/profile/tracey-cho", "rating": "", "reviews": "", "place_id": "ChIJsY6PN5BB5IcRyy172FwzgQI", "latitude": 41.6596442, "longitude": -91.54862589999999, "subtypes": "Neurologist"}, {"name": "Robert Rodnitzky, MD", "address": "200 Hawkins Dr, Iowa City, IA 52242", "city": "Iowa City", "state": "Iowa", "state_code": "IA", "phone": "+1 319-356-1616", "website": "https://uihc.org/robert-rodnitzky", "rating": "", "reviews": "", "place_id": "ChIJITxlnZBB5IcRVqW-9RZ8-Is", "latitude": 41.6592133, "longitude": -91.5482557, "subtypes": "Neurologist"}, {"name": "Dr. James B. Worrell, MD", "address": "200 Hawkins Dr, Iowa City, IA 52242", "city": "Iowa City", "state": "Iowa", "state_code": "IA", "phone": "+1 319-356-7235", "website": "http://www.uihealthcare.com/", "rating": "", "reviews": "", "place_id": "ChIJITxlnZBB5IcRVHKYBpG3zrQ", "latitude": 41.6594594, "longitude": -91.5479919, "subtypes": "Neurologist"}, {"name": "Megan Rohlf, MD", "address": "200 Hawkins Dr, Iowa City, IA 52242", "city": "Iowa City", "state": "Iowa", "state_code": "IA", "phone": "+1 319-356-1616", "website": "https://uihc.org/childrens/providers/megan-rohlf", "rating": "", "reviews": "", "place_id": "ChIJsY6PN5BB5IcR3asao-9ukUc", "latitude": 41.6596442, "longitude": -91.54862589999999, "subtypes": "Neurologist"}, {"name": "Amir Shaban", "address": "200 Hawkins Dr, Iowa City, IA 52242", "city": "Iowa City", "state": "Iowa", "state_code": "IA", "phone": "+1 319-356-1616", "website": "https://neurology.medicine.uiowa.edu/profile/amir-shaban", "rating": "", "reviews": "", "place_id": "ChIJsY6PN5BB5IcRTfWu-U9d_ao", "latitude": 41.6596442, "longitude": -91.54862589999999, "subtypes": "Neurologist"}, {"name": "Joel C. Geerling, MD, PhD", "address": "200 Hawkins Dr, Iowa City, IA 52242", "city": "Iowa City", "state": "Iowa", "state_code": "IA", "phone": "+1 319-356-1616", "website": "https://uihc.org/joel-c-geerling", "rating": "", "reviews": "", "place_id": "ChIJRVEbnZBB5IcRrS5QzjKe7nY", "latitude": 41.6598712, "longitude": -91.5487603, "subtypes": "Neurologist"}, {"name": "Dr. Qiang Zhang", "address": "200 Hawkins Dr, Iowa City, IA 52242", "city": "Iowa City", "state": "Iowa", "state_code": "IA", "phone": "+1 319-356-1616", "website": "https://neurology.medicine.uiowa.edu/profile/qiang-zhang", "rating": "", "reviews": "", "place_id": "ChIJsY6PN5BB5IcRzY9ZjXdTk3w", "latitude": 41.6596442, "longitude": -91.54862589999999, "subtypes": "Neurologist"}, {"name": "Dr. Ludwig Gutmann", "address": "200 Hawkins Dr, Iowa City, IA 52242", "city": "Iowa City", "state": "Iowa", "state_code": "IA", "phone": "+1 319-356-1616", "website": "https://uihc.org/providers/ludwig-gutmann", "rating": "", "reviews": "", "place_id": "ChIJsY6PN5BB5IcR_-7sBVvO9IU", "latitude": 41.6596442, "longitude": -91.54862589999999, "subtypes": "Neurologist"}, {"name": "Jimmeh Decontee M MD", "address": "Pomerantz Family Pavilion, 200 Hawkins Dr # 4802, Iowa City, IA 52242", "city": "Iowa City", "state": "Iowa", "state_code": "IA", "phone": "+1 319-356-8765", "website": "", "rating": "", "reviews": "", "place_id": "ChIJITxlnZBB5IcRvoSG0_uNc2o", "latitude": 41.6573635, "longitude": -91.5496586, "subtypes": "Neurologist"}, {"name": "Dr. Stephanie M. Lopez, MD", "address": "200 Hawkins Dr # 4802, Iowa City, IA 52242", "city": "Iowa City", "state": "Iowa", "state_code": "IA", "phone": "+1 319-356-1616", "website": "http://www.uihealthcare.org/", "rating": "", "reviews": "", "place_id": "ChIJITxlnZBB5IcR7PuBOfFV3pc", "latitude": 41.6594594, "longitude": -91.5479919, "subtypes": "Neurologist"}, {"name": "Sreenath Thati Ganganna", "address": "200 Hawkins Dr, Iowa City, IA 52242", "city": "Iowa City", "state": "Iowa", "state_code": "IA", "phone": "+1 319-356-1616", "website": "https://uihc.org/childrens/providers/sreenath-thati-ganganna", "rating": "", "reviews": "", "place_id": "ChIJsY6PN5BB5IcRV5bhdmyk18g", "latitude": 41.6596442, "longitude": -91.54862589999999, "subtypes": "Neurologist"}, {"name": "Dr. Matthew Rizzo, MD", "address": "200 Hawkins Dr, Iowa City, IA 52242", "city": "Iowa City", "state": "Iowa", "state_code": "IA", "phone": "+1 319-356-2421", "website": "http://uihc.org/", "rating": "", "reviews": "", "place_id": "ChIJITxlnZBB5IcRB_AUp6s4oag", "latitude": 41.6595617, "longitude": -91.5483666, "subtypes": "Neurologist"}, {"name": "Brian Dlouhy, MD", "address": "200 Hawkins Dr, Iowa City, IA 52242", "city": "Iowa City", "state": "Iowa", "state_code": "IA", "phone": "+1 319-356-2256", "website": "https://uihc.org/brian-dlouhy", "rating": 4.5, "reviews": 8, "place_id": "ChIJITxlnZBB5IcR6Cawps8_GSg", "latitude": 41.65965, "longitude": -91.5486148, "subtypes": "Neurosurgeon"}, {"name": "Dr. Patricia H. Davis, MD", "address": "200 Hawkins Dr, Iowa City, IA 52242", "city": "Iowa City", "state": "Iowa", "state_code": "IA", "phone": "+1 319-356-1616", "website": "http://www.uihealthcare.org/", "rating": "", "reviews": "", "place_id": "ChIJITxlnZBB5IcRFiton_HZ8qU", "latitude": 41.6592133, "longitude": -91.5482557, "subtypes": "Neurologist"}, {"name": "Dr. Alejandro Torres-Trejo", "address": "200 Hawkins Dr, Iowa City, IA 52242", "city": "Iowa City", "state": "Iowa", "state_code": "IA", "phone": "+1 319-356-1616", "website": "", "rating": "", "reviews": "", "place_id": "ChIJsY6PN5BB5IcR_LrhNOs0VKk", "latitude": 41.6596442, "longitude": -91.54862589999999, "subtypes": "Neurologist"}, {"name": "Natalie Denburg, PhD, MA", "address": "200 Hawkins Dr, Iowa City, IA 52242", "city": "Iowa City", "state": "Iowa", "state_code": "IA", "phone": "+1 319-356-7619", "website": "https://uihc.org/natalie-denburg", "rating": "", "reviews": "", "place_id": "ChIJITxlnZBB5IcRTivy2SJNxl4", "latitude": 41.65965, "longitude": -91.5486148, "subtypes": "Neurologist"}, {"name": "Susan Duffy", "address": "200 Hawkins Dr, Iowa City, IA 52242", "city": "Iowa City", "state": "Iowa", "state_code": "IA", "phone": "+1 319-353-6314", "website": "https://uihc.org/providers/susan-m-duffy", "rating": "", "reviews": "", "place_id": "ChIJsY6PN5BB5IcRCNO5ExhHMbM", "latitude": 41.6596442, "longitude": -91.54862589999999, "subtypes": "Neurologist"}, {"name": "Alexander Bassuk, MD, PhD", "address": "200 Hawkins Dr, Iowa City, IA 52242", "city": "Iowa City", "state": "Iowa", "state_code": "IA", "phone": "", "website": "https://uichildrens.org/alexander-bassuk", "rating": "", "reviews": "", "place_id": "ChIJITxlnZBB5IcRp-9gtsx4K2E", "latitude": 41.6601201, "longitude": -91.5486088, "subtypes": "Pediatric neurologist"}, {"name": "Theresa Czech", "address": "200 Hawkins Dr, Iowa City, IA 52242", "city": "Iowa City", "state": "Iowa", "state_code": "IA", "phone": "+1 319-356-1616", "website": "", "rating": "", "reviews": "", "place_id": "ChIJsY6PN5BB5IcRZUUUq8QHBNQ", "latitude": 41.6596442, "longitude": -91.54862589999999, "subtypes": "Neurologist"}, {"name": "Leah Zhorne", "address": "200 Hawkins Dr, Iowa City, IA 52242", "city": "Iowa City", "state": "Iowa", "state_code": "IA", "phone": "+1 319-356-1616", "website": "https://uihc.org/childrens/providers/leah-zhorne", "rating": "", "reviews": "", "place_id": "ChIJsY6PN5BB5IcRVUMo8PM-HBA", "latitude": 41.6596442, "longitude": -91.54862589999999, "subtypes": "Neurologist"}, {"name": "Dr. Michael Ciliberto", "address": "200 Hawkins Dr, Iowa City, IA 52242", "city": "Iowa City", "state": "Iowa", "state_code": "IA", "phone": "+1 319-356-1616", "website": "https://uihc.org/childrens/providers/michael-ciliberto", "rating": "", "reviews": "", "place_id": "ChIJsY6PN5BB5IcRddj2w1W4ZP0", "latitude": 41.6596442, "longitude": -91.54862589999999, "subtypes": "Neurologist"}, {"name": "Dr. Gregory W. Albert, MD", "address": "200 Hawkins Dr, Iowa City, IA 52242", "city": "Iowa City", "state": "Iowa", "state_code": "IA", "phone": "+1 319-356-7685", "website": "", "rating": "", "reviews": "", "place_id": "ChIJITxlnZBB5IcRspam0JdxB1E", "latitude": 41.6592133, "longitude": -91.5482557, "subtypes": "Neurologist"}, {"name": "Brian O'Shaughnessy, MD", "address": "2140 Logan Ave Ste B, Waterloo, IA 50703", "city": "Waterloo", "state": "Iowa", "state_code": "IA", "phone": "+1 319-226-8470", "website": "https://www.unitypoint.org/providers/Brian-OShaughnessy-1164548%3Futm_source%3Dgmb%26utm_medium%3Dweb%26utm_campaign%3Dbrandify", "rating": 3.6, "reviews": 14, "place_id": "ChIJm6v_HtVS5YcRbTYZ7U1TAnQ", "latitude": 42.5294724, "longitude": -92.3368375, "subtypes": "Neurologist"}, {"name": "Jessica Pifkin, ARNP", "address": "2140 Logan Ave Ste B, Waterloo, IA 50703", "city": "Waterloo", "state": "Iowa", "state_code": "IA", "phone": "+1 319-226-8470", "website": "https://www.unitypoint.org/providers/Jessica-Pifkin-1166380%3Futm_source%3Dgmb%26utm_medium%3Dweb%26utm_campaign%3Dbrandify", "rating": 2.4, "reviews": 5, "place_id": "ChIJoxA0L2-t-ocRvFaxOhlb_H8", "latitude": 42.5294724, "longitude": -92.3368375, "subtypes": "Neurologist"}, {"name": "Sangeeta Shah, MD", "address": "2710 St Francis Dr Suite 201, Waterloo, IA 50702", "city": "Waterloo", "state": "Iowa", "state_code": "IA", "phone": "+1 319-272-5000", "website": "https://www.mercyone.org/provider/sangeeta-shah-md-neurology", "rating": 3.3, "reviews": 6, "place_id": "ChIJxVmC2EhT5YcRbYHHe_mZ4ew", "latitude": 42.4604429, "longitude": -92.3448927, "subtypes": "Neurologist"}, {"name": "Russell Buchanan, MD", "address": "1731 W Ridgeway Ave #102, Waterloo, IA 50701", "city": "Waterloo", "state": "Iowa", "state_code": "IA", "phone": "+1 319-226-9888", "website": "https://www.unitypoint.org/providers/Russell-Buchanan-1164264%3Futm_source%3Dgmb%26utm_medium%3Dweb%26utm_campaign%3Dbrandify", "rating": 4.2, "reviews": 29, "place_id": "ChIJZyhHAtBT5YcRT-u_JAkCWyM", "latitude": 42.4681691, "longitude": -92.38747719999999, "subtypes": "Neurosurgeon"}, {"name": "Kate Bolick, ARNP", "address": "2140 Logan Ave Ste B, Waterloo, IA 50703", "city": "Waterloo", "state": "Iowa", "state_code": "IA", "phone": "+1 319-226-8470", "website": "https://www.unitypoint.org/providers/Kate-Bolick-1165972%3Futm_source%3Dgmb%26utm_medium%3Dweb%26utm_campaign%3Dbrandify", "rating": 3, "reviews": 4, "place_id": "ChIJm6v_HtVS5YcRYeySbJxpllo", "latitude": 42.5294724, "longitude": -92.3368375, "subtypes": "Neurologist"}, {"name": "Dr. Sangeeta R. Goel, MD", "address": "Covenant Clinic Neurology, #201, 2nd floor, 2710 St Francis Dr, Waterloo, IA 50702", "city": "Waterloo", "state": "Iowa", "state_code": "IA", "phone": "+1 319-272-5000", "website": "", "rating": 3, "reviews": 4, "place_id": "ChIJSRndB81T5YcR1pgko_CEcdY", "latitude": 42.4604429, "longitude": -92.3448927, "subtypes": "Neurologist"}, {"name": "Dr. Amit Singla, MD", "address": "2710 St Francis Dr #110, Waterloo, IA 50702", "city": "Waterloo", "state": "Iowa", "state_code": "IA", "phone": "+1 319-272-5000", "website": "http://www.wheatoniowa.org/find-a-doctor/doctor-detail.aspx%3Fid%3D388", "rating": 5, "reviews": 1, "place_id": "ChIJG3Vqts1T5YcRqvCnpekaVK8", "latitude": 42.4604338, "longitude": -92.3450751, "subtypes": "Neurologist"}, {"name": "Marc Hines, MD", "address": "2710 St Francis Dr Suite 201, Waterloo, IA 50702", "city": "Waterloo", "state": "Iowa", "state_code": "IA", "phone": "+1 319-272-5000", "website": "https://www.mercyone.org/provider/marc-hines-md-neurology", "rating": 1, "reviews": 1, "place_id": "ChIJk8VAEZhT5YcRwwQS_pci8kQ", "latitude": 42.4604429, "longitude": -92.3448927, "subtypes": "Neurologist"}, {"name": "Marietta Walsh, DO", "address": "2710 St Francis Dr #110, Waterloo, IA 50702", "city": "Waterloo", "state": "Iowa", "state_code": "IA", "phone": "+1 319-272-5000", "website": "https://www.mercyone.org/provider/marietta-walsh-do-neurosurgery", "rating": 3, "reviews": 4, "place_id": "ChIJPQlOPEJT5YcRIGUlVB4drf0", "latitude": 42.4604429, "longitude": -92.3448927, "subtypes": "Neurosurgeon"}, {"name": "Gregory Bedynek, DO", "address": "2710 St Francis Dr #110, Waterloo, IA 50702", "city": "Waterloo", "state": "Iowa", "state_code": "IA", "phone": "+1 319-272-5000", "website": "https://www.mercyone.org/provider/provider/gregory-bedynek-do-neurosurgery", "rating": 4, "reviews": 3, "place_id": "ChIJu0tzXwBT5YcRlv-GAZT41XI", "latitude": 42.4604429, "longitude": -92.3448927, "subtypes": "Neurosurgeon"}, {"name": "Dr. Brian P. Sires, MD", "address": "2710 St Francis Dr, Waterloo, IA 50702", "city": "Waterloo", "state": "Iowa", "state_code": "IA", "phone": "+1 319-272-5000", "website": "", "rating": "", "reviews": "", "place_id": "ChIJSRndB81T5YcRHC3AeAElIcc", "latitude": 42.4604429, "longitude": -92.3448927, "subtypes": "Neurologist"}, {"name": "Lynn Galloway, PA", "address": "1731 W Ridgeway Ave #102, Waterloo, IA 50701", "city": "Waterloo", "state": "Iowa", "state_code": "IA", "phone": "+1 319-226-9888", "website": "https://www.unitypoint.org/providers/Lynn-Galloway-1166734%3Futm_source%3Dgmb%26utm_medium%3Dweb%26utm_campaign%3Dbrandify", "rating": "", "reviews": "", "place_id": "ChIJF7JKyEBU5YcReYzYi-zUMIE", "latitude": 42.4681691, "longitude": -92.38747719999999, "subtypes": "Neurosurgeon"}, {"name": "Dr. Irena M. Charysz-Birski, MD", "address": "1351 W Central Park Ave Pavillion 1, Davenport, IA 52804", "city": "Davenport", "state": "Iowa", "state_code": "IA", "phone": "+1 563-383-2667", "website": "https://www.genesishealth.com/ghg/ghg-doctor-profile/birski/", "rating": 4, "reviews": 6, "place_id": "ChIJlS0Lu8g04ocReQc3hxRkupc", "latitude": 41.5436368, "longitude": -90.5939259, "subtypes": "Neurologist"}, {"name": "Dr. David D. Udehn, MD", "address": "4480 Utica Ridge Rd, Bettendorf, IA 52722", "city": "Bettendorf", "state": "Iowa", "state_code": "IA", "phone": "+1 309-764-3993", "website": "", "rating": 5, "reviews": 1, "place_id": "ChIJR5bHPXs24ocRAdGJyStowik", "latitude": 41.5660801, "longitude": -90.5198013, "subtypes": "Neurosurgeon"}, {"name": "Mathieu Levesque", "address": "4480 Utica Ridge Rd Ste 160, Bettendorf, IA 527221637", "city": "Bettendorf", "state": "Iowa", "state_code": "IA", "phone": "+1 563-742-5950", "website": "https://doctors.unitypoint.org/provider/mathieu-levesque/2052203", "rating": "", "reviews": "", "place_id": "ChIJ7XxMkXs24ocRCTwPFQJ8vt0", "latitude": 41.5659927, "longitude": -90.5195263, "subtypes": "Neurologist"}, {"name": "Jill Kimm", "address": "4500 Utica Ridge Rd, Bettendorf, IA 52722", "city": "Bettendorf", "state": "Iowa", "state_code": "IA", "phone": "+1 319-369-8069", "website": "", "rating": "", "reviews": "", "place_id": "ChIJAQDAlHs24ocR8mBQ--lYyhI", "latitude": 41.5660801, "longitude": -90.5198013, "subtypes": "Neurologist"}, {"name": "Rajinder K. Verma, M.D.", "address": "250 S Crescent Dr, Mason City, IA 50401", "city": "Mason City", "state": "Iowa", "state_code": "IA", "phone": "+1 641-494-5290", "website": "https://www.mcclinic.com/services/neurology/", "rating": 4.6, "reviews": 29, "place_id": "ChIJF6OSJwsH8YcRdaEns7QfA-E", "latitude": 43.149722, "longitude": -93.215594, "subtypes": "Neurologist"}, {"name": "Alireza Yarahmadi, MD", "address": "1000 4th St SW, Mason City, IA 50401", "city": "Mason City", "state": "Iowa", "state_code": "IA", "phone": "+1 641-428-6999", "website": "https://www.mercyone.org/provider/alireza-yarahmadi-md-neurology", "rating": 3.9, "reviews": 7, "place_id": "ChIJ-ZP3J3UH8YcR9shlWi-LMlg", "latitude": 43.1485571, "longitude": -93.21607, "subtypes": "Neurologist"}, {"name": "David Wang, MD", "address": "6000 University Ave # 210, West Des Moines, IA 50266", "city": "West Des Moines", "state": "Iowa", "state_code": "IA", "phone": "+1 515-241-2080", "website": "https://www.unitypoint.org/providers/David-Wang-3211664%3Futm_source%3Dgmb%26utm_medium%3Dweb%26utm_campaign%3Dbrandify", "rating": 5, "reviews": 1, "place_id": "ChIJP7-l6MQh7IcRcNnsz0PxJqc", "latitude": 41.5991174, "longitude": -93.7960386, "subtypes": "Neurologist"}, {"name": "Keith Kohout, MD", "address": "1111 6th Ave a100, Des Moines, IA 50314", "city": "Des Moines", "state": "Iowa", "state_code": "IA", "phone": "+1 515-358-0011", "website": "https://www.mercyone.org/provider/keith-kohout-do-ms-neurology", "rating": 5, "reviews": 1, "place_id": "ChIJh5NUVsyZ7ocR67DqIu0wOBs", "latitude": 41.5986713, "longitude": -93.6228884, "subtypes": "Neurologist"}, {"name": "Michael Jacoby, MD", "address": "1111 6th Ave a100, Des Moines, IA 50314", "city": "Des Moines", "state": "Iowa", "state_code": "IA", "phone": "+1 515-358-0011", "website": "https://www.mercyone.org/provider/michael-jacoby-md-neurology", "rating": 3.6, "reviews": 16, "place_id": "ChIJgcOcIQqZ7ocRXpkMmBGzLYw", "latitude": 41.5986713, "longitude": -93.6228884, "subtypes": "Neurologist"}, {"name": "Kyle Jorgensen", "address": "1111 6th Ave a100, Des Moines, IA 50314", "city": "Des Moines", "state": "Iowa", "state_code": "IA", "phone": "+1 515-358-0011", "website": "https://www.mercyone.org/provider/kyle-jorgensen-md-neurology", "rating": 4, "reviews": 2, "place_id": "ChIJCYu_7dqZ7ocR2vS_GHcSfc4", "latitude": 41.5989134, "longitude": -93.622969, "subtypes": "Neurologist"}, {"name": "Chad Quist, PA-C", "address": "1801 Hickman Rd, Des Moines, IA 50314", "city": "Des Moines", "state": "Iowa", "state_code": "IA", "phone": "+1 515-282-2463", "website": "https://www.broadlawns.org/clinics-and-services/neurology", "rating": 4.7, "reviews": 3, "place_id": "ChIJ33VhjD6Z7ocRe20wgYvkeCg", "latitude": 41.616506, "longitude": -93.64214969999999, "subtypes": "Neurologist"}, {"name": "Todd Janus M.D., Ph.D.", "address": "1221 Pleasant St Ste 300, Des Moines, IA 50309", "city": "Des Moines", "state": "Iowa", "state_code": "IA", "phone": "+1 515-241-4200", "website": "https://www.unitypoint.org/desmoines/provider.aspx%3Fid%3D1674%26clinicid%3D69", "rating": 2.2, "reviews": 6, "place_id": "ChIJL467ohuZ7ocR5DGYnYYbcF4", "latitude": 41.5900715, "longitude": -93.6350404, "subtypes": "Neurologist"}, {"name": "Alex Eischeid", "address": "1111 6th Ave, Des Moines, IA 50314", "city": "Des Moines", "state": "Iowa", "state_code": "IA", "phone": "", "website": "", "rating": 5, "reviews": 2, "place_id": "ChIJVVVV8gmZ7ocR2E3IOf54VV4", "latitude": 41.5986713, "longitude": -93.6228884, "subtypes": "Neurologist"}, {"name": "Royce Woodroffe, MD", "address": "1215 Pleasant St Suite 608, Des Moines, IA 50309", "city": "Des Moines", "state": "Iowa", "state_code": "IA", "phone": "+1 515-875-9560", "website": "https://www.iowaclinic.com/doctors/d1475/royce-woodroffe/%3Futm_source%3Dextnet%26utm_medium%3Dyext", "rating": 4.7, "reviews": 12, "place_id": "ChIJGYwO1RqZ7ocRK--Sa5V8QRU", "latitude": 41.5894403, "longitude": -93.6340386, "subtypes": "Neurosurgeon"}, {"name": "Maja Letica, ARNP", "address": "1111 6th Ave a100, Des Moines, IA 50314", "city": "Des Moines", "state": "Iowa", "state_code": "IA", "phone": "+1 515-358-0011", "website": "https://www.mercyone.org/provider/maja-letica-arnp-neurology", "rating": "", "reviews": "", "place_id": "ChIJS8R2JVyZ7ocRIXtivt1GsxA", "latitude": 41.5986713, "longitude": -93.6228884, "subtypes": "Neurologist"}, {"name": "Mohammad Hamdi Alsharabati", "address": "6000 University Ave # 210, West Des Moines, IA 50266", "city": "West Des Moines", "state": "Iowa", "state_code": "IA", "phone": "+1 515-241-2080", "website": "", "rating": "", "reviews": "", "place_id": "ChIJjembZT0h7IcRj1kY9lS-9NQ", "latitude": 41.5991174, "longitude": -93.7960386, "subtypes": "Neurologist"}, {"name": "Seenaiah Byreddy", "address": "1221 Pleasant St Ste 300, Des Moines, IA 503091426", "city": "Des Moines", "state": "Iowa", "state_code": "IA", "phone": "+1 515-241-4200", "website": "", "rating": 5, "reviews": 1, "place_id": "ChIJ51W6ohuZ7ocRz-N5ZYiuA60", "latitude": 41.5900818, "longitude": -93.6350317, "subtypes": "Neurologist"}, {"name": "Dr. Mark W. Fortson, MD", "address": "2255 John F Kennedy Rd UNIT 21, Dubuque, IA 52002", "city": "Dubuque", "state": "Iowa", "state_code": "IA", "phone": "", "website": "", "rating": 5, "reviews": 6, "place_id": "ChIJyeEFLwct44cRD3QYiIK2iAA", "latitude": 42.5112374, "longitude": -90.7216825, "subtypes": "Neurologist"}, {"name": "Paula Aston, MD", "address": "1000 Langworthy St, Dubuque, IA 52001", "city": "Dubuque", "state": "Iowa", "state_code": "IA", "phone": "+1 563-584-3495", "website": "https://www.mahealthcare.com/find-a-doctor/profile/paula-aston/", "rating": 5, "reviews": 1, "place_id": "ChIJaSNgnjQr44cRcyKRh7HUhqU", "latitude": 42.492551, "longitude": -90.676132, "subtypes": "Neurologist"}, {"name": "Marsha Horwitz", "address": "250 Mercy Dr, Dubuque, IA 52001", "city": "Dubuque", "state": "Iowa", "state_code": "IA", "phone": "+1 563-584-3495", "website": "", "rating": 5, "reviews": 1, "place_id": "ChIJ____VIor44cRNZNb5tqQL-s", "latitude": 42.492721, "longitude": -90.6750809, "subtypes": "Neurologist"}, {"name": "Ronald Sims", "address": "2140 John F Kennedy Rd Suite C, Dubuque, IA 52002", "city": "Dubuque", "state": "Iowa", "state_code": "IA", "phone": "+1 563-583-1558", "website": "https://dubuque.unitypoint.org/provider/ronald-s-sims/1164613", "rating": 1.7, "reviews": 16, "place_id": "ChIJVVUVVQct44cR9jJIHpln5R4", "latitude": 42.5095464, "longitude": -90.7200979, "subtypes": "Neurologist"}, {"name": "Dr. Michael J. Kitchell, MD", "address": "1015 Union St, Boone, IA 50036", "city": "Boone", "state": "Iowa", "state_code": "IA", "phone": "+1 515-433-8300", "website": "", "rating": "", "reviews": "", "place_id": "ChIJheQ2kxzb7YcRHFTLSnhK_ys", "latitude": 42.056078, "longitude": -93.8770969, "subtypes": "Neurologist"}, {"name": "Dr. Nicholas M. Wetjen, MD", "address": "1601 NW 114th St, Clive, IA 50325", "city": "Clive", "state": "Iowa", "state_code": "IA", "phone": "", "website": "", "rating": 5, "reviews": 2, "place_id": "ChIJ2TgrvMQg7IcRGPAxqCzPqjE", "latitude": 41.6050201, "longitude": -93.7735087, "subtypes": "Neurosurgeon"}, {"name": "Shivakrishna Kovi, MD", "address": "1221 Pleasant St Ste 300, Des Moines, IA 50309", "city": "Des Moines", "state": "Iowa", "state_code": "IA", "phone": "+1 515-241-4200", "website": "https://www.unitypoint.org/providers/Shivakrishna-Kovi-2116908%3Futm_source%3Dgmb%26utm_medium%3Dweb%26utm_campaign%3Dbrandify", "rating": 5, "reviews": 2, "place_id": "ChIJ51W6ohuZ7ocR_5o8qGpjoK8", "latitude": 41.5900818, "longitude": -93.6350317, "subtypes": "Neurologist"}, {"name": "David Christianson, MD", "address": "1215 Pleasant St, Des Moines, IA 50309", "city": "Des Moines", "state": "Iowa", "state_code": "IA", "phone": "+1 515-875-9560", "website": "https://www.iowaclinic.com/doctors/david-christianson/%3Futm_source%3Dextnet%26utm_medium%3Dyext", "rating": 4.5, "reviews": 2, "place_id": "ChIJFZwuxX6Z7ocRDPQ0Y4OBap0", "latitude": 41.5892226, "longitude": -93.63415599999999, "subtypes": "Neurosurgeon"}, {"name": "Scott Seaman, MD", "address": "1215 Pleasant St Suite 608, Des Moines, IA 50309", "city": "Des Moines", "state": "Iowa", "state_code": "IA", "phone": "+1 515-875-9560", "website": "https://www.iowaclinic.com/doctors/scott-seaman/%3Futm_source%3Dextnet%26utm_medium%3Dyext", "rating": 4.1, "reviews": 9, "place_id": "ChIJuxEOfKeZ7ocRBBRR7Esr86k", "latitude": 41.5894006, "longitude": -93.6341197, "subtypes": "Neurosurgeon"}, {"name": "Dr. Fredrick H. Bahls, MD", "address": "3600 30th St, Des Moines, IA 50310", "city": "Des Moines", "state": "Iowa", "state_code": "IA", "phone": "+1 515-699-5825", "website": "", "rating": "", "reviews": "", "place_id": "ChIJbbjoLAec7ocRyV2MRqudj70", "latitude": 41.6277272, "longitude": -93.65981239999999, "subtypes": "Neurologist"}, {"name": "Hiroyuki Oya, MD, PhD", "address": "200 Hawkins Dr, Iowa City, IA 52242", "city": "Iowa City", "state": "Iowa", "state_code": "IA", "phone": "+1 319-356-1616", "website": "https://uihc.org/hiroyuki-oya", "rating": 2.4, "reviews": 7, "place_id": "ChIJITxlnZBB5IcR1NZe9nepeug", "latitude": 41.6594594, "longitude": -91.5479919, "subtypes": "Neurosurgeon"}, {"name": "Matthew A. Howard, MD", "address": "200 Hawkins Dr, Iowa City, IA 52242", "city": "Iowa City", "state": "Iowa", "state_code": "IA", "phone": "+1 319-356-1616", "website": "https://uihc.org/matthew-howard", "rating": 4, "reviews": 7, "place_id": "ChIJITxlnZBB5IcRWRszoyMQG8I", "latitude": 41.6601201, "longitude": -91.5486088, "subtypes": "Neurosurgeon"}, {"name": "Edward Aul, MD", "address": "200 Hawkins Dr C606, Iowa City, IA 52242", "city": "Iowa City", "state": "Iowa", "state_code": "IA", "phone": "+1 319-356-1616", "website": "https://uihc.org/edward-aul", "rating": "", "reviews": "", "place_id": "ChIJITxlnZBB5IcRe-YJnnCvwSA", "latitude": 41.6594594, "longitude": -91.5479919, "subtypes": "Neurologist"}, {"name": "Dr. Aaron Boes", "address": "200 Hawkins Dr, Iowa City, IA 52242", "city": "Iowa City", "state": "Iowa", "state_code": "IA", "phone": "+1 319-356-1616", "website": "https://pediatrics.medicine.uiowa.edu/profile/aaron-boes", "rating": "", "reviews": "", "place_id": "ChIJsY6PN5BB5IcRGPBRj7KSh2o", "latitude": 41.6596442, "longitude": -91.54862589999999, "subtypes": "Neurologist"}, {"name": "Kristen Caraher", "address": "200 Hawkins Dr, Iowa City, IA 52242", "city": "Iowa City", "state": "Iowa", "state_code": "IA", "phone": "+1 319-353-6314", "website": "https://uihc.org/providers/kristen-caraher", "rating": "", "reviews": "", "place_id": "ChIJsY6PN5BB5IcRbIxSZeexbwA", "latitude": 41.6596442, "longitude": -91.54862589999999, "subtypes": "Neurophysiologist"}, {"name": "Bartels Peter N DO", "address": "1221 Pleasant St STE 100, Des Moines, IA 50309", "city": "Des Moines", "state": "Iowa", "state_code": "IA", "phone": "+1 515-282-2921", "website": "http://www.cancercenterofiowa.com/", "rating": "", "reviews": "", "place_id": "ChIJkUd1vBuZ7ocRKk_1aEvM98E", "latitude": 41.59008499999999, "longitude": -93.63502299999999, "subtypes": "Neurologist"}, {"name": "Dr. Victor Jaramillo", "address": "800 Kenyon Rd, Fort Dodge, IA 50501", "city": "Fort Dodge", "state": "Iowa", "state_code": "IA", "phone": "+1 515-574-6800", "website": "https://doctors.unitypoint.org/provider/Victor%2BJaramillo/2358951%3Funified%3Djaramillo%26sort%3Drelevance,networks,availability_density_best%26from%3Dsearch-list", "rating": 5, "reviews": 3, "place_id": "ChIJVyqD1MV38ocRudNubYKzhtE", "latitude": 42.4923779, "longitude": -94.1911394, "subtypes": "Neurologist"}, {"name": "Loren J Mouw, MD", "address": "701 10th St SE, Cedar Rapids, IA 52403", "city": "Cedar Rapids", "state": "Iowa", "state_code": "IA", "phone": "+1 319-221-8570", "website": "", "rating": 4, "reviews": 5, "place_id": "ChIJ1QApyjf35IcRyCN-3wi6dCs", "latitude": 41.9790824, "longitude": -91.65701709999999, "subtypes": "Neurosurgeon"}, {"name": "Scott D. Geisler MD", "address": "275 10th St SE Suite 3320, Cedar Rapids, IA 52403", "city": "Cedar Rapids", "state": "Iowa", "state_code": "IA", "phone": "+1 319-398-1721", "website": "https://www.pcofiowa.com/find-a-doctor/p48/scott-geisler/", "rating": 1, "reviews": 3, "place_id": "ChIJwwwCe0j35IcRvXuFCbzgP8o", "latitude": 41.9821511, "longitude": -91.6586275, "subtypes": "Neurologist"}, {"name": "Lewis Anne R", "address": "1351 W Central Park Ave # 3300, Davenport, IA 52804", "city": "Davenport", "state": "Iowa", "state_code": "IA", "phone": "+1 563-383-2667", "website": "", "rating": 1, "reviews": 1, "place_id": "ChIJlS0Lu8g04ocRb-X1MxEG8TM", "latitude": 41.5439202, "longitude": -90.5928593, "subtypes": "Pediatric neurologist"}, {"name": "Genesis Health Group, Neurology, West Central Park | Rodney A. Short, MD", "address": "4700 E 56th St, Davenport, IA 52807", "city": "Davenport", "state": "Iowa", "state_code": "IA", "phone": "+1 563-421-0480", "website": "https://www.genesishealth.com/davenport-search/davenport-profile/short/", "rating": 4.1, "reviews": 9, "place_id": "ChIJlS0Lu8g04ocReBC4ufcf978", "latitude": 41.5784405, "longitude": -90.5033766, "subtypes": "Neurologist"}, {"name": "Sharma Nitin K MD", "address": "1351 W Central Park Ave # 3300, Davenport, IA 52804", "city": "Davenport", "state": "Iowa", "state_code": "IA", "phone": "+1 563-383-2667", "website": "", "rating": "", "reviews": "", "place_id": "ChIJlS0Lu8g04ocRTpahtxuC5pY", "latitude": 41.5439202, "longitude": -90.5928593, "subtypes": "Neurologist"}, {"name": "Nitz Dennis MD", "address": "3701 Lindenwood St, Sioux City, IA 51104", "city": "Sioux City", "state": "Iowa", "state_code": "IA", "phone": "", "website": "", "rating": "", "reviews": "", "place_id": "ChIJObtZRw8IjocRrI0DAyyE08g", "latitude": 42.5345692, "longitude": -96.4200839, "subtypes": "Neurologist"}, {"name": "Todd Zimprich, MD", "address": "801 5th St, Sioux City, IA 51101", "city": "Sioux City", "state": "Iowa", "state_code": "IA", "phone": "+1 712-279-2010", "website": "", "rating": "", "reviews": "", "place_id": "ChIJGQUAJhP9jYcRDkJ60_oWxB8", "latitude": 42.4956386, "longitude": -96.4009146, "subtypes": "Neurologist"}, {"name": "Grudem Jon M MD", "address": "5708 Sunnybrook Dr, Sioux City, IA 51106", "city": "Sioux City", "state": "Iowa", "state_code": "IA", "phone": "+1 605-217-2667", "website": "", "rating": "", "reviews": "", "place_id": "ChIJUUZQIyD8jYcRH-fcF3vphRc", "latitude": 42.452471, "longitude": -96.331991, "subtypes": "Neurologist"}, {"name": "Dr. Marvin M. Hurd, MD", "address": "1202 W Howard St, Knoxville, IA 50138", "city": "Knoxville", "state": "Iowa", "state_code": "IA", "phone": "+1 641-828-7211", "website": "", "rating": "", "reviews": "", "place_id": "ChIJ3a_FUuTV7ocRP34yjXoX8Do", "latitude": 41.311718, "longitude": -93.110924, "subtypes": "Neurologist"}, {"name": "Enrique Leira, MD", "address": "1410 N 4th St, Clinton, IA 52732", "city": "Clinton", "state": "Iowa", "state_code": "IA", "phone": "", "website": "", "rating": "", "reviews": "", "place_id": "ChIJOVFhNrxj4ocRzIF4xYNha1Y", "latitude": 41.8616029, "longitude": -90.1887174, "subtypes": "Neurologist"}, {"name": "Rahul Khanna, MD", "address": "1225 S Gear Ave #153, West Burlington, IA 52655", "city": "West Burlington", "state": "Iowa", "state_code": "IA", "phone": "+1 319-754-4400", "website": "", "rating": 2.3, "reviews": 3, "place_id": "ChIJl7hARmAy4YcR1hHJLipXGn8", "latitude": 40.8094147, "longitude": -91.17228949999999, "subtypes": "Neurologist"}, {"name": "Anil Dhuna, MD", "address": "1225 S Gear Ave, West Burlington, IA 52655", "city": "West Burlington", "state": "Iowa", "state_code": "IA", "phone": "+1 319-754-4400", "website": "https://www.greatriverhealth.org/find-a-provider/anil-dhuna-md/", "rating": 4, "reviews": 4, "place_id": "ChIJV5Bo6WAy4YcR5Xht0tutwJI", "latitude": 40.8096247, "longitude": -91.170311, "subtypes": "Neurologist"}, {"name": "Lifestream Brain + Body Clinic", "address": "1975 N Ankeny Blvd Suite 105, Ankeny, IA 50023", "city": "Ankeny", "state": "Iowa", "state_code": "IA", "phone": "+1 515-259-9336", "website": "http://lifestreamclinic.com/", "rating": 5, "reviews": 90, "place_id": "ChIJt1RCNW2F7ocR--D5AB_qnf0", "latitude": 41.7469253, "longitude": -93.5985031, "subtypes": "Neurologist"}, {"name": "Awan Aftab a MD", "address": "1609 N Ankeny Blvd Suite 200, Ankeny, IA 50023", "city": "Ankeny", "state": "Iowa", "state_code": "IA", "phone": "+1 515-964-2772", "website": "", "rating": "", "reviews": "", "place_id": "ChIJFaJzop-F7ocRch_uMc2rwkk", "latitude": 41.7456831, "longitude": -93.5988754, "subtypes": "Neurologist"}, {"name": "Laura Leverenz, PA-C", "address": "1215 Pleasant St Suite 608, Des Moines, IA 50309", "city": "Des Moines", "state": "Iowa", "state_code": "IA", "phone": "+1 515-875-9560", "website": "https://centralstatespainclinic.com/", "rating": 3, "reviews": 1, "place_id": "ChIJh1YzchuZ7ocR8rYHLEH9BF4", "latitude": 41.5894006, "longitude": -93.6341197, "subtypes": "Neurosurgeon"}, {"name": "Enrique Leira, MD, MS", "address": "200 Hawkins Dr, Iowa City, IA 52242", "city": "Iowa City", "state": "Iowa", "state_code": "IA", "phone": "+1 319-356-1616", "website": "https://uihc.org/enrique-leira", "rating": "", "reviews": "", "place_id": "ChIJITxlnZBB5IcRj6hRVolavQA", "latitude": 41.6592133, "longitude": -91.5482557, "subtypes": "Neurologist"}, {"name": "Steven W. Anderson, PHD", "address": "200 Hawkins Dr, Iowa City, IA 52242", "city": "Iowa City", "state": "Iowa", "state_code": "IA", "phone": "+1 319-356-1616", "website": "http://www.uihealthcare.org/", "rating": 5, "reviews": 1, "place_id": "ChIJITxlnZBB5IcRmw7dqOO-o4A", "latitude": 41.6595584, "longitude": -91.54836519999999, "subtypes": "Neurophysiologist"}, {"name": "Barrash Joseph", "address": "Pomerantz Family Pavilion, 200 Hawkins Dr, Iowa City, IA 52242", "city": "Iowa City", "state": "Iowa", "state_code": "IA", "phone": "+1 319-356-1616", "website": "", "rating": "", "reviews": "", "place_id": "ChIJITxlnZBB5IcRER79qqYCakA", "latitude": 41.6573931, "longitude": -91.5487715, "subtypes": "Neurophysiologist"}, {"name": "Jeremy MacVarish, PA-C", "address": "1111 6th Ave b1, Des Moines, IA 50314", "city": "Des Moines", "state": "Iowa", "state_code": "IA", "phone": "+1 515-358-0100", "website": "https://www.mercyone.org/desmoines/provider/jeremy-macvarish-pa-c-neurosurgery", "rating": "", "reviews": "", "place_id": "ChIJR81H-FSZ7ocRD-stdRsCuhI", "latitude": 41.5986713, "longitude": -93.6228884, "subtypes": "Neurosurgeon"}, {"name": "Matthew Hill, PA-C", "address": "1111 6th Ave b1, Des Moines, IA 50314", "city": "Des Moines", "state": "Iowa", "state_code": "IA", "phone": "+1 515-358-0100", "website": "https://www.mercyone.org/desmoines/provider/matthew-hill-pa-c-neurosurgery", "rating": "", "reviews": "", "place_id": "ChIJc_0sDgqZ7ocRhdx_PjDahGs", "latitude": 41.5986713, "longitude": -93.6228884, "subtypes": "Neurosurgeon"}]