[{"name": "NMC Health | Neurology Specialists", "address": "800 Medical Center Dr STE 210, Newton, KS 67114", "city": "Newton", "state": "Kansas", "state_code": "KS", "phone": "+1 316-283-4005", "website": "https://www.mynmchealth.org/locations/specialty-care/neurology-specialists/", "rating": 4.8, "reviews": 283, "place_id": "ChIJ6zNu8OoTu4cRsIErNbKCzhw", "latitude": 38.0241272, "longitude": -97.33202829999999, "subtypes": "Neurologist"}, {"name": "Kansas City Neurology Clinic - Menorah", "address": "12140 Nall Ave # 230, Overland Park, KS 66209", "city": "Overland Park", "state": "Kansas", "state_code": "KS", "phone": "+1 913-934-4000", "website": "https://mymidwestphysician.com/locations/kansas-city-neurology-clinic/%3Futm_campaign%3Dcorp_listings_mgmt%26utm_source%3Dgoogle%26utm_medium%3Dbusiness_listing", "rating": 4.8, "reviews": 264, "place_id": "ChIJZ_3zxxvqwIcRF9B9ez2WpSc", "latitude": 38.9096208, "longitude": -94.652113, "subtypes": "Neurologist"}, {"name": "Michael G Abraham, MD", "address": "4000 Cambridge St, Kansas City, KS 66160", "city": "Kansas City", "state": "Kansas", "state_code": "KS", "phone": "+1 913-588-1227", "website": "https://findadoctor.kansashealthsystem.com/provider/Michael%2BG%2BAbraham/1221205%3Futm_source%3Dgmb%26utm_medium%3Dweb%26utm_term%3D%26utm_content%3D%26utm_campaign%3Dkyruus_brandify", "rating": 5, "reviews": 6, "place_id": "ChIJL_SZ6dfxwIcRp7m5LcfWB0g", "latitude": 39.0563845, "longitude": -94.6085848, "subtypes": "Neurologist"}, {"name": "Jeffrey Kaplan, MD, Kansas City MS and Headache Center", "address": "5675 Roe Blvd, Roeland Park, KS 66205", "city": "Roeland Park", "state": "Kansas", "state_code": "KS", "phone": "+1 913-632-2680", "website": "", "rating": 4.9, "reviews": 96, "place_id": "ChIJu_uhXx7rwIcRXoYnoLSs_pQ", "latitude": 39.0255949, "longitude": -94.6393344, "subtypes": "Neurologist"}, {"name": "Patrick X Landazuri, MD", "address": "4000 Cambridge St, Kansas City, KS 66160", "city": "Kansas City", "state": "Kansas", "state_code": "KS", "phone": "+1 913-588-1227", "website": "https://findadoctor.kansashealthsystem.com/provider/Patrick%2BX%2BLandazuri/1220526%3Futm_source%3Dgmb%26utm_medium%3Dweb%26utm_term%3D%26utm_content%3D%26utm_campaign%3Dkyruus_brandify", "rating": 5, "reviews": 5, "place_id": "ChIJZ6f2olXvwIcR5D2wuDbzVO0", "latitude": 39.0558531, "longitude": -94.60903239999999, "subtypes": "Neurologist"}, {"name": "Dr. Jeffrey M. Burns, MD", "address": "3599 Rainbow Blvd, Kansas City, KS 66103", "city": "Kansas City", "state": "Kansas", "state_code": "KS", "phone": "+1 913-588-5000", "website": "http://www.kumc.edu/", "rating": 4.4, "reviews": 7, "place_id": "ChIJL_SZ6dfxwIcRQg176Lm_QGs", "latitude": 39.0611487, "longitude": -94.6121553, "subtypes": "Neurologist"}, {"name": "Carol M Ulloa, MD", "address": "4000 Cambridge St, Kansas City, KS 66160", "city": "Kansas City", "state": "Kansas", "state_code": "KS", "phone": "+1 913-588-1227", "website": "https://findadoctor.kansashealthsystem.com/provider/Carol%2BM%2BUlloa/1221269%3Futm_source%3Dgmb%26utm_medium%3Dweb%26utm_term%3D%26utm_content%3D%26utm_campaign%3Dkyruus_brandify", "rating": 4.4, "reviews": 5, "place_id": "ChIJz1dVFm7vwIcRjiqCLfIpVjc", "latitude": 39.0558531, "longitude": -94.60903239999999, "subtypes": "Neurologist"}, {"name": "Rajesh Pahwa, MD", "address": "3599 Rainbow Blvd, Kansas City, KS 66103", "city": "Kansas City", "state": "Kansas", "state_code": "KS", "phone": "+1 913-588-1227", "website": "https://findadoctor.kansashealthsystem.com/provider/Rajesh%2BPahwa/1220202%3Futm_source%3Dgmb%26utm_medium%3Dweb%26utm_term%3D%26utm_content%3D%26utm_campaign%3Dkyruus_brandify", "rating": 4.5, "reviews": 4, "place_id": "ChIJL_SZ6dfxwIcRfhke594vtb4", "latitude": 39.0611487, "longitude": -94.6121553, "subtypes": "Neurologist"}, {"name": "Richard M Dubinsky, MD", "address": "3599 Rainbow Blvd, Kansas City, KS 66103", "city": "Kansas City", "state": "Kansas", "state_code": "KS", "phone": "+1 913-588-1227", "website": "https://findadoctor.kansashealthsystem.com/provider/Richard%2BM%2BDubinsky/1220115%3Futm_source%3Dgmb%26utm_medium%3Dweb%26utm_term%3D%26utm_content%3D%26utm_campaign%3Dkyruus_brandify", "rating": 3.5, "reviews": 14, "place_id": "ChIJL_SZ6dfxwIcRwFakgM-UXE4", "latitude": 39.0611487, "longitude": -94.6121553, "subtypes": "Neurologist"}, {"name": "Bittel Brennen DO", "address": "3901 Rainbow Blvd, Kansas City, KS 66160", "city": "Kansas City", "state": "Kansas", "state_code": "KS", "phone": "+1 913-588-6970", "website": "http://www.kumc.edu/", "rating": 5, "reviews": 2, "place_id": "ChIJc-0WAy_uwIcR3FFrcCDslKE", "latitude": 39.0561921, "longitude": -94.6114044, "subtypes": "Neurologist"}, {"name": "Long F Davalos Loo, MD", "address": "3599 Rainbow Blvd, Kansas City, KS 66103", "city": "Kansas City", "state": "Kansas", "state_code": "KS", "phone": "+1 913-588-1227", "website": "https://findadoctor.kansashealthsystem.com/provider/Long%2BF%2BDavalos%2520Loo/3103021%3Futm_source%3Dgmb%26utm_medium%3Dweb%26utm_term%3D%26utm_content%3D%26utm_campaign%3Dkyruus_brandify", "rating": 5, "reviews": 1, "place_id": "ChIJYWZ9RofvwIcRI4UD5Lv8cxE", "latitude": 39.0610576, "longitude": -94.61203139999999, "subtypes": "Neurologist"}, {"name": "Aditi Sharma, MD", "address": "3599 Rainbow Blvd, Kansas City, KS 66103", "city": "Kansas City", "state": "Kansas", "state_code": "KS", "phone": "+1 913-588-1227", "website": "https://findadoctor.kansashealthsystem.com/provider/Aditi%2BSharma/3049116%3Futm_source%3Dgmb%26utm_medium%3Dweb%26utm_term%3D%26utm_content%3D%26utm_campaign%3Dkyruus_brandify", "rating": 4.3, "reviews": 6, "place_id": "ChIJQ9fQpU7vwIcRa6v1ODwwimY", "latitude": 39.0610576, "longitude": -94.61203139999999, "subtypes": "Neurologist"}, {"name": "Muhammad M Nashatizadeh, MD", "address": "4000 Cambridge St, Kansas City, KS 66160", "city": "Kansas City", "state": "Kansas", "state_code": "KS", "phone": "+1 913-588-1227", "website": "https://findadoctor.kansashealthsystem.com/provider/Muhammad%2BM%2BNashatizadeh/1220528%3Futm_source%3Dgmb%26utm_medium%3Dweb%26utm_term%3D%26utm_content%3D%26utm_campaign%3Dkyruus_brandify", "rating": 5, "reviews": 1, "place_id": "ChIJW15g6BLrwIcRIAI-nWhFhzM", "latitude": 39.056753, "longitude": -94.6088515, "subtypes": "Neurologist"}, {"name": "Arpan Patel", "address": "3599 Rainbow Blvd, Kansas City, KS 66160", "city": "Kansas City", "state": "Kansas", "state_code": "KS", "phone": "", "website": "", "rating": 3, "reviews": 11, "place_id": "ChIJAQBAVyjuwIcR64_x2gsqLWY", "latitude": 39.0610576, "longitude": -94.61203139999999, "subtypes": "Neurologist"}, {"name": "Haas Karen Do", "address": "3901 Rainbow Blvd g600, Kansas City, KS 66160", "city": "Kansas City", "state": "Kansas", "state_code": "KS", "phone": "+1 816-524-1700", "website": "http://mymidwestphysician.com/", "rating": 5, "reviews": 4, "place_id": "ChIJc-0WAy_uwIcRejtAKlZfyA8", "latitude": 39.0557467, "longitude": -94.6107407, "subtypes": "Neurologist"}, {"name": "Neurosurgery of South Kansas City - Overland Park", "address": "5340 College Blvd, Overland Park, KS 66211", "city": "Overland Park", "state": "Kansas", "state_code": "KS", "phone": "+1 816-942-0200", "website": "https://mymidwestphysician.com/locations/neurosurgery-of-south-kansas-city-medical-group/%3Futm_campaign%3Dcorp_listings_mgmt%26utm_source%3Dgoogle%26utm_medium%3Dbusiness_listing", "rating": 4.7, "reviews": 209, "place_id": "ChIJ5Yw3TijqwIcRJYgH1NjJ6R8", "latitude": 38.9288734, "longitude": -94.6469035, "subtypes": "Neurosurgeon"}, {"name": "Neurosurgery of Overland Park", "address": "10550 Quivira Rd Suite 400, Overland Park, KS 66215", "city": "Overland Park", "state": "Kansas", "state_code": "KS", "phone": "+1 913-340-7980", "website": "https://mymidwestphysician.com/locations/neuro-of-kc/%3Futm_campaign%3Dcorp_listings_mgmt%26utm_source%3Dgoogle%26utm_medium%3Dbusiness_listing", "rating": 4.5, "reviews": 41, "place_id": "ChIJM8BGYSLrwIcRnJdAzYDlaU4", "latitude": 38.9371721, "longitude": -94.7252468, "subtypes": "Neurosurgeon"}, {"name": "Vishal B Shah, MD", "address": "4000 Cambridge St, Kansas City, KS 66160", "city": "Kansas City", "state": "Kansas", "state_code": "KS", "phone": "+1 913-588-1227", "website": "https://findadoctor.kansashealthsystem.com/provider/Vishal%2BB%2BShah/1284197%3Futm_source%3Dgmb%26utm_medium%3Dweb%26utm_term%3D%26utm_content%3D%26utm_campaign%3Dkyruus_brandify", "rating": 4.2, "reviews": 5, "place_id": "ChIJVXoNu-XrwIcR6DFLwKFGdUA", "latitude": 39.0558531, "longitude": -94.60903239999999, "subtypes": "Neurologist"}, {"name": "Mustafa H Al-Kharsan, MD", "address": "3599 Rainbow Blvd, Kansas City, KS 66103", "city": "Kansas City", "state": "Kansas", "state_code": "KS", "phone": "+1 913-588-1227", "website": "https://findadoctor.kansashealthsystem.com/provider/Mustafa%2BH%2BAl-Kharsan/5921623%3Futm_source%3Dgmb%26utm_medium%3Dweb%26utm_term%3D%26utm_content%3D%26utm_campaign%3Dkyruus_brandify", "rating": "", "reviews": "", "place_id": "ChIJ0UJWp7fvwIcRpvqGSRvbAMo", "latitude": 39.0610576, "longitude": -94.61203139999999, "subtypes": "Neurologist"}, {"name": "Dr. Dipika Aggarwal, MD", "address": "3901 Rainbow Blvd, Kansas City, KS 66103", "city": "Kansas City", "state": "Kansas", "state_code": "KS", "phone": "+1 913-588-6970", "website": "http://www.kumc.edu/", "rating": 3.7, "reviews": 3, "place_id": "ChIJc-0WAy_uwIcRPjhGUkqpb3s", "latitude": 39.0560974, "longitude": -94.6101575, "subtypes": "Neurologist"}, {"name": "Gloria V Lopez Cardenas, MD", "address": "3599 Rainbow Blvd, Kansas City, KS 66103", "city": "Kansas City", "state": "Kansas", "state_code": "KS", "phone": "+1 913-588-1227", "website": "https://findadoctor.kansashealthsystem.com/provider/Gloria%2BV%2BLopez%2520Cardenas/3095676%3Futm_source%3Dgmb%26utm_medium%3Dweb%26utm_term%3D%26utm_content%3D%26utm_campaign%3Dkyruus_brandify", "rating": 5, "reviews": 2, "place_id": "ChIJYyf0J9zvwIcRrIajmHh-LtU", "latitude": 39.0610576, "longitude": -94.61203139999999, "subtypes": "Neurologist"}, {"name": "Dr. Phillip D. Hylton, MD", "address": "3901 Rainbow Blvd, Kansas City, KS 66103", "city": "Kansas City", "state": "Kansas", "state_code": "KS", "phone": "+1 913-588-6122", "website": "https://www.kumc.edu/school-of-medicine/academics/departments/neurosurgery/academics/news/phillip_hylton_retires.html", "rating": 4.8, "reviews": 10, "place_id": "ChIJc-0WAy_uwIcRIRqABd-3nMs", "latitude": 39.0560974, "longitude": -94.6101575, "subtypes": "Neurosurgeon"}, {"name": "Jorge F Kawano-Castillo, MD", "address": "3599 Rainbow Blvd, Kansas City, KS 66103", "city": "Kansas City", "state": "Kansas", "state_code": "KS", "phone": "+1 913-588-1227", "website": "https://findadoctor.kansashealthsystem.com/provider/Jorge%2BF%2BKawano-Castillo/1220849%3Futm_source%3Dgmb%26utm_medium%3Dweb%26utm_term%3D%26utm_content%3D%26utm_campaign%3Dkyruus_brandify", "rating": 1, "reviews": 1, "place_id": "ChIJL9n2dKfvwIcRpOXdRtbKR5c", "latitude": 39.0611487, "longitude": -94.6121553, "subtypes": "Neurologist"}, {"name": "Jennifer J Cheng, MD", "address": "3825 Cambridge St, Kansas City, KS 66103", "city": "Kansas City", "state": "Kansas", "state_code": "KS", "phone": "+1 913-588-1227", "website": "https://findadoctor.kansashealthsystem.com/provider/Jennifer%2BJ%2BCheng/1221361%3Futm_source%3Dgmb%26utm_medium%3Dweb%26utm_term%3D%26utm_content%3D%26utm_campaign%3Dkyruus_brandify", "rating": 5, "reviews": 1, "place_id": "ChIJOXcLtBTrwIcRDRvTSjtX3Sk", "latitude": 39.0582205, "longitude": -94.60775609999999, "subtypes": "Neurosurgeon"}, {"name": "Sabreena J Slavin, MD", "address": "4000 Cambridge St, Kansas City, KS 66160", "city": "Kansas City", "state": "Kansas", "state_code": "KS", "phone": "+1 913-588-1227", "website": "https://findadoctor.kansashealthsystem.com/provider/Sabreena%2BJ%2BSlavin/1221258%3Futm_source%3Dgmb%26utm_medium%3Dweb%26utm_term%3D%26utm_content%3D%26utm_campaign%3Dkyruus_brandify", "rating": 5, "reviews": 3, "place_id": "ChIJ4SPrAt3vwIcRPnyW1bMhE10", "latitude": 39.0563845, "longitude": -94.6085848, "subtypes": "Neurologist"}, {"name": "Mary Suzanne Stevens, MD", "address": "4000 Cambridge St, Kansas City, KS 66160", "city": "Kansas City", "state": "Kansas", "state_code": "KS", "phone": "+1 913-588-1227", "website": "https://findadoctor.kansashealthsystem.com/provider/Mary%2BSuzanne%2BStevens/1220111%3Futm_source%3Dgmb%26utm_medium%3Dweb%26utm_term%3D%26utm_content%3D%26utm_campaign%3Dkyruus_brandify", "rating": 4.5, "reviews": 8, "place_id": "ChIJOzFQqHvuwIcRUsp7ovJ0nyQ", "latitude": 39.0558531, "longitude": -94.60903239999999, "subtypes": "Neurologist"}, {"name": "Stacy Younger, MD", "address": "12140 Nall Ave # 230, Overland Park, KS 66209", "city": "Overland Park", "state": "Kansas", "state_code": "KS", "phone": "+1 913-934-4000", "website": "https://mymidwestphysician.com/physicians/profile/Dr-Stacy-D-Younger-MD%3Futm_campaign%3Dcorp_listings_mgmt%26utm_source%3Dgoogle%26utm_medium%3Dbusiness_listing", "rating": 4.8, "reviews": 226, "place_id": "ChIJZ_3zxxvqwIcR_H_F2Key8x4", "latitude": 38.9096208, "longitude": -94.652113, "subtypes": "Neurologist"}, {"name": "Roukoz B Chamoun, MD", "address": "3825 Cambridge St, Kansas City, KS 66103", "city": "Kansas City", "state": "Kansas", "state_code": "KS", "phone": "+1 913-588-1227", "website": "https://findadoctor.kansashealthsystem.com/provider/Roukoz%2BB%2BChamoun/1220497%3Futm_source%3Dgmb%26utm_medium%3Dweb%26utm_term%3D%26utm_content%3D%26utm_campaign%3Dkyruus_brandify", "rating": 5, "reviews": 1, "place_id": "ChIJC-EMdijvwIcRiOG3zo8K11Q", "latitude": 39.0582205, "longitude": -94.60775609999999, "subtypes": "Neurosurgeon"}, {"name": "Andrew J Creed, MD", "address": "3599 Rainbow Blvd, Kansas City, KS 66103", "city": "Kansas City", "state": "Kansas", "state_code": "KS", "phone": "+1 913-588-1227", "website": "https://findadoctor.kansashealthsystem.com/provider/Andrew%2BJ%2BCreed/3103026%3Futm_source%3Dgmb%26utm_medium%3Dweb%26utm_term%3D%26utm_content%3D%26utm_campaign%3Dkyruus_brandify", "rating": 3, "reviews": 2, "place_id": "ChIJKVzoxvLvwIcRb6BNBmmLb_A", "latitude": 39.0610576, "longitude": -94.61203139999999, "subtypes": "Neurologist"}, {"name": "Kazi Syed, MD", "address": "12140 Nall Ave # 230, Overland Park, KS 66209", "city": "Overland Park", "state": "Kansas", "state_code": "KS", "phone": "+1 913-934-4000", "website": "http://opneurology.com/%3Futm_campaign%3Dcorp_listings_mgmt%26utm_source%3Dgoogle%26utm_medium%3Dbusiness_listing", "rating": 4.7, "reviews": 65, "place_id": "ChIJg3kWBivrwIcR_be10LtEI54", "latitude": 38.9096208, "longitude": -94.652113, "subtypes": "Neurologist"}, {"name": "Michael A Rippee, MD", "address": "3599 Rainbow Blvd, Kansas City, KS 66103", "city": "Kansas City", "state": "Kansas", "state_code": "KS", "phone": "+1 913-588-1227", "website": "https://findadoctor.kansashealthsystem.com/provider/Michael%2BA%2BRippee/1220798%3Futm_source%3Dgmb%26utm_medium%3Dweb%26utm_term%3D%26utm_content%3D%26utm_campaign%3Dkyruus_brandify", "rating": 4, "reviews": 3, "place_id": "ChIJL_SZ6dfxwIcRmJd2pceBlE0", "latitude": 39.0611487, "longitude": -94.6121553, "subtypes": "Neurologist"}, {"name": "Liebenthal Jennifer A MD", "address": "3599 Rainbow Blvd, Kansas City, KS 66160", "city": "Kansas City", "state": "Kansas", "state_code": "KS", "phone": "+1 913-588-0970", "website": "http://www.kumc.edu/", "rating": 3.7, "reviews": 3, "place_id": "ChIJc-0WAy_uwIcRjbwIChkG9kU", "latitude": 39.0610576, "longitude": -94.61203139999999, "subtypes": "Neurologist"}, {"name": "Michael J Kinsman, MD", "address": "3825 Cambridge St, Kansas City, KS 66103", "city": "Kansas City", "state": "Kansas", "state_code": "KS", "phone": "+1 913-588-1227", "website": "https://findadoctor.kansashealthsystem.com/provider/Michael%2BJ%2BKinsman/1220198%3Futm_source%3Dgmb%26utm_medium%3Dweb%26utm_term%3D%26utm_content%3D%26utm_campaign%3Dkyruus_brandify", "rating": 4, "reviews": 8, "place_id": "ChIJsUKxVE3vwIcRhR8DnuE_2tg", "latitude": 39.0582205, "longitude": -94.60775609999999, "subtypes": "Neurosurgeon"}, {"name": "Joseph S Domino, MD", "address": "3825 Cambridge St, Kansas City, KS 66103", "city": "Kansas City", "state": "Kansas", "state_code": "KS", "phone": "+1 913-588-1227", "website": "https://findadoctor.kansashealthsystem.com/provider/Joseph%2BS%2BDomino/3103782%3Futm_source%3Dgmb%26utm_medium%3Dweb%26utm_term%3D%26utm_content%3D%26utm_campaign%3Dkyruus_brandify", "rating": 5, "reviews": 1, "place_id": "ChIJu-qgJ2nvwIcRgCxPLxCS25E", "latitude": 39.0582205, "longitude": -94.60775609999999, "subtypes": "Neurosurgeon"}, {"name": "Richard J Barohn, MD", "address": "3599 Rainbow Blvd, Kansas City, KS 66103", "city": "Kansas City", "state": "Kansas", "state_code": "KS", "phone": "+1 573-882-1515", "website": "https://www.muhealth.org/doctors/richard-barohn-md", "rating": 5, "reviews": 1, "place_id": "ChIJL_SZ6dfxwIcRm6USQm8KgOA", "latitude": 39.0611487, "longitude": -94.6121553, "subtypes": "Neurologist"}, {"name": "Yunxia Wang, MD", "address": "4000 Cambridge St, Kansas City, KS 66160", "city": "Kansas City", "state": "Kansas", "state_code": "KS", "phone": "+1 913-588-1227", "website": "https://findadoctor.kansashealthsystem.com/provider/Yunxia%2BWang/1220180%3Futm_source%3Dgmb%26utm_medium%3Dweb%26utm_term%3D%26utm_content%3D%26utm_campaign%3Dkyruus_brandify", "rating": "", "reviews": "", "place_id": "ChIJL_SZ6dfxwIcRbVvvBYE5mlg", "latitude": 39.0563845, "longitude": -94.6085848, "subtypes": "Neurologist"}, {"name": "Dr. Kyle G. Carpenter, DO", "address": "3901 Rainbow Blvd, Kansas City, KS 66103", "city": "Kansas City", "state": "Kansas", "state_code": "KS", "phone": "+1 913-588-6970", "website": "http://www.kumc.edu/", "rating": "", "reviews": "", "place_id": "ChIJc-0WAy_uwIcRkrTtYUcyDhQ", "latitude": 39.056152, "longitude": -94.610626, "subtypes": "Neurologist"}, {"name": "Dr. April L. Mcvey, MD", "address": "3599 Rainbow Blvd, Kansas City, KS 66103", "city": "Kansas City", "state": "Kansas", "state_code": "KS", "phone": "+1 913-588-5000", "website": "http://www.kumc.edu/", "rating": 2, "reviews": 1, "place_id": "ChIJL_SZ6dfxwIcR6Y12SYwlnOk", "latitude": 39.0611487, "longitude": -94.6121553, "subtypes": "Neurologist"}, {"name": "Roukoz Chamoun, MD", "address": "3901 Rainbow Blvd, Kansas City, KS 66160", "city": "Kansas City", "state": "Kansas", "state_code": "KS", "phone": "+1 913-588-6122", "website": "https://www.kumc.edu/rchamoun.html", "rating": 5, "reviews": 10, "place_id": "ChIJ48x1Di_vwIcRATnLDEVuoWw", "latitude": 39.056934, "longitude": -94.6111754, "subtypes": "Neurosurgeon"}, {"name": "Cynthia J Ward, DO", "address": "3599 Rainbow Blvd, Kansas City, KS 66103", "city": "Kansas City", "state": "Kansas", "state_code": "KS", "phone": "+1 913-588-1227", "website": "https://findadoctor.kansashealthsystem.com/provider/Cynthia%2BJ%2BWard/2874028%3Futm_source%3Dgmb%26utm_medium%3Dweb%26utm_term%3D%26utm_content%3D%26utm_campaign%3Dkyruus_brandify", "rating": "", "reviews": "", "place_id": "ChIJ6dpIY1TvwIcR9amUdeYKq-M", "latitude": 39.0610576, "longitude": -94.61203139999999, "subtypes": "Neurologist"}, {"name": "Lee R Rosterman, DO", "address": "4000 Cambridge St, Kansas City, KS 66160", "city": "Kansas City", "state": "Kansas", "state_code": "KS", "phone": "+1 913-588-1227", "website": "https://findadoctor.kansashealthsystem.com/provider/Lee%2BR%2BRosterman/1220577%3Futm_source%3Dgmb%26utm_medium%3Dweb%26utm_term%3D%26utm_content%3D%26utm_campaign%3Dkyruus_brandify", "rating": "", "reviews": "", "place_id": "ChIJUwwaxAzvwIcRSxt5hy_qRGs", "latitude": 39.0563845, "longitude": -94.6085848, "subtypes": "Neurologist"}, {"name": "Andrew E Rodriguez, MD", "address": "3825 Cambridge St, Kansas City, KS 66103", "city": "Kansas City", "state": "Kansas", "state_code": "KS", "phone": "+1 913-588-1227", "website": "https://findadoctor.kansashealthsystem.com/provider/Andrew%2BE%2BRodriguez/2608863%3Futm_source%3Dgmb%26utm_medium%3Dweb%26utm_term%3D%26utm_content%3D%26utm_campaign%3Dkyruus_brandify", "rating": "", "reviews": "", "place_id": "ChIJu8nNXffvwIcRMKRElCXOyZw", "latitude": 39.0582205, "longitude": -94.60775609999999, "subtypes": "Neurologist"}, {"name": "Fariz Habib, MD", "address": "712 1st Terrace Suite 216, Lansing, KS 66043", "city": "Lansing", "state": "Kansas", "state_code": "KS", "phone": "+1 913-682-6200", "website": "https://www.patientfusion.com/doctor/fariz-habib-md-74536", "rating": 2.7, "reviews": 11, "place_id": "ChIJpcT68BB9wIcRYTWdmT2fJsQ", "latitude": 39.239475, "longitude": -94.89933599999999, "subtypes": "Neurologist"}, {"name": "Belliston Scott M DO", "address": "3901 Rainbow Blvd, Kansas City, KS 66160", "city": "Kansas City", "state": "Kansas", "state_code": "KS", "phone": "+1 913-588-5000", "website": "http://www.kumc.edu/", "rating": "", "reviews": "", "place_id": "ChIJdzKoIS_uwIcRkreIv7C8-D4", "latitude": 39.0562021, "longitude": -94.61050759999999, "subtypes": "Neurologist"}, {"name": "Gronseth Gary S MD", "address": "3901 Rainbow Blvd, Kansas City, KS 66160", "city": "Kansas City", "state": "Kansas", "state_code": "KS", "phone": "+1 913-588-6972", "website": "", "rating": "", "reviews": "", "place_id": "ChIJc-0WAy_uwIcRqxcMnJKcmV4", "latitude": 39.0567173, "longitude": -94.61163859999999, "subtypes": "Neurologist"}, {"name": "Mc Vey April L MD", "address": "3901 Rainbow Blvd, Kansas City, KS 66103", "city": "Kansas City", "state": "Kansas", "state_code": "KS", "phone": "+1 913-588-5000", "website": "", "rating": "", "reviews": "", "place_id": "ChIJc-0WAy_uwIcRvc06A7l-BDg", "latitude": 39.0560974, "longitude": -94.6101575, "subtypes": "Neurologist"}, {"name": "Arthur R. Dick, M.D.", "address": "3599 Rainbow Blvd, Kansas City, KS 66160", "city": "Kansas City", "state": "Kansas", "state_code": "KS", "phone": "+1 913-588-6820", "website": "http://www.kumc.edu/", "rating": "", "reviews": "", "place_id": "ChIJL_SZ6dfxwIcRYa6aUyy7L0A", "latitude": 39.0611487, "longitude": -94.6121553, "subtypes": "Neurologist"}, {"name": "Dipika Aggarwal, MD", "address": "3599 Rainbow Blvd, Kansas City, KS 66103", "city": "Kansas City", "state": "Kansas", "state_code": "KS", "phone": "+1 913-588-1227", "website": "https://findadoctor.kansashealthsystem.com/provider/Dipika%2BAggarwal/1284194%3Futm_source%3Dgmb%26utm_medium%3Dweb%26utm_term%3D%26utm_content%3D%26utm_campaign%3Dkyruus_brandify", "rating": "", "reviews": "", "place_id": "ChIJu4Gl7XrrwIcR2mmV0hF43Ak", "latitude": 39.0610576, "longitude": -94.61203139999999, "subtypes": "Neurologist"}, {"name": "Brennen L Bittel, DO", "address": "4000 Cambridge St, Kansas City, KS 66160", "city": "Kansas City", "state": "Kansas", "state_code": "KS", "phone": "+1 913-588-1227", "website": "https://findadoctor.kansashealthsystem.com/provider/Brennen%2BL%2BBittel/1220653%3Futm_source%3Dgmb%26utm_medium%3Dweb%26utm_term%3D%26utm_content%3D%26utm_campaign%3Dkyruus_brandify", "rating": "", "reviews": "", "place_id": "ChIJNeZ_fzXvwIcR1RlF38MRHSs", "latitude": 39.0563845, "longitude": -94.6085848, "subtypes": "Neurologist"}, {"name": "Noorollah Lori D MD", "address": "3901 Rainbow Blvd, Kansas City, KS 66103", "city": "Kansas City", "state": "Kansas", "state_code": "KS", "phone": "+1 913-588-5000", "website": "http://www.kumc.edu/", "rating": "", "reviews": "", "place_id": "ChIJc-0WAy_uwIcR6fn44HjgVbQ", "latitude": 39.0561921, "longitude": -94.6114044, "subtypes": "Neurologist"}, {"name": "Colleen G Lechtenberg, MD", "address": "4000 Cambridge St, Kansas City, KS 66160", "city": "Kansas City", "state": "Kansas", "state_code": "KS", "phone": "+1 913-588-1227", "website": "https://findadoctor.kansashealthsystem.com/provider/Colleen%2BG%2BLechtenberg/1220490%3Futm_source%3Dgmb%26utm_medium%3Dweb%26utm_term%3D%26utm_content%3D%26utm_campaign%3Dkyruus_brandify", "rating": "", "reviews": "", "place_id": "ChIJL_SZ6dfxwIcRF9kAT33Zr7w", "latitude": 39.0563845, "longitude": -94.6085848, "subtypes": "Neurologist"}, {"name": "David Clark, MD", "address": "12140 Nall Ave # 230, Overland Park, KS 66209", "city": "Overland Park", "state": "Kansas", "state_code": "KS", "phone": "+1 913-934-4000", "website": "https://mymidwestphysician.com/physicians/profile/Dr-David-Clark-MD%3Futm_campaign%3Dcorp_listings_mgmt%26utm_source%3Dgoogle%26utm_medium%3Dbusiness_listing", "rating": 4.9, "reviews": 247, "place_id": "ChIJUyL5xxvqwIcRfBo4D0F0xg0", "latitude": 38.9096208, "longitude": -94.652113, "subtypes": "Neurologist"}, {"name": "Dr. Mike M. Seeley, MD", "address": "12140 Nall Ave # 230, Overland Park, KS 66209", "city": "Overland Park", "state": "Kansas", "state_code": "KS", "phone": "+1 913-661-9448", "website": "http://mymidwestphysician.com/", "rating": 4.1, "reviews": 8, "place_id": "ChIJZ_3zxxvqwIcR7mwn2oFC2Rw", "latitude": 38.9096607, "longitude": -94.6520579, "subtypes": "Neurologist"}, {"name": "Phaedra Dowell", "address": "12140 Nall Ave # 230, Overland Park, KS 66209", "city": "Overland Park", "state": "Kansas", "state_code": "KS", "phone": "+1 913-661-9448", "website": "", "rating": 5, "reviews": 2, "place_id": "ChIJY-j5xxvqwIcRdljlxb3osos", "latitude": 38.90959369999999, "longitude": -94.6520998, "subtypes": "Neurologist"}, {"name": "Nakita Stephens, MD", "address": "7450 Kessler St Suite 205, Merriam, KS 66204", "city": "Merriam", "state": "Kansas", "state_code": "KS", "phone": "+1 913-632-9810", "website": "https://www.adventhealth.com/find-doctor/doctor/nakita-stephens-md-1861772097", "rating": 4.4, "reviews": 47, "place_id": "ChIJfS5Y2nftwIcRZcEzIY5TMYA", "latitude": 38.9935918, "longitude": -94.6940049, "subtypes": "Neurologist"}, {"name": "Ryan P. Johnson, MD", "address": "7450 Kessler St Suite 205, Merriam, KS 66204", "city": "Merriam", "state": "Kansas", "state_code": "KS", "phone": "+1 913-632-9810", "website": "https://www.adventhealth.com/hospital/adventhealth-shawnee-mission/find-doctor/doctor/ryan-patrick-johnson-md-1053970087", "rating": 4.9, "reviews": 33, "place_id": "ChIJI-mLnMjtwIcRvggVxykD6PE", "latitude": 38.9935918, "longitude": -94.6940049, "subtypes": "Neurologist"}, {"name": "Kanza Multispecialty Group: Appelbaum James MD", "address": "7315 E Frontage Rd # 123, Merriam, KS 66204", "city": "Merriam", "state": "Kansas", "state_code": "KS", "phone": "+1 913-677-2666", "website": "", "rating": 5, "reviews": 1, "place_id": "ChIJGZBwEY3swIcRXjJGQko1MVc", "latitude": 38.9959911, "longitude": -94.69486069999999, "subtypes": "Neurologist"}, {"name": "Alexander Fong, MD", "address": "7450 Kessler St Suite 205, Merriam, KS 66204", "city": "Merriam", "state": "Kansas", "state_code": "KS", "phone": "+1 913-632-9810", "website": "https://www.adventhealth.com/find-doctor/doctor/Alexander-Fong-MD-1326201658", "rating": 4.7, "reviews": 31, "place_id": "ChIJ8abGaAntwIcRtOMkLpOMn2c", "latitude": 38.9935918, "longitude": -94.6940049, "subtypes": "Neurologist"}, {"name": "John D. Eatman, MD", "address": "7450 Kessler St Suite 205, Shawnee Mission, KS 66204", "city": "Shawnee Mission", "state": "Kansas", "state_code": "KS", "phone": "+1 913-632-9810", "website": "https://www.adventhealth.com/find-doctor/doctor/john-d-eatman-md-1942596523", "rating": 4.9, "reviews": 32, "place_id": "ChIJ2VJnsGTtwIcRn54e8UoPzG8", "latitude": 38.9935918, "longitude": -94.6940049, "subtypes": "Neurologist"}, {"name": "Fatma Radhi, MD", "address": "1325 Research Park Drive, Manhattan, KS 66502", "city": "Manhattan", "state": "Kansas", "state_code": "KS", "phone": "+1 785-537-2651", "website": "https://www.stormontvail.org/provider/fatma-a-radhi-md/", "rating": 4.1, "reviews": 8, "place_id": "ChIJ0yNZFsdOvIcRUWaCTFcZXlI", "latitude": 39.1914218, "longitude": -96.6001344, "subtypes": "Neurologist"}, {"name": "Dr. Sathyashankar T. Subbanna, MD", "address": "1133 College Ave, Manhattan, KS 66502", "city": "Manhattan", "state": "Kansas", "state_code": "KS", "phone": "+1 785-537-9349", "website": "", "rating": "", "reviews": "", "place_id": "ChIJ-5jSD77NvYcRsOID-H-OPXM", "latitude": 39.1919333, "longitude": -96.6000301, "subtypes": "Neurologist"}, {"name": "Dr. Nanda N. Kumar, MD", "address": "222 N 6th St, Manhattan, KS 66502", "city": "Manhattan", "state": "Kansas", "state_code": "KS", "phone": "+1 785-537-9349", "website": "http://www.neuroscienceks.com/", "rating": 2.5, "reviews": 33, "place_id": "ChIJ-5jSD77NvYcRlV-0_ZE-Ry0", "latitude": 39.1812469, "longitude": -96.56440839999999, "subtypes": "Neurologist"}, {"name": "Neurosurgery of Overland Park", "address": "10550 Quivira Rd Suite 400, Overland Park, KS 66215", "city": "Overland Park", "state": "Kansas", "state_code": "KS", "phone": "+1 913-340-7980", "website": "https://mymidwestphysician.com/locations/neuro-of-kc/%3Futm_campaign%3Dcorp_listings_mgmt%26utm_source%3Dgoogle%26utm_medium%3Dbusiness_listing", "rating": 4.5, "reviews": 41, "place_id": "ChIJM8BGYSLrwIcRnJdAzYDlaU4", "latitude": 38.9371721, "longitude": -94.7252468, "subtypes": "Neurosurgeon"}, {"name": "Dr. Dana M. Winegarner, DO", "address": "8550 Marshall Dr # 100, Lenexa, KS 66214", "city": "Lenexa", "state": "Kansas", "state_code": "KS", "phone": "+1 913-894-1500", "website": "http://www.neurokc.com/", "rating": 5, "reviews": 1, "place_id": "ChIJsz7zgVfrwIcRz_IHtcYYAwQ", "latitude": 38.9736187, "longitude": -94.7181998, "subtypes": "Neurologist"}, {"name": "Canaan Coker, MD", "address": "1803 S Ridgeview Rd, Olathe, KS 66062", "city": "Olathe", "state": "Kansas", "state_code": "KS", "phone": "+1 913-829-0505", "website": "https://collegeparkfamilycare.com/physicians/profile/Dr-Canaan-Coker-MD%3Futm_campaign%3Dcorp_listings_mgmt%26utm_source%3Dgoogle%26utm_medium%3Dbusiness_listing", "rating": 4.9, "reviews": 62, "place_id": "ChIJu5Svmi3rwIcRYETnp1_rn_4", "latitude": 38.8535013, "longitude": -94.79773209999999, "subtypes": "Neurologist"}, {"name": "Kansas City Neurology Clinic - Menorah", "address": "12140 Nall Ave # 230, Overland Park, KS 66209", "city": "Overland Park", "state": "Kansas", "state_code": "KS", "phone": "+1 913-934-4000", "website": "https://mymidwestphysician.com/locations/kansas-city-neurology-clinic/%3Futm_campaign%3Dcorp_listings_mgmt%26utm_source%3Dgoogle%26utm_medium%3Dbusiness_listing", "rating": 4.8, "reviews": 264, "place_id": "ChIJZ_3zxxvqwIcRF9B9ez2WpSc", "latitude": 38.9096208, "longitude": -94.652113, "subtypes": "Neurologist"}, {"name": "Midwest Neurosurgery Associates", "address": "10550 Quivira Rd Suite 400, Overland Park, KS 66215", "city": "Overland Park", "state": "Kansas", "state_code": "KS", "phone": "+1 816-363-2500", "website": "https://midwestneurosurgery.net/", "rating": 5, "reviews": 28, "place_id": "ChIJZT4oA4_rwIcRYZKQntLvMZE", "latitude": 38.9371721, "longitude": -94.7252468, "subtypes": "Neurosurgeon"}, {"name": "Gordon R Kelley, MD", "address": "7450 Kessler St Suite 205, Merriam, KS 66204", "city": "Merriam", "state": "Kansas", "state_code": "KS", "phone": "+1 913-632-9810", "website": "https://www.adventhealth.com/find-doctor/doctor/gordon-kelley-md-faan-1548225535", "rating": 4.1, "reviews": 28, "place_id": "ChIJG3B-HIrswIcRbUFx2jwBwEg", "latitude": 38.9935918, "longitude": -94.6940049, "subtypes": "Neurologist"}, {"name": "College Park Family Care Neurology Center", "address": "1803 S Ridgeview Rd, Olathe, KS 66062", "city": "Olathe", "state": "Kansas", "state_code": "KS", "phone": "+1 913-829-0505", "website": "https://collegeparkfamilycare.com/locations/neurology-center/%3Futm_campaign%3Dcorp_listings_mgmt%26utm_source%3Dgoogle%26utm_medium%3Dbusiness_listing", "rating": 4.7, "reviews": 83, "place_id": "ChIJu_uhXx7rwIcRaf4GWHsekpE", "latitude": 38.8535013, "longitude": -94.79773209999999, "subtypes": "Neurologist"}, {"name": "David Clark, MD", "address": "12140 Nall Ave # 230, Overland Park, KS 66209", "city": "Overland Park", "state": "Kansas", "state_code": "KS", "phone": "+1 913-934-4000", "website": "https://mymidwestphysician.com/physicians/profile/Dr-David-Clark-MD%3Futm_campaign%3Dcorp_listings_mgmt%26utm_source%3Dgoogle%26utm_medium%3Dbusiness_listing", "rating": 4.9, "reviews": 247, "place_id": "ChIJUyL5xxvqwIcRfBo4D0F0xg0", "latitude": 38.9096208, "longitude": -94.652113, "subtypes": "Neurologist"}, {"name": "Amanda Doubrava APRN", "address": "501 S Santa Fe Ave #220, Salina, KS 67401", "city": "Salina", "state": "Kansas", "state_code": "KS", "phone": "+1 785-452-6911", "website": "https://www.srhc.com/services/neurosciences.php", "rating": 5, "reviews": 12, "place_id": "ChIJvy5PzUjFvIcRmYkjbfn45yE", "latitude": 38.8323832, "longitude": -97.6083946, "subtypes": "Neurologist"}, {"name": "Doug Davis MD", "address": "501 S Santa Fe Ave #220, Salina, KS 67401", "city": "Salina", "state": "Kansas", "state_code": "KS", "phone": "+1 785-452-6911", "website": "https://www.srhc.com/services/neurosciences.php", "rating": 4.3, "reviews": 24, "place_id": "ChIJT1dE5uDFvIcRW0-71s_h6HY", "latitude": 38.8323832, "longitude": -97.6083946, "subtypes": "Neurologist"}, {"name": "Britton Zuccarelli MD", "address": "501 S Santa Fe Ave # 100, Salina, KS 67401", "city": "Salina", "state": "Kansas", "state_code": "KS", "phone": "+1 785-825-2273", "website": "https://www.salinapediatriccare.com/", "rating": 5, "reviews": 23, "place_id": "ChIJHSx4tvnFvIcROtF6j0cBIQs", "latitude": 38.8323584, "longitude": -97.60836259999999, "subtypes": "Neurologist"}, {"name": "Scott Boswell MD", "address": "501 S Santa Fe Ave # 300, Salina, KS 67401", "city": "Salina", "state": "Kansas", "state_code": "KS", "phone": "+1 785-823-1032", "website": "https://www.salinaregionalneurosurgery.com/", "rating": 4.6, "reviews": 34, "place_id": "ChIJAQDAtfnFvIcRXdq-GN3BIx4", "latitude": 38.8323471, "longitude": -97.60847079999999, "subtypes": "Neurosurgeon"}, {"name": "Steven Tenny MD", "address": "501 S Santa Fe Ave # 300, Salina, KS 67401", "city": "Salina", "state": "Kansas", "state_code": "KS", "phone": "+1 785-823-1032", "website": "https://www.salinaregionalneurosurgery.com/", "rating": 4.5, "reviews": 8, "place_id": "ChIJCxO3tfnFvIcROAWyoEqPMbQ", "latitude": 38.8323471, "longitude": -97.60847079999999, "subtypes": "Neurosurgeon"}, {"name": "Dr. Ali B. Manguoglu, MD", "address": "400 S Santa Fe Ave, Salina, KS 67401", "city": "Salina", "state": "Kansas", "state_code": "KS", "phone": "+1 785-452-7000", "website": "", "rating": 5, "reviews": 1, "place_id": "ChIJC2MXGfjFvIcRav7xvwy_G_A", "latitude": 38.8334967, "longitude": -97.61023569999999, "subtypes": "Neurosurgeon"}, {"name": "Wade Welch, MD", "address": "631 SW Horne St # 420, Topeka, KS 66606", "city": "Topeka", "state": "Kansas", "state_code": "KS", "phone": "+1 785-295-7878", "website": "https://kutopeka.com/find-a-provider/provider/1518962851%3Futm_source%3Dpg-google%26utm_medium%3Dorganic%26utm_campaign%3Dpg-listings", "rating": 4.2, "reviews": 87, "place_id": "ChIJKVonjPgCv4cRVxDjGNtqPOc", "latitude": 39.0561879, "longitude": -95.69536769999999, "subtypes": "Neurologist"}, {"name": "Taijun Zhao, MD", "address": "901 SW Garfield Ave 1st Floor, Topeka, KS 66606", "city": "Topeka", "state": "Kansas", "state_code": "KS", "phone": "+1 785-354-6000", "website": "https://www.stormontvail.org/provider/taijun-zhao-md/", "rating": 2.1, "reviews": 20, "place_id": "ChIJYR8I4vkCv4cR8lfWLa1HO3w", "latitude": 39.0529047, "longitude": -95.69811399999999, "subtypes": "Neurologist"}, {"name": "Jonson Huang, MD", "address": "901 SW Garfield Ave 1st Floor, Topeka, KS 66606", "city": "Topeka", "state": "Kansas", "state_code": "KS", "phone": "+1 785-354-6000", "website": "https://www.stormontvail.org/provider/jonson-huang-md/", "rating": 3.6, "reviews": 8, "place_id": "ChIJYR8I4vkCv4cRtGDKQYIZVws", "latitude": 39.0529047, "longitude": -95.69811399999999, "subtypes": "Neurologist"}, {"name": "Zane Foster, MD", "address": "901 SW Garfield Ave 2nd Floor, Topeka, KS 66606", "city": "Topeka", "state": "Kansas", "state_code": "KS", "phone": "+1 785-354-6000", "website": "https://www.stormontvail.org/provider/zane-foster-md/", "rating": 5, "reviews": 3, "place_id": "ChIJz9f5JEwDv4cROSIy_XXbDy4", "latitude": 39.0529047, "longitude": -95.69811399999999, "subtypes": "Neurologist"}, {"name": "Ahmed Harazeen, M.D.", "address": "901 SW Garfield Ave 2nd Floor, Topeka, KS 66606", "city": "Topeka", "state": "Kansas", "state_code": "KS", "phone": "+1 785-354-0550", "website": "https://www.stormontvail.org/provider/ahmed-harazeen-md/", "rating": 5, "reviews": 1, "place_id": "ChIJLcdL-QYDv4cRrSdo8jAjPic", "latitude": 39.0529047, "longitude": -95.69811399999999, "subtypes": "Neurologist"}, {"name": "Prasanna Eswaradass, MD", "address": "631 SW Horne St # 420, Topeka, KS 66606", "city": "Topeka", "state": "Kansas", "state_code": "KS", "phone": "+1 785-295-7878", "website": "https://kutopeka.com/find-a-provider/provider/1952823981%3Futm_source%3Dpg-google%26utm_medium%3Dorganic%26utm_campaign%3Dpg-listings", "rating": 4, "reviews": 4, "place_id": "ChIJZyeob9EDv4cRYb0hcirjsCA", "latitude": 39.058988, "longitude": -95.7022549, "subtypes": "Neurologist"}, {"name": "Hartej Sethi, MD", "address": "2660 SW 3rd St, Topeka, KS 66606", "city": "Topeka", "state": "Kansas", "state_code": "KS", "phone": "+1 785-354-0578", "website": "https://www.stormontvail.org/provider/hartej-s-sethi-md/", "rating": 2.6, "reviews": 5, "place_id": "ChIJv06pW5cDv4cRZggFTp1QoJI", "latitude": 39.0656663, "longitude": -95.7081206, "subtypes": "Neurologist"}, {"name": "Lizhao Wang, PhD", "address": "1504 SW 8th Ave, Topeka, KS 66606", "city": "Topeka", "state": "Kansas", "state_code": "KS", "phone": "+1 785-232-8542", "website": "", "rating": 4, "reviews": 1, "place_id": "ChIJFe1I4fgCv4cR4gsQeK-M5pM", "latitude": 39.0548483, "longitude": -95.6948017, "subtypes": "Neurophysiologist"}, {"name": "Shamik S. Shah, MD", "address": "1500 SW 10th Ave, Topeka, KS 66604", "city": "Topeka", "state": "Kansas", "state_code": "KS", "phone": "+1 785-357-2554", "website": "https://www.stormontvail.org/provider/shamik-s-shah-md/", "rating": "", "reviews": "", "place_id": "ChIJWXvvpU8Dv4cRCAfTYEVzTxc", "latitude": 39.0526033, "longitude": -95.6964703, "subtypes": "Neurologist"}, {"name": "Rebecca B. Milholland, MD", "address": "1500 SW 10th Ave, Topeka, KS 66604", "city": "Topeka", "state": "Kansas", "state_code": "KS", "phone": "+1 785-357-2554", "website": "", "rating": "", "reviews": "", "place_id": "ChIJPeC0cK0Dv4cR5qcZUYAJBUk", "latitude": 39.0526033, "longitude": -95.6964703, "subtypes": "Neurologist"}, {"name": "Chad Tuchek, MD", "address": "2660 SW 3rd St, Topeka, KS 66606", "city": "Topeka", "state": "Kansas", "state_code": "KS", "phone": "+1 785-354-6000", "website": "https://stormontvail.org/provider/chad-tuchek-md/", "rating": 5, "reviews": 3, "place_id": "ChIJkWINvUQDv4cRojVXL8wlSsk", "latitude": 39.0656664, "longitude": -95.7081207, "subtypes": "Neurosurgeon"}, {"name": "David Fritz MD", "address": "1700 SW 7th St, Topeka, KS 66606", "city": "Topeka", "state": "Kansas", "state_code": "KS", "phone": "+1 785-295-7800", "website": "", "rating": 5, "reviews": 2, "place_id": "ChIJ1R0kffgCv4cRk4NmahD0oG0", "latitude": 39.0565558, "longitude": -95.69591, "subtypes": "Neurosurgeon"}, {"name": "E. Owen Martinez, MD", "address": "631 SW Horne St # 420, Topeka, KS 66606", "city": "Topeka", "state": "Kansas", "state_code": "KS", "phone": "+1 785-295-7878", "website": "http://www.kmcpa.com/", "rating": "", "reviews": "", "place_id": "ChIJoV9b3VgCv4cRCwu7To-oki8", "latitude": 39.058988, "longitude": -95.7022549, "subtypes": "Neurologist"}, {"name": "Dr. Karen Levin", "address": "1500 SW 10th Ave, Topeka, KS 66604", "city": "Topeka", "state": "Kansas", "state_code": "KS", "phone": "+1 785-354-0578", "website": "", "rating": "", "reviews": "", "place_id": "ChIJDz0bkPkCv4cRsmXAWl2ZojU", "latitude": 39.0526033, "longitude": -95.6964703, "subtypes": "Neurologist"}, {"name": "Muhammad Amin, MD", "address": "901 SW Garfield Ave 1st Floor, Topeka, KS 66606", "city": "Topeka", "state": "Kansas", "state_code": "KS", "phone": "+1 785-354-9591", "website": "https://www.stormontvail.org/provider/muhammad-amin-md/", "rating": "", "reviews": "", "place_id": "ChIJ_3StMMwDv4cRj8rp1UQTZuo", "latitude": 39.0529047, "longitude": -95.69811399999999, "subtypes": "Neurologist"}, {"name": "Sanjeev Kumar, MD", "address": "1130 W 4th St Suite #3203, Lawrence, KS 66044", "city": "Lawrence", "state": "Kansas", "state_code": "KS", "phone": "+1 785-505-5020", "website": "https://www.lmh.org/get-care/neurology/", "rating": 2.6, "reviews": 20, "place_id": "ChIJr-TxmBRvv4cR06IibEBC05g", "latitude": 38.978113, "longitude": -95.248376, "subtypes": "Neurologist"}, {"name": "Robert A Beck, MD", "address": "1130 W 4th St Suite #3203, Lawrence, KS 66044", "city": "Lawrence", "state": "Kansas", "state_code": "KS", "phone": "+1 785-505-5020", "website": "https://www.lmh.org/get-care/neurology/", "rating": 3.5, "reviews": 11, "place_id": "ChIJ-aWVxxRvv4cRc_ZSOQMVSLo", "latitude": 38.9781468, "longitude": -95.24844039999999, "subtypes": "Neurologist"}, {"name": "NMC Health | Neurology Specialists", "address": "800 Medical Center Dr STE 210, Newton, KS 67114", "city": "Newton", "state": "Kansas", "state_code": "KS", "phone": "+1 316-283-4005", "website": "https://www.mynmchealth.org/locations/specialty-care/neurology-specialists/", "rating": 4.8, "reviews": 283, "place_id": "ChIJ6zNu8OoTu4cRsIErNbKCzhw", "latitude": 38.0241272, "longitude": -97.33202829999999, "subtypes": "Neurologist"}, {"name": "Sarab Alseoudi", "address": "800 Medical Center Dr STE 210, Newton, KS 67114", "city": "Newton", "state": "Kansas", "state_code": "KS", "phone": "+1 316-283-4005", "website": "https://www.mynmchealth.org/doctor/alseoudi-sarab-md/", "rating": 4.6, "reviews": 117, "place_id": "ChIJqVZDxeoTu4cRyy14aaxrybA", "latitude": 38.0241101, "longitude": -97.3320135, "subtypes": "Neurologist"}, {"name": "Dr. Gautham Reddy, M.D.", "address": "2135 Collective Ln, Wichita, KS 67206", "city": "Wichita", "state": "Kansas", "state_code": "KS", "phone": "+1 316-261-3220", "website": "http://neurologyconsultantsofkansas.com/team/gautham-p-reddy/", "rating": 3.6, "reviews": 19, "place_id": "ChIJ5aNOKcr9uocRjxFMsyKW9ek", "latitude": 37.7214427, "longitude": -97.19828179999999, "subtypes": "Neurologist"}, {"name": "Dr. Katie R. Rosell", "address": "2135 N, 2135 Collective Ln, Wichita, KS 67206", "city": "Wichita", "state": "Kansas", "state_code": "KS", "phone": "+1 316-261-3220", "website": "https://neurologyconsultantsofkansas.com/team/katie-r-rosell/", "rating": 5, "reviews": 12, "place_id": "ChIJoXfoK8r9uocRdPtDMJrqj3k", "latitude": 37.7215021, "longitude": -97.19818, "subtypes": "Neurologist"}, {"name": "Bassem El-Nabbout M.D", "address": "10111 E 21st St N Suite 405, Wichita, KS 67206", "city": "Wichita", "state": "Kansas", "state_code": "KS", "phone": "+1 316-796-5610", "website": "http://www.kspediatricneurology.com/", "rating": 4.3, "reviews": 46, "place_id": "ChIJv2BXs8njuocRvpMb9ecLED8", "latitude": 37.7218341, "longitude": -97.2198995, "subtypes": "Neurologist"}, {"name": "Neurosurgery of South Kansas City - Overland Park", "address": "5340 College Blvd, Overland Park, KS 66211", "city": "Overland Park", "state": "Kansas", "state_code": "KS", "phone": "+1 816-942-0200", "website": "https://mymidwestphysician.com/locations/neurosurgery-of-south-kansas-city-medical-group/%3Futm_campaign%3Dcorp_listings_mgmt%26utm_source%3Dgoogle%26utm_medium%3Dbusiness_listing", "rating": 4.7, "reviews": 209, "place_id": "ChIJ5Yw3TijqwIcRJYgH1NjJ6R8", "latitude": 38.9288734, "longitude": -94.6469035, "subtypes": "Neurosurgeon"}, {"name": "Stacy Younger, MD", "address": "12140 Nall Ave # 230, Overland Park, KS 66209", "city": "Overland Park", "state": "Kansas", "state_code": "KS", "phone": "+1 913-934-4000", "website": "https://mymidwestphysician.com/physicians/profile/Dr-Stacy-D-Younger-MD%3Futm_campaign%3Dcorp_listings_mgmt%26utm_source%3Dgoogle%26utm_medium%3Dbusiness_listing", "rating": 4.8, "reviews": 226, "place_id": "ChIJZ_3zxxvqwIcR_H_F2Key8x4", "latitude": 38.9096208, "longitude": -94.652113, "subtypes": "Neurologist"}, {"name": "Dr. Mike M. Seeley, MD", "address": "12140 Nall Ave # 230, Overland Park, KS 66209", "city": "Overland Park", "state": "Kansas", "state_code": "KS", "phone": "+1 913-661-9448", "website": "http://mymidwestphysician.com/", "rating": 4.1, "reviews": 8, "place_id": "ChIJZ_3zxxvqwIcR7mwn2oFC2Rw", "latitude": 38.9096607, "longitude": -94.6520579, "subtypes": "Neurologist"}, {"name": "Jeffrey Kaplan, MD, Kansas City MS and Headache Center", "address": "5675 Roe Blvd, Roeland Park, KS 66205", "city": "Roeland Park", "state": "Kansas", "state_code": "KS", "phone": "+1 913-632-2680", "website": "", "rating": 4.9, "reviews": 96, "place_id": "ChIJu_uhXx7rwIcRXoYnoLSs_pQ", "latitude": 39.0255949, "longitude": -94.6393344, "subtypes": "Neurologist"}, {"name": "Kazi Syed, MD", "address": "12140 Nall Ave # 230, Overland Park, KS 66209", "city": "Overland Park", "state": "Kansas", "state_code": "KS", "phone": "+1 913-934-4000", "website": "http://opneurology.com/%3Futm_campaign%3Dcorp_listings_mgmt%26utm_source%3Dgoogle%26utm_medium%3Dbusiness_listing", "rating": 4.7, "reviews": 65, "place_id": "ChIJg3kWBivrwIcR_be10LtEI54", "latitude": 38.9096208, "longitude": -94.652113, "subtypes": "Neurologist"}, {"name": "Jones Gina L Do", "address": "5808 W 110th St, Leawood, KS 66211", "city": "Leawood", "state": "Kansas", "state_code": "KS", "phone": "+1 913-696-8000", "website": "", "rating": 5, "reviews": 1, "place_id": "ChIJzeO37S7qwIcRIC8rdHi4JVQ", "latitude": 38.9298785, "longitude": -94.6523746, "subtypes": "Pediatric neurologist"}, {"name": "James Southwell", "address": "10777 Nall Ave Ste 140, Overland Park, KS 66211", "city": "Overland Park", "state": "Kansas", "state_code": "KS", "phone": "+1 913-588-1227", "website": "https://findadoctor.kansashealthsystem.com/provider/james-l-southwell-jr/1221245", "rating": 5, "reviews": 4, "place_id": "ChIJi188yCvqwIcRF7fqDinBVEs", "latitude": 38.9331292, "longitude": -94.6481683, "subtypes": "Neurologist"}, {"name": "Brian E Herman, DO", "address": "10777 Nall Ave, Overland Park, KS 66211", "city": "Overland Park", "state": "Kansas", "state_code": "KS", "phone": "+1 913-588-1227", "website": "https://findadoctor.kansashealthsystem.com/provider/Brian%2BE%2BHerman/5368787%3Futm_source%3Dgmb%26utm_medium%3Dweb%26utm_term%3D%26utm_content%3D%26utm_campaign%3Dkyruus_brandify", "rating": 5, "reviews": 2, "place_id": "ChIJJ_C7hurrwIcR-HBNz5JZgwc", "latitude": 38.9331244, "longitude": -94.6481683, "subtypes": "Neurologist"}, {"name": "Dr. Rawan Albadareen", "address": "10730 Nall Ave, Overland Park, KS 66211", "city": "Overland Park", "state": "Kansas", "state_code": "KS", "phone": "+1 913-901-9000", "website": "", "rating": 5, "reviews": 3, "place_id": "ChIJ__-_OSzqwIcR--D1xljuOoo", "latitude": 38.93278129999999, "longitude": -94.6520579, "subtypes": "Neurologist"}, {"name": "Deetra Y Ford, MD", "address": "10777 Nall Ave, Overland Park, KS 66211", "city": "Overland Park", "state": "Kansas", "state_code": "KS", "phone": "+1 913-588-1227", "website": "https://findadoctor.kansashealthsystem.com/provider/Deetra%2BY%2BFord/1221429%3Futm_source%3Dgmb%26utm_medium%3Dweb%26utm_term%3D%26utm_content%3D%26utm_campaign%3Dkyruus_brandify", "rating": 4.8, "reviews": 4, "place_id": "ChIJhUWgFC7uwIcR7uGdHIl6J5s", "latitude": 38.9331244, "longitude": -94.6481683, "subtypes": "Neurologist"}, {"name": "Tekalign A Burka, MD", "address": "10777 Nall Ave, Overland Park, KS 66211", "city": "Overland Park", "state": "Kansas", "state_code": "KS", "phone": "+1 913-588-1227", "website": "https://findadoctor.kansashealthsystem.com/provider/Tekalign%2BA%2BBurka/1220962%3Futm_source%3Dgmb%26utm_medium%3Dweb%26utm_term%3D%26utm_content%3D%26utm_campaign%3Dkyruus_brandify", "rating": 4.3, "reviews": 6, "place_id": "ChIJBS97OjfrwIcRjNETRb-xQ9A", "latitude": 38.9331244, "longitude": -94.6481683, "subtypes": "Neurologist"}, {"name": "Richard M Dubinsky, MD", "address": "3599 Rainbow Blvd, Kansas City, KS 66103", "city": "Kansas City", "state": "Kansas", "state_code": "KS", "phone": "+1 913-588-1227", "website": "https://findadoctor.kansashealthsystem.com/provider/Richard%2BM%2BDubinsky/1220115%3Futm_source%3Dgmb%26utm_medium%3Dweb%26utm_term%3D%26utm_content%3D%26utm_campaign%3Dkyruus_brandify", "rating": 3.5, "reviews": 14, "place_id": "ChIJL_SZ6dfxwIcRwFakgM-UXE4", "latitude": 39.0611487, "longitude": -94.6121553, "subtypes": "Neurologist"}, {"name": "Jennifer J Cheng, MD", "address": "3825 Cambridge St, Kansas City, KS 66103", "city": "Kansas City", "state": "Kansas", "state_code": "KS", "phone": "+1 913-588-1227", "website": "https://findadoctor.kansashealthsystem.com/provider/Jennifer%2BJ%2BCheng/1221361%3Futm_source%3Dgmb%26utm_medium%3Dweb%26utm_term%3D%26utm_content%3D%26utm_campaign%3Dkyruus_brandify", "rating": 5, "reviews": 1, "place_id": "ChIJOXcLtBTrwIcRDRvTSjtX3Sk", "latitude": 39.0582205, "longitude": -94.60775609999999, "subtypes": "Neurosurgeon"}, {"name": "Arpan Patel", "address": "3599 Rainbow Blvd, Kansas City, KS 66160", "city": "Kansas City", "state": "Kansas", "state_code": "KS", "phone": "", "website": "", "rating": 3, "reviews": 11, "place_id": "ChIJAQBAVyjuwIcR64_x2gsqLWY", "latitude": 39.0610576, "longitude": -94.61203139999999, "subtypes": "Neurologist"}, {"name": "Frank P Holladay", "address": "5340 College Blvd, Overland Park, KS 66211", "city": "Overland Park", "state": "Kansas", "state_code": "KS", "phone": "+1 816-942-0200", "website": "http://mymidwestphysician.com/", "rating": 5, "reviews": 1, "place_id": "ChIJ5Yw3TijqwIcRtDezZkvHg-c", "latitude": 38.928874, "longitude": -94.646897, "subtypes": "Neurosurgeon"}, {"name": "Wendy Spangler, MD", "address": "5340 College Blvd, Overland Park, KS 66211", "city": "Overland Park", "state": "Kansas", "state_code": "KS", "phone": "+1 816-942-0200", "website": "https://mymidwestphysician.com/locations/neurosurgery-of-south-kansas-city-medical-group/%3Futm_campaign%3Dcorp_listings_mgmt%26utm_source%3Dgoogle%26utm_medium%3Dbusiness_listing", "rating": 4.6, "reviews": 95, "place_id": "ChIJU3nFrc3rwIcRJySxH4jNc08", "latitude": 38.9290004, "longitude": -94.64697629999999, "subtypes": "Neurosurgeon"}, {"name": "John Clough, MD", "address": "5340 College Blvd, Overland Park, KS 66211", "city": "Overland Park", "state": "Kansas", "state_code": "KS", "phone": "+1 816-942-0200", "website": "https://mymidwestphysician.com/physicians/profile/Dr-John-A-Clough-MD%3Futm_campaign%3Dcorp_listings_mgmt%26utm_source%3Dgoogle%26utm_medium%3Dbusiness_listing", "rating": 4.8, "reviews": 172, "place_id": "ChIJLVNyIavpwIcR-6MLGTr7WVs", "latitude": 38.9281568, "longitude": -94.6482837, "subtypes": "Neurosurgeon"}, {"name": "Amanda J Thuringer, DO", "address": "10777 Nall Ave, Overland Park, KS 66211", "city": "Overland Park", "state": "Kansas", "state_code": "KS", "phone": "+1 913-588-1227", "website": "https://findadoctor.kansashealthsystem.com/provider/Amanda%2BJ%2BThuringer/1597152%3Futm_source%3Dgmb%26utm_medium%3Dweb%26utm_term%3D%26utm_content%3D%26utm_campaign%3Dkyruus_brandify", "rating": 3.7, "reviews": 6, "place_id": "ChIJWzWbmVzvwIcRz-eVy5ieYJk", "latitude": 38.9331244, "longitude": -94.6481683, "subtypes": "Neurologist"}, {"name": "Matthew C Varon, MD", "address": "10777 Nall Ave, Overland Park, KS 66211", "city": "Overland Park", "state": "Kansas", "state_code": "KS", "phone": "+1 913-588-1227", "website": "https://findadoctor.kansashealthsystem.com/provider/Matthew%2BC%2BVaron/1220955%3Futm_source%3Dgmb%26utm_medium%3Dweb%26utm_term%3D%26utm_content%3D%26utm_campaign%3Dkyruus_brandify", "rating": 5, "reviews": 1, "place_id": "ChIJDbviYB_rwIcReVjdljnhe2c", "latitude": 38.9331244, "longitude": -94.6481683, "subtypes": "Neurologist"}, {"name": "Norman Bamber, MD", "address": "5340 College Blvd, Overland Park, KS 66211", "city": "Overland Park", "state": "Kansas", "state_code": "KS", "phone": "+1 816-942-0200", "website": "https://mymidwestphysician.com/physicians/profile/Dr-Norman-I-Bamber-MD%3Futm_campaign%3Dcorp_listings_mgmt%26utm_source%3Dgoogle%26utm_medium%3Dbusiness_listing", "rating": 5, "reviews": 76, "place_id": "ChIJS4y4lRvrwIcRL8QM9M5K2RM", "latitude": 38.9289291, "longitude": -94.6469339, "subtypes": "Neurosurgeon"}, {"name": "Sanjeev R Keshary, MD", "address": "10710 Nall Ave, Overland Park, KS 66211", "city": "Overland Park", "state": "Kansas", "state_code": "KS", "phone": "+1 913-574-1600", "website": "https://findadoctor.kansashealthsystem.com/provider/Sanjeev%2BR%2BKeshary/1221199", "rating": 5, "reviews": 1, "place_id": "ChIJaerQ0R7rwIcRqgjN6ET0vOw", "latitude": 38.93336499999999, "longitude": -94.65099939999999, "subtypes": "Neurologist"}, {"name": "Carol M Ulloa, MD", "address": "4000 Cambridge St, Kansas City, KS 66160", "city": "Kansas City", "state": "Kansas", "state_code": "KS", "phone": "+1 913-588-1227", "website": "https://findadoctor.kansashealthsystem.com/provider/Carol%2BM%2BUlloa/1221269%3Futm_source%3Dgmb%26utm_medium%3Dweb%26utm_term%3D%26utm_content%3D%26utm_campaign%3Dkyruus_brandify", "rating": 4.4, "reviews": 5, "place_id": "ChIJz1dVFm7vwIcRjiqCLfIpVjc", "latitude": 39.0558531, "longitude": -94.60903239999999, "subtypes": "Neurologist"}, {"name": "Zainab H AlAlawi, MD", "address": "10777 Nall Ave, Overland Park, KS 66211", "city": "Overland Park", "state": "Kansas", "state_code": "KS", "phone": "+1 913-588-1227", "website": "https://findadoctor.kansashealthsystem.com/provider/Zainab%2BH%2BAlAlawi/4859572%3Futm_source%3Dgmb%26utm_medium%3Dweb%26utm_term%3D%26utm_content%3D%26utm_campaign%3Dkyruus_brandify", "rating": "", "reviews": "", "place_id": "ChIJwxiDXCW9wIcRrcK3-0bAvtA", "latitude": 38.9331244, "longitude": -94.6481683, "subtypes": "Neurologist"}, {"name": "Peter Basta, MD", "address": "5340 College Blvd, Overland Park, KS 66211", "city": "Overland Park", "state": "Kansas", "state_code": "KS", "phone": "+1 816-942-0200", "website": "http://mymidwestphysician.com/location/neurosurgery-of-south-kansas-city-medical-group", "rating": 5, "reviews": 1, "place_id": "ChIJJ6I3TijqwIcREtProSFJU8Y", "latitude": 38.9288702, "longitude": -94.6469003, "subtypes": "Neurosurgeon"}, {"name": "Davis Justin R MD", "address": "5808 W 110th St, Leawood, KS 66211", "city": "Leawood", "state": "Kansas", "state_code": "KS", "phone": "+1 913-696-8000", "website": "http://www.childrensmercy.org/", "rating": "", "reviews": "", "place_id": "ChIJzeO37S7qwIcROWELbDcyjR8", "latitude": 38.9298785, "longitude": -94.6523746, "subtypes": "Neurosurgeon"}, {"name": "Dr. Tyler Allison", "address": "5808 W 110th St, Overland Park, KS 66211", "city": "Overland Park", "state": "Kansas", "state_code": "KS", "phone": "+1 816-234-3000", "website": "", "rating": "", "reviews": "", "place_id": "ChIJAQAA9C7qwIcRXAgMcJZFLYE", "latitude": 38.9297664, "longitude": -94.6527656, "subtypes": "Neurosurgeon"}, {"name": "SpineMed Specialists | Dodge City KS", "address": "112 W Ross Blvd # C, Dodge City, KS 67801", "city": "Dodge City", "state": "Kansas", "state_code": "KS", "phone": "+1 316-733-9393", "website": "https://www.spinemedspecialists.com/", "rating": 5, "reviews": 1, "place_id": "ChIJI82LRsYbp4cRY3emiRAXDao", "latitude": 37.7877881, "longitude": -100.0176042, "subtypes": "Neurosurgeon"}, {"name": "Dr. Malaz Almsaddi, MD", "address": "2020 Central Ave, Dodge City, KS 67801", "city": "Dodge City", "state": "Kansas", "state_code": "KS", "phone": "+1 620-227-1371", "website": "", "rating": "", "reviews": "", "place_id": "ChIJg0GeLKIbp4cRrg64DblCBk8", "latitude": 37.768687, "longitude": -100.0157775, "subtypes": "Neurologist"}, {"name": "Neurology Associates Of Kansas", "address": "551 N Hillside St Ste 350, Wichita, KS 67214", "city": "Wichita", "state": "Kansas", "state_code": "KS", "phone": "+1 316-682-5544", "website": "https://www.wesleycarephysicians.com/locations/neurology-associates-of-kansas%3Futm_campaign%3Dcorp_listings_mgmt%26utm_source%3Dgoogle%26utm_medium%3Dbusiness_listing", "rating": 4.5, "reviews": 70, "place_id": "ChIJAxK-0xHjuocRfXwxbz-ft34", "latitude": 37.6960741, "longitude": -97.2998764, "subtypes": "Neurologist"}, {"name": "Ascension Via Christi Multi-specialty Clinic - Neurology and Epileptology", "address": "848 N St Francis Ave #3949, Wichita, KS 67214", "city": "Wichita", "state": "Kansas", "state_code": "KS", "phone": "+1 316-268-8500", "website": "https://healthcare.ascension.org/locations/kansas/kswic/wichita-ascension-via-christi-st-francis/departments/medical-office-building/epilepsy-center%3Futm_campaign%3Dgmb%26utm_medium%3Dorganic-search%26utm_content%3Dlocation-listing%26utm_source%3Dlocal", "rating": 4.7, "reviews": 165, "place_id": "ChIJ0_xZs8njuocRmyqefvnXS3g", "latitude": 37.6985021, "longitude": -97.3313359, "subtypes": "Neurologist"}, {"name": "Dr. Mohammed Hussain", "address": "3243 E Murdock St Ste 104, Wichita, KS 67208", "city": "Wichita", "state": "Kansas", "state_code": "KS", "phone": "+1 316-682-5544", "website": "", "rating": 5, "reviews": 6, "place_id": "ChIJQ55t0RHjuocRLLFW4rh2XA0", "latitude": 37.6967486, "longitude": -97.2972022, "subtypes": "Neurologist"}, {"name": "Ricky W. Lee, MD", "address": "848 N St Francis Ave #3949, Wichita, KS 67214", "city": "Wichita", "state": "Kansas", "state_code": "KS", "phone": "+1 316-268-8500", "website": "https://healthcare.ascension.org/find-care/provider/1932357571/ricky-lee%3Futm_campaign%3Dgmb-website%26utm_medium%3Dorganic%26utm_source%3Dgoogle", "rating": 4.6, "reviews": 40, "place_id": "ChIJCTNpScjjuocR1QyaI9g76TY", "latitude": 37.6985021, "longitude": -97.3313359, "subtypes": "Neurologist"}, {"name": "Pedro W. Vivar Cruz, MD", "address": "848 N St Francis Ave #3949, Wichita, KS 67214", "city": "Wichita", "state": "Kansas", "state_code": "KS", "phone": "+1 316-268-8500", "website": "https://healthcare.ascension.org/find-care/provider/1891007746/pedro-vivar-cruz%3Futm_campaign%3Dgmb-website%26utm_medium%3Dorganic%26utm_source%3Dgoogle", "rating": 4.1, "reviews": 60, "place_id": "ChIJAa50bMjjuocRUroKo0y3vBo", "latitude": 37.6985021, "longitude": -97.3313359, "subtypes": "Neurologist"}, {"name": "Dr. Paul G. Genilo, M.D.", "address": "2135 Collective Ln, Wichita, KS 67206", "city": "Wichita", "state": "Kansas", "state_code": "KS", "phone": "+1 316-261-3220", "website": "http://neurologyconsultantsofkansas.com/team/paul-g-genilo/", "rating": 4, "reviews": 17, "place_id": "ChIJv2BXs8njuocReRN5gzLaPwA", "latitude": 37.721615, "longitude": -97.198008, "subtypes": "Neurologist"}, {"name": "Dr. Robert J. Murphy, M.D.", "address": "2135 N, 2135 Collective Ln, Wichita, KS 67206", "city": "Wichita", "state": "Kansas", "state_code": "KS", "phone": "+1 316-261-3220", "website": "http://neurologyconsultantsofkansas.com/team/robert-j-murphy/", "rating": 4.7, "reviews": 15, "place_id": "ChIJoXfoK8r9uocRNvXWrk8zaZs", "latitude": 37.7215021, "longitude": -97.19818, "subtypes": "Neurologist"}, {"name": "Dr. Eva L. Henry, MD", "address": "9390 E Central Ave, Wichita, KS 67206", "city": "Wichita", "state": "Kansas", "state_code": "KS", "phone": "+1 316-260-5001", "website": "http://www.agewellbraincenter.com/", "rating": 4, "reviews": 8, "place_id": "ChIJ1zFcQAH9uocRll_znPO7Y9w", "latitude": 37.6943747, "longitude": -97.227244, "subtypes": "Neurologist"}, {"name": "Dr. David R. Mayans, M.D.", "address": "2135 Collective Ln, Wichita, KS 67206", "city": "Wichita", "state": "Kansas", "state_code": "KS", "phone": "+1 316-261-3220", "website": "http://neurologyconsultantsofkansas.com/team/david-r-mayans/", "rating": 3.5, "reviews": 10, "place_id": "ChIJRzDu3cv9uocRngU8y1GDg2c", "latitude": 37.7215, "longitude": -97.1981843, "subtypes": "Neurologist"}, {"name": "Dr. Ty L. Schwertfeger, M.D.", "address": "2135 Collective Ln, Wichita, KS 67206", "city": "Wichita", "state": "Kansas", "state_code": "KS", "phone": "+1 316-261-3220", "website": "http://neurologyconsultantsofkansas.com/team/ty-l-schwertfeger/", "rating": 4.1, "reviews": 7, "place_id": "ChIJv2BXs8njuocRGKT8Yrifbp8", "latitude": 37.7214427, "longitude": -97.19828179999999, "subtypes": "Neurologist"}, {"name": "Deepthi Patnaik, MD", "address": "551 N Hillside St Ste 401, Wichita, KS 67214", "city": "Wichita", "state": "Kansas", "state_code": "KS", "phone": "+1 316-682-5544", "website": "https://www.wesleycarephysicians.com/locations/neurology-associates-of-kansas/physicians/profile/Dr-Deepthi-Patnaik-MD%3Futm_campaign%3Dcorp_listings_mgmt%26utm_source%3Dgoogle%26utm_medium%3Dbusiness_listing", "rating": 5, "reviews": 5, "place_id": "ChIJoYQ29UjjuocRqQuoD2K9opo", "latitude": 37.6960741, "longitude": -97.2998764, "subtypes": "Neurologist"}, {"name": "Ascension Via Christi Comprehensive Stroke Center", "address": "929 St Francis, Wichita, KS 67214", "city": "Wichita", "state": "Kansas", "state_code": "KS", "phone": "+1 316-268-7186", "website": "https://healthcare.ascension.org/locations/kansas/kswic/wichita-ascension-via-christi-st-francis/departments/stroke-center%3Futm_campaign%3Dgmb%26utm_medium%3Dorganic-search%26utm_content%3Dlocation-listing%26utm_source%3Dlocal", "rating": "", "reviews": "", "place_id": "ChIJawOaCZjjuocRTLJROvGnMjA", "latitude": 37.6994462, "longitude": -97.33227889999999, "subtypes": "Neurologist"}, {"name": "Dr. Bart A. Grelinger, M.D., FAAN", "address": "2135 Collective Ln, Wichita, KS 67206", "city": "Wichita", "state": "Kansas", "state_code": "KS", "phone": "+1 316-261-3220", "website": "http://neurologyconsultantsofkansas.com/team/bart-a-grelinger/", "rating": 4.2, "reviews": 5, "place_id": "ChIJoXfoK8r9uocRCyVKn6-pUfg", "latitude": 37.7215021, "longitude": -97.19818, "subtypes": "Neurologist"}, {"name": "Dr. Janice M. Mullinix, MD", "address": "848 St Francis #3901, Wichita, KS 67214", "city": "Wichita", "state": "Kansas", "state_code": "KS", "phone": "+1 316-268-8500", "website": "http://www.viachristiclinic.com/dr_bios/bios_display.php/janice_m_mullinix", "rating": 2.8, "reviews": 4, "place_id": "ChIJja9utxHjuocRyqihkzunFnY", "latitude": 37.7002804, "longitude": -97.3319301, "subtypes": "Neurologist"}, {"name": "Dr. Thomas Frimpong", "address": "825 N Hillside St STE 200, Wichita, KS 67214", "city": "Wichita", "state": "Kansas", "state_code": "KS", "phone": "+1 316-733-9393", "website": "http://www.spinemedspecialists.com/", "rating": 4.6, "reviews": 31, "place_id": "ChIJtZ5Lug_juocRTTii53cm0y4", "latitude": 37.6978268, "longitude": -97.2994495, "subtypes": "Neurosurgeon"}, {"name": "Haley N. Thoma, PA", "address": "1515 S Clifton Ave #400, Wichita, KS 67218", "city": "Wichita", "state": "Kansas", "state_code": "KS", "phone": "+1 316-274-1550", "website": "https://healthcare.ascension.org/find-care/provider/1497378087/haley-thoma%3Futm_campaign%3Dgmb-website%26utm_medium%3Dorganic%26utm_source%3Dgoogle", "rating": 5, "reviews": 3, "place_id": "ChIJu_jmXO3luocRrn6RIHX18eQ", "latitude": 37.6656548, "longitude": -97.29464709999999, "subtypes": "Neurologist"}, {"name": "James D. Weimar, MD, PhD", "address": "3223 N Webb Rd #1, Wichita, KS 67226", "city": "Wichita", "state": "Kansas", "state_code": "KS", "phone": "+1 316-609-2600", "website": "https://www.abayneurosciencecenter.com/physicians/james-d-weimar-md-phd/", "rating": 3.3, "reviews": 21, "place_id": "ChIJmZpfPnH9uocRasRgBbJR1A8", "latitude": 37.7427842, "longitude": -97.2285794, "subtypes": "Neurosurgeon"}, {"name": "Ascension Via Christi Outpatient Stroke Clinic", "address": "707 N Emporia Ave, Wichita, KS 67214", "city": "Wichita", "state": "Kansas", "state_code": "KS", "phone": "+1 316-858-3556", "website": "https://healthcare.ascension.org/locations/kansas/kswic/wichita-ascension-via-christi-family-medicine-and-specialty-clinic/Departments/stroke-clinic%3Futm_campaign%3Dgmb%26utm_medium%3Dorganic-search%26utm_content%3Dlocation-listing%26utm_source%3Dlocal", "rating": "", "reviews": "", "place_id": "ChIJ3y19w93juocRcEQQ36QdN1k", "latitude": 37.696797, "longitude": -97.3335328, "subtypes": "Neurologist"}, {"name": "Raymond W. Grundmeyer III, MD", "address": "3223 N Webb Rd Suite 1, Wichita, KS 67226", "city": "Wichita", "state": "Kansas", "state_code": "KS", "phone": "+1 316-609-2600", "website": "https://www.abayneurosciencecenter.com/physicians/raymond-w-grundmeyer-iii-md/", "rating": 4.3, "reviews": 42, "place_id": "ChIJmZpfPnH9uocRZ6uhhi-aLyk", "latitude": 37.7427785, "longitude": -97.2286288, "subtypes": "Neurosurgeon"}, {"name": "Matthew N. Henry, MD", "address": "3223 N Webb Rd Suite 1, Wichita, KS 67226", "city": "Wichita", "state": "Kansas", "state_code": "KS", "phone": "+1 316-609-2600", "website": "https://www.abayneurosciencecenter.com/physicians/matthew-n-henry-md/", "rating": 3.9, "reviews": 22, "place_id": "ChIJmZpfPnH9uocRUrKdo3gEfVI", "latitude": 37.7427842, "longitude": -97.2285794, "subtypes": "Neurosurgeon"}, {"name": "Vismay Thakkar", "address": "WESLEY MEDICAL CNTR, 550 N Hillside St, Wichita, KS 672144910", "city": "Wichita", "state": "Kansas", "state_code": "KS", "phone": "+1 316-962-2000", "website": "", "rating": 1, "reviews": 1, "place_id": "ChIJsbZUAQ7juocRBXyX8bmokWo", "latitude": 37.6947708, "longitude": -97.2979975, "subtypes": "Neurologist"}, {"name": "John R. Dickerson, MD", "address": "3223 N Webb Rd Suite 1, Wichita, KS 67226", "city": "Wichita", "state": "Kansas", "state_code": "KS", "phone": "+1 316-609-2600", "website": "https://www.abayneurosciencecenter.com/physicians/john-r-dickerson-md/", "rating": 4.1, "reviews": 27, "place_id": "ChIJmZpfPnH9uocRDgk9eAFzlkg", "latitude": 37.7427842, "longitude": -97.2285794, "subtypes": "Neurosurgeon"}, {"name": "Christian S. Lothes, MD", "address": "3223 N Webb Rd #1, Wichita, KS 67226", "city": "Wichita", "state": "Kansas", "state_code": "KS", "phone": "+1 316-609-2600", "website": "https://www.abayneurosciencecenter.com/physicians/christian-s-lothes-md/", "rating": 3.1, "reviews": 25, "place_id": "ChIJmZpfPnH9uocRObEwHwvJrwM", "latitude": 37.7427842, "longitude": -97.2285794, "subtypes": "Neurosurgeon"}, {"name": "Dr. Burtram J. Odenheimer, MD", "address": "3311 E Murdock St, Wichita, KS 67208", "city": "Wichita", "state": "Kansas", "state_code": "KS", "phone": "+1 316-689-9137", "website": "http://www.viachristiclinic.com/dr_bios/bios_display.php/burtram_j_odenheimer", "rating": "", "reviews": "", "place_id": "ChIJja9utxHjuocRYhioFjGeIGo", "latitude": 37.6967663, "longitude": -97.2963778, "subtypes": "Neurologist"}, {"name": "Asuta Health - Overland Park", "address": "6511 W 119th St, Overland Park, KS 66209", "city": "Overland Park", "state": "Kansas", "state_code": "KS", "phone": "+1 913-303-8029", "website": "https://asutahealth.org/", "rating": 4.9, "reviews": 303, "place_id": "ChIJu-gOnsnrwIcRiNBvr5yrtes", "latitude": 38.9117807, "longitude": -94.66067629999999, "subtypes": "Neurologist"}, {"name": "Samuel Lehman, MD", "address": "10550 Quivira Rd #530, Overland Park, KS 66215", "city": "Overland Park", "state": "Kansas", "state_code": "KS", "phone": "+1 913-599-3828", "website": "http://mymidwestphysician.com/location/overland-park-medical-specialists", "rating": 5, "reviews": 1, "place_id": "ChIJXyTFByvrwIcRj7wmcRRtgoA", "latitude": 38.9372, "longitude": -94.7254026, "subtypes": "Neurologist"}, {"name": "Kimberly Cochran, MD", "address": "8901 W 74th St #269, Overland Park, KS 66204", "city": "Overland Park", "state": "Kansas", "state_code": "KS", "phone": "+1 913-632-9810", "website": "", "rating": 4.4, "reviews": 7, "place_id": "ChIJG3B-HIrswIcR-67_IAOZG5o", "latitude": 38.9944437, "longitude": -94.6890561, "subtypes": "Neurologist"}, {"name": "Margaret M Logan, MD", "address": "10777 Nall Ave, Overland Park, KS 66211", "city": "Overland Park", "state": "Kansas", "state_code": "KS", "phone": "+1 913-588-1227", "website": "https://findadoctor.kansashealthsystem.com/provider/Margaret%2BM%2BLogan/3192666%3Futm_source%3Dgmb%26utm_medium%3Dweb%26utm_term%3D%26utm_content%3D%26utm_campaign%3Dkyruus_brandify", "rating": "", "reviews": "", "place_id": "ChIJUWJre8HvwIcRPEyCPiZTqA8", "latitude": 38.9331244, "longitude": -94.6481683, "subtypes": "Neurologist"}, {"name": "Dr. Karin Olds, MD", "address": "12330 Metcalf Ave # 400, Overland Park, KS 66213", "city": "Overland Park", "state": "Kansas", "state_code": "KS", "phone": "+1 913-317-7990", "website": "", "rating": 5, "reviews": 1, "place_id": "ChIJ4TNCeW3qwIcRn3RDUbXbuf0", "latitude": 38.9040647, "longitude": -94.66919159999999, "subtypes": "Neurologist"}, {"name": "Muhammad M Nashatizadeh, MD", "address": "4000 Cambridge St, Kansas City, KS 66160", "city": "Kansas City", "state": "Kansas", "state_code": "KS", "phone": "+1 913-588-1227", "website": "https://findadoctor.kansashealthsystem.com/provider/Muhammad%2BM%2BNashatizadeh/1220528%3Futm_source%3Dgmb%26utm_medium%3Dweb%26utm_term%3D%26utm_content%3D%26utm_campaign%3Dkyruus_brandify", "rating": 5, "reviews": 1, "place_id": "ChIJW15g6BLrwIcRIAI-nWhFhzM", "latitude": 39.056753, "longitude": -94.6088515, "subtypes": "Neurologist"}, {"name": "Robert Singer, MD", "address": "5340 College Blvd, Overland Park, KS 66211", "city": "Overland Park", "state": "Kansas", "state_code": "KS", "phone": "+1 816-942-0200", "website": "https://mymidwestphysician.com/physicians/profile/Dr-Robert-Singer-MD%3Futm_campaign%3Dcorp_listings_mgmt%26utm_source%3Dgoogle%26utm_medium%3Dbusiness_listing", "rating": 5, "reviews": 37, "place_id": "ChIJC4gxA3LrwIcRuN3YLBZFQ9U", "latitude": 38.9281923, "longitude": -94.64826219999999, "subtypes": "Neurosurgeon"}, {"name": "Jayson Neil, MD, FAANS, FCNS", "address": "7450 Kessler St Suite 202, Merriam, KS 66204", "city": "Merriam", "state": "Kansas", "state_code": "KS", "phone": "+1 913-632-9480", "website": "https://www.adventhealth.com/hospital/adventhealth-shawnee-mission/find-doctor/doctor/jayson-neil-md-faans-fcns-1194140483", "rating": 4.6, "reviews": 10, "place_id": "ChIJ6bPMPSvrwIcR4YDu2fO6jCQ", "latitude": 38.9935918, "longitude": -94.6940049, "subtypes": "Neurosurgeon"}, {"name": "Charles Harvey, MD", "address": "10550 Quivira Rd Suite 400, Overland Park, KS 66215", "city": "Overland Park", "state": "Kansas", "state_code": "KS", "phone": "+1 913-340-7980", "website": "https://mymidwestphysician.com/physicians/profile/Dr-Charles-Harvey-MD%3Futm_campaign%3Dcorp_listings_mgmt%26utm_source%3Dgoogle%26utm_medium%3Dbusiness_listing", "rating": 4.1, "reviews": 24, "place_id": "ChIJ3aZH3ajrwIcRSQOqQG6FYDk", "latitude": 38.9371721, "longitude": -94.7252468, "subtypes": "Neurosurgeon"}, {"name": "Anthony M Alvarado, MD", "address": "10730 Nall Ave Level 1, Suite 101, Overland Park, KS 66211", "city": "Overland Park", "state": "Kansas", "state_code": "KS", "phone": "+1 913-588-1227", "website": "https://findadoctor.kansashealthsystem.com/provider/Anthony%2BM%2BAlvarado/2617340%3Futm_source%3Dgmb%26utm_medium%3Dweb%26utm_term%3D%26utm_content%3D%26utm_campaign%3Dkyruus_brandify", "rating": 5, "reviews": 2, "place_id": "ChIJFWptzmvvwIcRqqKyq2AqlDo", "latitude": 38.9326616, "longitude": -94.65202459999999, "subtypes": "Neurosurgeon"}, {"name": "Alexander Eric Fong", "address": "Ahmg Hematology Oncology At Shawnee, 9301 W 74th St Suite 100, Merriam, KS 662042217", "city": "Merriam", "state": "Kansas", "state_code": "KS", "phone": "+1 913-632-9100", "website": "https://www.adventhealth.com/find-doctor/doctor/alexander-fong-md-1326201658", "rating": 5, "reviews": 1, "place_id": "ChIJpddcqo3swIcRvJ-Y2zfO7gA", "latitude": 38.9950258, "longitude": -94.6943335, "subtypes": "Neurologist"}, {"name": "Mazen M Dimachkie, MD", "address": "4350 Shawnee Mission Pkwy, Fairway, KS 66205", "city": "Fairway", "state": "Kansas", "state_code": "KS", "phone": "+1 913-588-1227", "website": "https://findadoctor.kansashealthsystem.com/provider/Mazen%2BM%2BDimachkie/1220870%3Futm_source%3Dgmb%26utm_medium%3Dweb%26utm_term%3D%26utm_content%3D%26utm_campaign%3Dkyruus_brandify", "rating": 5, "reviews": 2, "place_id": "ChIJL_SZ6dfxwIcRvGSZLt5OEUw", "latitude": 39.0279555, "longitude": -94.637379, "subtypes": "Neurologist"}, {"name": "Dr. Jeffrey M. Burns, MD", "address": "3599 Rainbow Blvd, Kansas City, KS 66103", "city": "Kansas City", "state": "Kansas", "state_code": "KS", "phone": "+1 913-588-5000", "website": "http://www.kumc.edu/", "rating": 4.4, "reviews": 7, "place_id": "ChIJL_SZ6dfxwIcRQg176Lm_QGs", "latitude": 39.0611487, "longitude": -94.6121553, "subtypes": "Neurologist"}, {"name": "Mamatha Pasnoor, MD", "address": "4350 Shawnee Mission Pkwy, Fairway, KS 66205", "city": "Fairway", "state": "Kansas", "state_code": "KS", "phone": "+1 913-588-1227", "website": "https://findadoctor.kansashealthsystem.com/provider/Mamatha%2BPasnoor/1220351%3Futm_source%3Dgmb%26utm_medium%3Dweb%26utm_term%3D%26utm_content%3D%26utm_campaign%3Dkyruus_brandify", "rating": 4.3, "reviews": 6, "place_id": "ChIJL_SZ6dfxwIcRHLK7JfZono8", "latitude": 39.0279555, "longitude": -94.637379, "subtypes": "Neurologist"}, {"name": "Paul O'Boynick, MD", "address": "7450 Kessler St Suite 202, Merriam, KS 66204", "city": "Merriam", "state": "Kansas", "state_code": "KS", "phone": "+1 913-632-9480", "website": "https://www.adventhealth.com/find-doctor/doctor/Paul-Oboynick-MD-1861454324", "rating": 4.6, "reviews": 38, "place_id": "ChIJpZ9pZozswIcRRbHK1qgAOm8", "latitude": 38.9935918, "longitude": -94.6940049, "subtypes": "Neurosurgeon"}, {"name": "Steven Hess, MD", "address": "7450 Kessler St Suite 202, Merriam, KS 66204", "city": "Merriam", "state": "Kansas", "state_code": "KS", "phone": "+1 913-632-9480", "website": "https://www.adventhealth.com/hospital/adventhealth-shawnee-mission/find-doctor/doctor/steven-hess-md-1902867096", "rating": 4.4, "reviews": 21, "place_id": "ChIJpZ9pZozswIcRFp0fS0Hetds", "latitude": 38.9935918, "longitude": -94.6940049, "subtypes": "Neurosurgeon"}, {"name": "Ryan A Townley, MD", "address": "4350 Shawnee Mission Pkwy, Fairway, KS 66205", "city": "Fairway", "state": "Kansas", "state_code": "KS", "phone": "+1 913-588-1227", "website": "https://findadoctor.kansashealthsystem.com/provider/Ryan%2BA%2BTownley/1220571%3Futm_source%3Dgmb%26utm_medium%3Dweb%26utm_term%3D%26utm_content%3D%26utm_campaign%3Dkyruus_brandify", "rating": 5, "reviews": 1, "place_id": "ChIJlchub0zvwIcRvjHTI8pq5uI", "latitude": 39.02804, "longitude": -94.6373673, "subtypes": "Neurologist"}, {"name": "Dr. Fernando M. Egea, MD", "address": "8015 Shawnee Mission Pkwy, Merriam, KS 66202", "city": "Merriam", "state": "Kansas", "state_code": "KS", "phone": "+1 913-789-7440", "website": "", "rating": 5, "reviews": 2, "place_id": "ChIJp3mMzEnswIcR2p9fajD8U4s", "latitude": 39.0148087, "longitude": -94.67964549999999, "subtypes": "Neurologist"}, {"name": "Amandeep Kalra, MD, FACP", "address": "9100 W 74th St, Merriam, KS 66204", "city": "Merriam", "state": "Kansas", "state_code": "KS", "phone": "+1 913-632-9100", "website": "https://www.adventhealth.com/hospital/adventhealth-shawnee-mission/find-doctor/doctor/amandeep-kalra-md-1659546240", "rating": "", "reviews": "", "place_id": "ChIJu1Aue83twIcRAH423YPT94E", "latitude": 38.9950444, "longitude": -94.69148919999999, "subtypes": "Neurologist"}, {"name": "Farhan A. Sheikh, MD", "address": "901 S Main St, Ottawa, KS 66067", "city": "Ottawa", "state": "Kansas", "state_code": "KS", "phone": "+1 785-242-4003", "website": "https://www.adventhealth.com/hospital/adventhealth-ottawa/neurology-and-neurosurgical-care", "rating": 3.8, "reviews": 20, "place_id": "ChIJCR8IrEpMv4cR1-K6WIqA_wI", "latitude": 38.6043362, "longitude": -95.26832859999999, "subtypes": "Neurologist"}, {"name": "James L Southwell, DO", "address": "20375 W 151st St, Olathe, KS 66061", "city": "Olathe", "state": "Kansas", "state_code": "KS", "phone": "+1 913-445-8262", "website": "https://findadoctor.kansashealthsystem.com/provider/James%2BL%2BSouthwell/1221245%3Futm_source%3Dgmb%26utm_medium%3Dweb%26utm_term%3D%26utm_content%3D%26utm_campaign%3Dkyruus_brandify", "rating": 4.7, "reviews": 10, "place_id": "ChIJL_SZ6dfxwIcRHwJdv3_pQjg", "latitude": 38.8523017, "longitude": -94.82338899999999, "subtypes": "Neurologist"}, {"name": "Natalie J Bartnik, DO", "address": "20375 W 151st St, Olathe, KS 66061", "city": "Olathe", "state": "Kansas", "state_code": "KS", "phone": "+1 913-445-8262", "website": "https://findadoctor.kansashealthsystem.com/provider/Natalie%2BJ%2BBartnik/5904717%3Futm_source%3Dgmb%26utm_medium%3Dweb%26utm_term%3D%26utm_content%3D%26utm_campaign%3Dkyruus_brandify", "rating": "", "reviews": "", "place_id": "ChIJu4zbklO9wIcRPtbnXXWxGsk", "latitude": 38.8523017, "longitude": -94.82338899999999, "subtypes": "Neurologist"}, {"name": "Neurosurgery Specialists: Striebinger C M MD", "address": "20375 W 151st St #205, Olathe, KS 66061", "city": "Olathe", "state": "Kansas", "state_code": "KS", "phone": "+1 913-553-2900", "website": "", "rating": 5, "reviews": 2, "place_id": "ChIJbarnjc69wIcRqe-Gyo4hNvo", "latitude": 38.8528779, "longitude": -94.8240201, "subtypes": "Neurosurgeon"}, {"name": "Jeffrey M Statland, MD", "address": "4350 Shawnee Mission Pkwy, Fairway, KS 66205", "city": "Fairway", "state": "Kansas", "state_code": "KS", "phone": "+1 913-588-1227", "website": "https://findadoctor.kansashealthsystem.com/provider/Jeffrey%2BM%2BStatland/1220629%3Futm_source%3Dgmb%26utm_medium%3Dweb%26utm_term%3D%26utm_content%3D%26utm_campaign%3Dkyruus_brandify", "rating": 1, "reviews": 1, "place_id": "ChIJ2UWku7fvwIcR94FjCu1p18w", "latitude": 39.0279555, "longitude": -94.637379, "subtypes": "Neurologist"}, {"name": "Long F Davalos Loo, MD", "address": "3599 Rainbow Blvd, Kansas City, KS 66103", "city": "Kansas City", "state": "Kansas", "state_code": "KS", "phone": "+1 913-588-1227", "website": "https://findadoctor.kansashealthsystem.com/provider/Long%2BF%2BDavalos%2520Loo/3103021%3Futm_source%3Dgmb%26utm_medium%3Dweb%26utm_term%3D%26utm_content%3D%26utm_campaign%3Dkyruus_brandify", "rating": 5, "reviews": 1, "place_id": "ChIJYWZ9RofvwIcRI4UD5Lv8cxE", "latitude": 39.0610576, "longitude": -94.61203139999999, "subtypes": "Neurologist"}, {"name": "Constantine Farmakidis, MD", "address": "4350 Shawnee Mission Pkwy, Fairway, KS 66205", "city": "Fairway", "state": "Kansas", "state_code": "KS", "phone": "+1 913-588-1227", "website": "https://findadoctor.kansashealthsystem.com/provider/Constantine%2BFarmakidis/1220505%3Futm_source%3Dgmb%26utm_medium%3Dweb%26utm_term%3D%26utm_content%3D%26utm_campaign%3Dkyruus_brandify", "rating": 5, "reviews": 1, "place_id": "ChIJYR7nsB3vwIcRLSMs--YWG7Y", "latitude": 39.0279555, "longitude": -94.637379, "subtypes": "Neurologist"}, {"name": "Jeffrey M Burns, MD", "address": "4350 Shawnee Mission Pkwy, Fairway, KS 66205", "city": "Fairway", "state": "Kansas", "state_code": "KS", "phone": "+1 913-588-1227", "website": "https://findadoctor.kansashealthsystem.com/provider/Jeffrey%2BM%2BBurns/1221050%3Futm_source%3Dgmb%26utm_medium%3Dweb%26utm_term%3D%26utm_content%3D%26utm_campaign%3Dkyruus_brandify", "rating": "", "reviews": "", "place_id": "ChIJWwj_YbTvwIcRXkZ-cf4Jtz8", "latitude": 39.02804, "longitude": -94.6373673, "subtypes": "Neurologist"}, {"name": "Russell H Swerdlow, MD", "address": "4350 Shawnee Mission Pkwy, Fairway, KS 66205", "city": "Fairway", "state": "Kansas", "state_code": "KS", "phone": "+1 913-588-1227", "website": "https://findadoctor.kansashealthsystem.com/provider/Russell%2BH%2BSwerdlow/1220550%3Futm_source%3Dgmb%26utm_medium%3Dweb%26utm_term%3D%26utm_content%3D%26utm_campaign%3Dkyruus_brandify", "rating": "", "reviews": "", "place_id": "ChIJ-7mMQzrvwIcRKLqCIvO1Q5E", "latitude": 39.02804, "longitude": -94.6373673, "subtypes": "Neurologist"}, {"name": "Ronald Fields,MD", "address": "7450 Kessler St Suite 205, Merriam, KS 66204", "city": "Merriam", "state": "Kansas", "state_code": "KS", "phone": "+1 913-632-9810", "website": "https://www.adventhealth.com/find-doctor/doctor/ronald-fields-md-1376675678", "rating": "", "reviews": "", "place_id": "ChIJIfEu50vtwIcRgCn6B3qaDkg", "latitude": 38.9935918, "longitude": -94.6940049, "subtypes": "Neurologist"}, {"name": "Sam Taylon, MD, FAANS", "address": "7450 Kessler St Suite 202, Merriam, KS 66204", "city": "Merriam", "state": "Kansas", "state_code": "KS", "phone": "+1 913-632-9480", "website": "https://www.adventhealth.com/hospital/adventhealth-shawnee-mission/find-doctor/doctor/sam-taylon-md-faans-1891923850", "rating": 4.5, "reviews": 11, "place_id": "ChIJMeFUZFrtwIcRtvYiJkii5jc", "latitude": 38.9935918, "longitude": -94.6940049, "subtypes": "Neurosurgeon"}, {"name": "Sharon G Lynch, MD", "address": "3599 Rainbow Blvd, Kansas City, KS 66103", "city": "Kansas City", "state": "Kansas", "state_code": "KS", "phone": "+1 913-588-1227", "website": "https://findadoctor.kansashealthsystem.com/provider/Sharon%2BG%2BLynch/1220188%3Futm_source%3Dgmb%26utm_medium%3Dweb%26utm_term%3D%26utm_content%3D%26utm_campaign%3Dkyruus_brandify", "rating": 3.2, "reviews": 23, "place_id": "ChIJL_SZ6dfxwIcR5c8ATp9flio", "latitude": 39.0611487, "longitude": -94.6121553, "subtypes": "Neurologist"}, {"name": "Caleb M Pearson, PsyD", "address": "4330 Shawnee Mission Pkwy Level 2, Suite 2180, Fairway, KS 66205", "city": "Fairway", "state": "Kansas", "state_code": "KS", "phone": "+1 913-588-1227", "website": "https://findadoctor.kansashealthsystem.com/provider/Caleb%2BM%2BPearson/1220165%3Futm_source%3Dgmb%26utm_medium%3Dweb%26utm_term%3D%26utm_content%3D%26utm_campaign%3Dkyruus_brandify", "rating": "", "reviews": "", "place_id": "ChIJ0_Av7MjvwIcRPXFKnILRCmY", "latitude": 39.0284206, "longitude": -94.63647449999999, "subtypes": "Neurologist"}, {"name": "Eric P Ecklund-Johnson, PhD", "address": "4330 Shawnee Mission Pkwy Level 2, Suite 2180, Fairway, KS 66205", "city": "Fairway", "state": "Kansas", "state_code": "KS", "phone": "+1 913-588-1227", "website": "https://findadoctor.kansashealthsystem.com/provider/Eric%2BP%2BEcklund-Johnson/1220689%3Futm_source%3Dgmb%26utm_medium%3Dweb%26utm_term%3D%26utm_content%3D%26utm_campaign%3Dkyruus_brandify", "rating": 5, "reviews": 1, "place_id": "ChIJ8azsIIHvwIcRF1atSIjvwZU", "latitude": 39.0284206, "longitude": -94.63647449999999, "subtypes": "Neurologist"}, {"name": "Satake Robert L MD", "address": "Shawnee Mission, 8800 W 75th St #100, Merriam, KS 66204", "city": "Merriam", "state": "Kansas", "state_code": "KS", "phone": "+1 913-384-4200", "website": "", "rating": "", "reviews": "", "place_id": "ChIJG3B-HIrswIcR2ny96g-IZxc", "latitude": 38.9934981, "longitude": -94.6882321, "subtypes": "Neurologist"}, {"name": "Ioan Stroescu, PhD", "address": "4330 Shawnee Mission Pkwy Level 2, Suite 2180, Fairway, KS 66205", "city": "Fairway", "state": "Kansas", "state_code": "KS", "phone": "+1 913-588-1227", "website": "https://findadoctor.kansashealthsystem.com/provider/Ioan%2BStroescu/1407814%3Futm_source%3Dgmb%26utm_medium%3Dweb%26utm_term%3D%26utm_content%3D%26utm_campaign%3Dkyruus_brandify", "rating": "", "reviews": "", "place_id": "ChIJwZOTQlTvwIcRnA0_KNABD3A", "latitude": 39.0284206, "longitude": -94.63647449999999, "subtypes": "Neurologist"}, {"name": "Jennifer A Liebenthal, MD", "address": "4350 Shawnee Mission Pkwy, Fairway, KS 66205", "city": "Fairway", "state": "Kansas", "state_code": "KS", "phone": "+1 913-588-1227", "website": "https://findadoctor.kansashealthsystem.com/provider/Jennifer%2BA%2BLiebenthal/1852460%3Futm_source%3Dgmb%26utm_medium%3Dweb%26utm_term%3D%26utm_content%3D%26utm_campaign%3Dkyruus_brandify", "rating": "", "reviews": "", "place_id": "ChIJ84hHH43vwIcRfNmwUpv8Fx0", "latitude": 39.028382, "longitude": -94.637475, "subtypes": "Neurologist"}, {"name": "SpineMed Specialists | Hutchinson KS", "address": "2100 N Waldron St, Hutchinson, KS 67502", "city": "Hutchinson", "state": "Kansas", "state_code": "KS", "phone": "+1 316-733-9393", "website": "https://www.spinemedspecialists.com/", "rating": 4.9, "reviews": 32, "place_id": "ChIJyeXwX9O3pIcR1DYwCCRMZbM", "latitude": 38.0769155, "longitude": -97.8939742, "subtypes": "Neurosurgeon"}, {"name": "Hutchinson Clinic: Dr. William M. Mallonee, MD", "address": "2201 Building,, 2101 N Waldron St, Hutchinson, KS 67502", "city": "Hutchinson", "state": "Kansas", "state_code": "KS", "phone": "+1 620-694-2060", "website": "http://www.hutchclinic.com/", "rating": 5, "reviews": 3, "place_id": "ChIJMQe5LEK2pIcRFLh1fwEqXZA", "latitude": 38.07720339999999, "longitude": -97.8954758, "subtypes": "Neurologist"}, {"name": "Dustin Harker", "address": "2101 N Waldron St, Hutchinson, KS 67502", "city": "Hutchinson", "state": "Kansas", "state_code": "KS", "phone": "+1 620-669-2500", "website": "", "rating": 5, "reviews": 1, "place_id": "ChIJq6paPEK2pIcRMuGNg39vgSY", "latitude": 38.078537, "longitude": -97.8955053, "subtypes": "Neurologist"}, {"name": "Dr. Rizwan Hassan", "address": "2101 N Waldron St, Hutchinson, KS 67502", "city": "Hutchinson", "state": "Kansas", "state_code": "KS", "phone": "+1 620-669-2500", "website": "", "rating": "", "reviews": "", "place_id": "ChIJq6paPEK2pIcRfcMOLBSU45Y", "latitude": 38.078537, "longitude": -97.8955053, "subtypes": "Neurologist"}, {"name": "Fariz Habib, MD", "address": "712 1st Terrace Suite 216, Lansing, KS 66043", "city": "Lansing", "state": "Kansas", "state_code": "KS", "phone": "+1 913-682-6200", "website": "https://www.patientfusion.com/doctor/fariz-habib-md-74536", "rating": 2.7, "reviews": 11, "place_id": "ChIJpcT68BB9wIcRYTWdmT2fJsQ", "latitude": 39.239475, "longitude": -94.89933599999999, "subtypes": "Neurologist"}, {"name": "Habib Fariz MD", "address": "920 6th Ave #202, Leavenworth, KS 66048", "city": "Leavenworth", "state": "Kansas", "state_code": "KS", "phone": "+1 913-682-6200", "website": "", "rating": 5, "reviews": 2, "place_id": "ChIJNYGS_GV7wIcRSwN-vPacYto", "latitude": 39.3097985, "longitude": -94.91971559999999, "subtypes": "Neurologist"}, {"name": "Dr. Roy R. Danks, Do", "address": "1001 6th Ave # 230, Leavenworth, KS 66048", "city": "Leavenworth", "state": "Kansas", "state_code": "KS", "phone": "+1 913-651-2163", "website": "", "rating": 5, "reviews": 2, "place_id": "ChIJbUP-bmZ7wIcRJFQ2ENHRLeI", "latitude": 39.3086875, "longitude": -94.918724, "subtypes": "Neurologist"}, {"name": "Dr. Ramachandran Venkatesh, MD", "address": "4101 S 4th St, Leavenworth, KS 66048", "city": "Leavenworth", "state": "Kansas", "state_code": "KS", "phone": "+1 913-682-2000", "website": "http://www.leavenworth.va.gov/", "rating": "", "reviews": "", "place_id": "ChIJL6gtntF8wIcRWMaVJgQGX4o", "latitude": 39.2798474, "longitude": -94.89429249999999, "subtypes": "Neurologist"}, {"name": "Dr. Wenifredo A. Lisondra, MD", "address": "4101 S 4th St, Leavenworth, KS 66048", "city": "Leavenworth", "state": "Kansas", "state_code": "KS", "phone": "+1 913-682-2000", "website": "http://www.leavenworth.va.gov/", "rating": "", "reviews": "", "place_id": "ChIJL6gtntF8wIcR9BpaYmlPHGU", "latitude": 39.2798474, "longitude": -94.89429249999999, "subtypes": "Neurologist"}, {"name": "Dr. K Paul Poulose, MD", "address": "4101 S 4th St, Leavenworth, KS 66048", "city": "Leavenworth", "state": "Kansas", "state_code": "KS", "phone": "+1 913-682-2000", "website": "http://www.leavenworth.va.gov/", "rating": "", "reviews": "", "place_id": "ChIJL6gtntF8wIcRtlt6P-R5Yig", "latitude": 39.2797604, "longitude": -94.8943288, "subtypes": "Neurologist"}, {"name": "Patrick X Landazuri, MD", "address": "4000 Cambridge St, Kansas City, KS 66160", "city": "Kansas City", "state": "Kansas", "state_code": "KS", "phone": "+1 913-588-1227", "website": "https://findadoctor.kansashealthsystem.com/provider/Patrick%2BX%2BLandazuri/1220526%3Futm_source%3Dgmb%26utm_medium%3Dweb%26utm_term%3D%26utm_content%3D%26utm_campaign%3Dkyruus_brandify", "rating": 5, "reviews": 5, "place_id": "ChIJZ6f2olXvwIcR5D2wuDbzVO0", "latitude": 39.0558531, "longitude": -94.60903239999999, "subtypes": "Neurologist"}, {"name": "Utku Uysal, MD", "address": "4000 Cambridge St, Kansas City, KS 66160", "city": "Kansas City", "state": "Kansas", "state_code": "KS", "phone": "+1 913-588-1227", "website": "https://findadoctor.kansashealthsystem.com/provider/Utku%2BUysal/1220258%3Futm_source%3Dgmb%26utm_medium%3Dweb%26utm_term%3D%26utm_content%3D%26utm_campaign%3Dkyruus_brandify", "rating": 5, "reviews": 2, "place_id": "ChIJD5WXbQrvwIcRtg4pvLQv86c", "latitude": 39.0558531, "longitude": -94.60903239999999, "subtypes": "Neurologist"}, {"name": "Michael A Rippee, MD", "address": "3599 Rainbow Blvd, Kansas City, KS 66103", "city": "Kansas City", "state": "Kansas", "state_code": "KS", "phone": "+1 913-588-1227", "website": "https://findadoctor.kansashealthsystem.com/provider/Michael%2BA%2BRippee/1220798%3Futm_source%3Dgmb%26utm_medium%3Dweb%26utm_term%3D%26utm_content%3D%26utm_campaign%3Dkyruus_brandify", "rating": 4, "reviews": 3, "place_id": "ChIJL_SZ6dfxwIcRmJd2pceBlE0", "latitude": 39.0611487, "longitude": -94.6121553, "subtypes": "Neurologist"}, {"name": "James Appelbaum, M.D.", "address": "8919 Parallel Pkwy Suite 440, Kansas City, KS 66112", "city": "Kansas City", "state": "Kansas", "state_code": "KS", "phone": "+1 913-596-7286", "website": "http://www.providencemedicalgroupkc.com/Find-a-Doctor/James-S-Appelbaum-M-D-.aspx", "rating": 2.8, "reviews": 20, "place_id": "ChIJTc2dxG2MwIcRmh3-BFf1r_4", "latitude": 39.1278409, "longitude": -94.7845676, "subtypes": "Neurologist"}, {"name": "Aditi Sharma, MD", "address": "3599 Rainbow Blvd, Kansas City, KS 66103", "city": "Kansas City", "state": "Kansas", "state_code": "KS", "phone": "+1 913-588-1227", "website": "https://findadoctor.kansashealthsystem.com/provider/Aditi%2BSharma/3049116%3Futm_source%3Dgmb%26utm_medium%3Dweb%26utm_term%3D%26utm_content%3D%26utm_campaign%3Dkyruus_brandify", "rating": 4.3, "reviews": 6, "place_id": "ChIJQ9fQpU7vwIcRa6v1ODwwimY", "latitude": 39.0610576, "longitude": -94.61203139999999, "subtypes": "Neurologist"}, {"name": "Andrew J Creed, MD", "address": "3599 Rainbow Blvd, Kansas City, KS 66103", "city": "Kansas City", "state": "Kansas", "state_code": "KS", "phone": "+1 913-588-1227", "website": "https://findadoctor.kansashealthsystem.com/provider/Andrew%2BJ%2BCreed/3103026%3Futm_source%3Dgmb%26utm_medium%3Dweb%26utm_term%3D%26utm_content%3D%26utm_campaign%3Dkyruus_brandify", "rating": 3, "reviews": 2, "place_id": "ChIJKVzoxvLvwIcRb6BNBmmLb_A", "latitude": 39.0610576, "longitude": -94.61203139999999, "subtypes": "Neurologist"}, {"name": "Haas Karen Do", "address": "3901 Rainbow Blvd g600, Kansas City, KS 66160", "city": "Kansas City", "state": "Kansas", "state_code": "KS", "phone": "+1 816-524-1700", "website": "http://mymidwestphysician.com/", "rating": 5, "reviews": 4, "place_id": "ChIJc-0WAy_uwIcRejtAKlZfyA8", "latitude": 39.0557467, "longitude": -94.6107407, "subtypes": "Neurologist"}, {"name": "Dr. Hassanain Toma, MD", "address": "3901 Rainbow Blvd, Kansas City, KS 66103", "city": "Kansas City", "state": "Kansas", "state_code": "KS", "phone": "+1 913-588-6970", "website": "http://www.kumc.edu/", "rating": 5, "reviews": 1, "place_id": "ChIJc-0WAy_uwIcRWbGSntuiens", "latitude": 39.056152, "longitude": -94.610626, "subtypes": "Neurologist"}, {"name": "Camarata Paul MD", "address": "3901 Rainbow Blvd, Kansas City, KS 66103", "city": "Kansas City", "state": "Kansas", "state_code": "KS", "phone": "+1 913-588-6122", "website": "https://findadoctor.kansashealthsystem.com/provider/Paul%2BJ%2BCamarata/1220812", "rating": 4.8, "reviews": 20, "place_id": "ChIJc-0WAy_uwIcRl_nb3rDDGAw", "latitude": 39.0560974, "longitude": -94.6101575, "subtypes": "Neurosurgeon"}, {"name": "Dr. Phillip D. Hylton, MD", "address": "3901 Rainbow Blvd, Kansas City, KS 66103", "city": "Kansas City", "state": "Kansas", "state_code": "KS", "phone": "+1 913-588-6122", "website": "https://www.kumc.edu/school-of-medicine/academics/departments/neurosurgery/academics/news/phillip_hylton_retires.html", "rating": 4.8, "reviews": 10, "place_id": "ChIJc-0WAy_uwIcRIRqABd-3nMs", "latitude": 39.0560974, "longitude": -94.6101575, "subtypes": "Neurosurgeon"}, {"name": "Brian D Milligan, MD", "address": "3825 Cambridge St, Kansas City, KS 66103", "city": "Kansas City", "state": "Kansas", "state_code": "KS", "phone": "+1 913-588-1227", "website": "https://findadoctor.kansashealthsystem.com/provider/Brian%2BD%2BMilligan/1425791%3Futm_source%3Dgmb%26utm_medium%3Dweb%26utm_term%3D%26utm_content%3D%26utm_campaign%3Dkyruus_brandify", "rating": 4.9, "reviews": 15, "place_id": "ChIJWaLr06XvwIcRn3ICzBFWnwY", "latitude": 39.0582205, "longitude": -94.60775609999999, "subtypes": "Neurosurgeon"}, {"name": "Dr. Dipika Aggarwal, MD", "address": "3901 Rainbow Blvd, Kansas City, KS 66103", "city": "Kansas City", "state": "Kansas", "state_code": "KS", "phone": "+1 913-588-6970", "website": "http://www.kumc.edu/", "rating": 3.7, "reviews": 3, "place_id": "ChIJc-0WAy_uwIcRPjhGUkqpb3s", "latitude": 39.0560974, "longitude": -94.6101575, "subtypes": "Neurologist"}, {"name": "Sabreena J Slavin, MD", "address": "4000 Cambridge St, Kansas City, KS 66160", "city": "Kansas City", "state": "Kansas", "state_code": "KS", "phone": "+1 913-588-1227", "website": "https://findadoctor.kansashealthsystem.com/provider/Sabreena%2BJ%2BSlavin/1221258%3Futm_source%3Dgmb%26utm_medium%3Dweb%26utm_term%3D%26utm_content%3D%26utm_campaign%3Dkyruus_brandify", "rating": 5, "reviews": 3, "place_id": "ChIJ4SPrAt3vwIcRPnyW1bMhE10", "latitude": 39.0563845, "longitude": -94.6085848, "subtypes": "Neurologist"}, {"name": "Vishal B Shah, MD", "address": "4000 Cambridge St, Kansas City, KS 66160", "city": "Kansas City", "state": "Kansas", "state_code": "KS", "phone": "+1 913-588-1227", "website": "https://findadoctor.kansashealthsystem.com/provider/Vishal%2BB%2BShah/1284197%3Futm_source%3Dgmb%26utm_medium%3Dweb%26utm_term%3D%26utm_content%3D%26utm_campaign%3Dkyruus_brandify", "rating": 4.2, "reviews": 5, "place_id": "ChIJVXoNu-XrwIcR6DFLwKFGdUA", "latitude": 39.0558531, "longitude": -94.60903239999999, "subtypes": "Neurologist"}, {"name": "Roukoz Chamoun, MD", "address": "3901 Rainbow Blvd, Kansas City, KS 66160", "city": "Kansas City", "state": "Kansas", "state_code": "KS", "phone": "+1 913-588-6122", "website": "https://www.kumc.edu/rchamoun.html", "rating": 5, "reviews": 10, "place_id": "ChIJ48x1Di_vwIcRATnLDEVuoWw", "latitude": 39.056934, "longitude": -94.6111754, "subtypes": "Neurosurgeon"}, {"name": "Mary Suzanne Stevens, MD", "address": "4000 Cambridge St, Kansas City, KS 66160", "city": "Kansas City", "state": "Kansas", "state_code": "KS", "phone": "+1 913-588-1227", "website": "https://findadoctor.kansashealthsystem.com/provider/Mary%2BSuzanne%2BStevens/1220111%3Futm_source%3Dgmb%26utm_medium%3Dweb%26utm_term%3D%26utm_content%3D%26utm_campaign%3Dkyruus_brandify", "rating": 4.5, "reviews": 8, "place_id": "ChIJOzFQqHvuwIcRUsp7ovJ0nyQ", "latitude": 39.0558531, "longitude": -94.60903239999999, "subtypes": "Neurologist"}, {"name": "Jorge F Kawano-Castillo, MD", "address": "3599 Rainbow Blvd, Kansas City, KS 66103", "city": "Kansas City", "state": "Kansas", "state_code": "KS", "phone": "+1 913-588-1227", "website": "https://findadoctor.kansashealthsystem.com/provider/Jorge%2BF%2BKawano-Castillo/1220849%3Futm_source%3Dgmb%26utm_medium%3Dweb%26utm_term%3D%26utm_content%3D%26utm_campaign%3Dkyruus_brandify", "rating": 1, "reviews": 1, "place_id": "ChIJL9n2dKfvwIcRpOXdRtbKR5c", "latitude": 39.0611487, "longitude": -94.6121553, "subtypes": "Neurologist"}, {"name": "Dr. April L. Mcvey, MD", "address": "3599 Rainbow Blvd, Kansas City, KS 66103", "city": "Kansas City", "state": "Kansas", "state_code": "KS", "phone": "+1 913-588-5000", "website": "http://www.kumc.edu/", "rating": 2, "reviews": 1, "place_id": "ChIJL_SZ6dfxwIcR6Y12SYwlnOk", "latitude": 39.0611487, "longitude": -94.6121553, "subtypes": "Neurologist"}, {"name": "Arthur R. Dick, M.D.", "address": "3599 Rainbow Blvd, Kansas City, KS 66160", "city": "Kansas City", "state": "Kansas", "state_code": "KS", "phone": "+1 913-588-6820", "website": "http://www.kumc.edu/", "rating": "", "reviews": "", "place_id": "ChIJL_SZ6dfxwIcRYa6aUyy7L0A", "latitude": 39.0611487, "longitude": -94.6121553, "subtypes": "Neurologist"}, {"name": "Gloria V Lopez Cardenas, MD", "address": "3599 Rainbow Blvd, Kansas City, KS 66103", "city": "Kansas City", "state": "Kansas", "state_code": "KS", "phone": "+1 913-588-1227", "website": "https://findadoctor.kansashealthsystem.com/provider/Gloria%2BV%2BLopez%2520Cardenas/3095676%3Futm_source%3Dgmb%26utm_medium%3Dweb%26utm_term%3D%26utm_content%3D%26utm_campaign%3Dkyruus_brandify", "rating": 5, "reviews": 2, "place_id": "ChIJYyf0J9zvwIcRrIajmHh-LtU", "latitude": 39.0610576, "longitude": -94.61203139999999, "subtypes": "Neurologist"}, {"name": "Ebersole Koji C MD", "address": "3901 Rainbow Blvd, Kansas City, KS 66103", "city": "Kansas City", "state": "Kansas", "state_code": "KS", "phone": "+1 913-588-6381", "website": "http://www.kumc.edu/", "rating": 5, "reviews": 7, "place_id": "ChIJc-0WAy_uwIcR9utPFghsiDI", "latitude": 39.05432589999999, "longitude": -94.60986079999999, "subtypes": "Neurosurgeon"}, {"name": "Deepa B Patel, MD", "address": "3599 Rainbow Blvd, Kansas City, KS 66103", "city": "Kansas City", "state": "Kansas", "state_code": "KS", "phone": "+1 913-588-1227", "website": "https://findadoctor.kansashealthsystem.com/provider/Deepa%2BB%2BPatel/6732655", "rating": "", "reviews": "", "place_id": "ChIJrRCT8NLvwIcRb2pRMc6u0K4", "latitude": 39.0610576, "longitude": -94.61203139999999, "subtypes": "Neurologist"}, {"name": "Dr. Crystal R Macaluso", "address": "3901 Rainbow Blvd, Kansas City, KS 66103", "city": "Kansas City", "state": "Kansas", "state_code": "KS", "phone": "+1 913-588-6970", "website": "http://www.kumc.edu/", "rating": "", "reviews": "", "place_id": "ChIJGRlrAy_uwIcRJhsXFSNnjuo", "latitude": 39.0561965, "longitude": -94.6114087, "subtypes": "Neurologist"}, {"name": "Liebenthal Jennifer A MD", "address": "3599 Rainbow Blvd, Kansas City, KS 66160", "city": "Kansas City", "state": "Kansas", "state_code": "KS", "phone": "+1 913-588-0970", "website": "http://www.kumc.edu/", "rating": 3.7, "reviews": 3, "place_id": "ChIJc-0WAy_uwIcRjbwIChkG9kU", "latitude": 39.0610576, "longitude": -94.61203139999999, "subtypes": "Neurologist"}, {"name": "Joseph S Domino, MD", "address": "3825 Cambridge St, Kansas City, KS 66103", "city": "Kansas City", "state": "Kansas", "state_code": "KS", "phone": "+1 913-588-1227", "website": "https://findadoctor.kansashealthsystem.com/provider/Joseph%2BS%2BDomino/3103782%3Futm_source%3Dgmb%26utm_medium%3Dweb%26utm_term%3D%26utm_content%3D%26utm_campaign%3Dkyruus_brandify", "rating": 5, "reviews": 1, "place_id": "ChIJu-qgJ2nvwIcRgCxPLxCS25E", "latitude": 39.0582205, "longitude": -94.60775609999999, "subtypes": "Neurosurgeon"}, {"name": "Yunxia Wang, MD", "address": "4000 Cambridge St, Kansas City, KS 66160", "city": "Kansas City", "state": "Kansas", "state_code": "KS", "phone": "+1 913-588-1227", "website": "https://findadoctor.kansashealthsystem.com/provider/Yunxia%2BWang/1220180%3Futm_source%3Dgmb%26utm_medium%3Dweb%26utm_term%3D%26utm_content%3D%26utm_campaign%3Dkyruus_brandify", "rating": "", "reviews": "", "place_id": "ChIJL_SZ6dfxwIcRbVvvBYE5mlg", "latitude": 39.0563845, "longitude": -94.6085848, "subtypes": "Neurologist"}, {"name": "Richard J Barohn, MD", "address": "3599 Rainbow Blvd, Kansas City, KS 66103", "city": "Kansas City", "state": "Kansas", "state_code": "KS", "phone": "+1 573-882-1515", "website": "https://www.muhealth.org/doctors/richard-barohn-md", "rating": 5, "reviews": 1, "place_id": "ChIJL_SZ6dfxwIcRm6USQm8KgOA", "latitude": 39.0611487, "longitude": -94.6121553, "subtypes": "Neurologist"}, {"name": "Osorio Ivan MD", "address": "3901 Rainbow Blvd, Kansas City, KS 66160", "city": "Kansas City", "state": "Kansas", "state_code": "KS", "phone": "+1 913-588-4580", "website": "", "rating": "", "reviews": "", "place_id": "ChIJc-0WAy_uwIcRrRYICcO3bwk", "latitude": 39.0561921, "longitude": -94.6114044, "subtypes": "Neurologist"},