[{"name": "Norton Neuroscience Institute - Neurology - St. Matthews", "address": "3991 Dutchmans Ln Suite 310, Louisville, KY 40207", "city": "Louisville", "state": "Kentucky", "state_code": "KY", "phone": "+1 502-583-1697", "website": "https://nortonhealthcare.com/location/loc0000192112%3Futm_source%3Dthird-party%26utm_medium%3Dlistings%26utm_campaign%3Dnni-dtc%26utm_content%3Dlocation-page", "rating": 4, "reviews": 20, "place_id": "ChIJNaO2WM0KaYgRT3ocymeqctc", "latitude": 38.2352791, "longitude": -85.63332609999999, "subtypes": "Neurologist"}, {"name": "Eme O. Igbokwe, M.D.", "address": "350 Park St #206, Bowling Green, KY 42101", "city": "Bowling Green", "state": "Kentucky", "state_code": "KY", "phone": "+1 270-782-9424", "website": "http://gravesgilbert.com/physicians/eme-igbokwe-m-d/", "rating": 3.9, "reviews": 37, "place_id": "ChIJczf140_vZYgR1E22gT1FiOM", "latitude": 36.9949866, "longitude": -86.4314811, "subtypes": "Neurologist"}, {"name": "Medical Center Neuroscience Services", "address": "Riverside Professional Center, 825 E 2nd Ave STE B2, Bowling Green, KY 42101", "city": "Bowling Green", "state": "Kentucky", "state_code": "KY", "phone": "+1 270-780-2660", "website": "https://medcenterhealth.org/location/neuroscience-services/", "rating": 3.7, "reviews": 15, "place_id": "ChIJ61PrPFDvZYgR8tYvG0CZBbM", "latitude": 36.9949505, "longitude": -86.4282999, "subtypes": "Neurologist"}, {"name": "Xue Yang, M.D.", "address": "350 Park St Suite 206-A, Bowling Green, KY 42101", "city": "Bowling Green", "state": "Kentucky", "state_code": "KY", "phone": "+1 270-782-9424", "website": "https://www.gravesgilbert.com/physicians/xue-yang-md/", "rating": 2.3, "reviews": 16, "place_id": "ChIJO730MgDvZYgR8A85L3IWNAU", "latitude": 36.9950453, "longitude": -86.43146279999999, "subtypes": "Neurologist"}, {"name": "Haroon Majoka, M.D.", "address": "350 Park St #206, Bowling Green, KY 42101", "city": "Bowling Green", "state": "Kentucky", "state_code": "KY", "phone": "+1 270-782-9424", "website": "https://www.gravesgilbert.com/physicians/haroon-majoka-md/", "rating": 3.8, "reviews": 10, "place_id": "ChIJ0Vf27ebvZYgRFPbnul86ZT0", "latitude": 36.9950453, "longitude": -86.43146279999999, "subtypes": "Neurologist"}, {"name": "Jae Lee, M.D.", "address": "350 Park St #206, Bowling Green, KY 42101", "city": "Bowling Green", "state": "Kentucky", "state_code": "KY", "phone": "+1 270-782-9424", "website": "https://www.gravesgilbert.com/physicians/jae-lee-md/", "rating": 4.4, "reviews": 14, "place_id": "ChIJf2jck2zvZYgRpk-dzAhSnUg", "latitude": 36.9950453, "longitude": -86.43146279999999, "subtypes": "Neurologist"}, {"name": "Jianhua Zhu, M.D., Ph.D.", "address": "350 Park St #206, Bowling Green, KY 42101", "city": "Bowling Green", "state": "Kentucky", "state_code": "KY", "phone": "+1 270-782-9424", "website": "http://gravesgilbert.com/%3Fs%3Dzhu%26post_type%255B%255D%3Dphysicians%26post_type%255B%255D%3Dnurses", "rating": 3, "reviews": 25, "place_id": "ChIJczf140_vZYgR8vmDLG2wfsc", "latitude": 36.9950453, "longitude": -86.43146279999999, "subtypes": "Neurologist"}, {"name": "Wesley H. Chou, M.D.", "address": "350 Park St #206, Bowling Green, KY 42101", "city": "Bowling Green", "state": "Kentucky", "state_code": "KY", "phone": "+1 270-782-9424", "website": "http://gravesgilbert.com/physicians/wesley-h-chou-m-d/", "rating": 1.8, "reviews": 45, "place_id": "ChIJczf140_vZYgRm_5m4OVjJgE", "latitude": 36.9950453, "longitude": -86.43146279999999, "subtypes": "Neurologist"}, {"name": "Jianhua Zhu, Ph.D", "address": "201 Park St, Bowling Green, KY 42101", "city": "Bowling Green", "state": "Kentucky", "state_code": "KY", "phone": "+1 270-783-3310", "website": "http://gravesgilbert.com/physicians/physiciansjianhua-zhu-m-d-ph-d/", "rating": 4.3, "reviews": 11, "place_id": "ChIJY5t-njLvZYgR0XfEyw6tets", "latitude": 36.9968076, "longitude": -86.4302295, "subtypes": "Neurologist"}, {"name": "Howell Allen Clinic with Ascension Saint Thomas Bowling Green", "address": "542 Three Springs Rd, Bowling Green, KY 42104", "city": "Bowling Green", "state": "Kentucky", "state_code": "KY", "phone": "+1 615-327-9543", "website": "https://healthcare.ascension.org/locations/kentucky/tnnas/bowling-green-howell-allen-clinic-with-ascension-saint-thomas-bowling-green%3Futm_campaign%3Dgmb%26utm_medium%3Dorganic-search%26utm_content%3Dlocation-listing%26utm_source%3Dlocal", "rating": 4.5, "reviews": 2, "place_id": "ChIJEcgkRWgzZYgRIjZxr1e4r4Q", "latitude": 36.9338537, "longitude": -86.4205341, "subtypes": "Neurosurgeon"}, {"name": "Norton Children's Neuroscience Institute - Bowling Green", "address": "720 E 2nd Ave Suite 102, Bowling Green, KY 42101", "city": "Bowling Green", "state": "Kentucky", "state_code": "KY", "phone": "+1 502-588-3650", "website": "https://nortonchildrens.com/location/loc0000191891%3Futm_source%3Dthird-party%26utm_medium%3Dlistings%26utm_campaign%3Dncni-dtc%26utm_content%3Dlocation-page", "rating": "", "reviews": "", "place_id": "ChIJWe2ow0XvZYgRZUzoldPZt0s", "latitude": 36.9965028, "longitude": -86.428527, "subtypes": "Pediatric neurologist"}, {"name": "Dr. Garima Agrawal", "address": "1221 Ashley Cir, Bowling Green, KY 42104", "city": "Bowling Green", "state": "Kentucky", "state_code": "KY", "phone": "+1 270-782-9424", "website": "", "rating": "", "reviews": "", "place_id": "ChIJq6r6Ib_oZYgRLocxUbPvxb4", "latitude": 36.9693346, "longitude": -86.4367132, "subtypes": "Neurologist"}, {"name": "Nathoo Narendra MD", "address": "825 E 2nd Ave STE B2, Bowling Green, KY 42101", "city": "Bowling Green", "state": "Kentucky", "state_code": "KY", "phone": "+1 270-780-2660", "website": "https://medcenterhealth.org/person/narendra-nathoo-md/", "rating": 3.8, "reviews": 38, "place_id": "ChIJs1PrPFDvZYgRRPOwc89tzxI", "latitude": 36.9950838, "longitude": -86.4283401, "subtypes": "Neurosurgeon"}, {"name": "Dr. Dennis O'keefe", "address": "1221 Ashley Cir, Bowling Green, KY 42104", "city": "Bowling Green", "state": "Kentucky", "state_code": "KY", "phone": "+1 270-782-9424", "website": "", "rating": "", "reviews": "", "place_id": "ChIJq6r6Ib_oZYgR91KOTrVJrUI", "latitude": 36.9693346, "longitude": -86.4367132, "subtypes": "Neurologist"}, {"name": "Oran S. Aaronson, MD", "address": "542 Three Springs Rd, Bowling Green, KY 42104", "city": "Bowling Green", "state": "Kentucky", "state_code": "KY", "phone": "+1 615-327-9543", "website": "https://www.howellallen.com/physicians/aaronson/", "rating": 5, "reviews": 7, "place_id": "ChIJ6_jL9O7pZYgR5QYKc3hMk8g", "latitude": 36.9338537, "longitude": -86.4205341, "subtypes": "Neurosurgeon"}, {"name": "Dr. William A. Schwank, MD", "address": "165 Natchez Trace Ave, Bowling Green, KY 42103", "city": "Bowling Green", "state": "Kentucky", "state_code": "KY", "phone": "+1 270-782-7800", "website": "http://www.wkona.net/", "rating": 3.5, "reviews": 2, "place_id": "ChIJE0t4c5boZYgRPVf_dsMPSGc", "latitude": 36.9673752, "longitude": -86.401034, "subtypes": "Neurosurgeon"}, {"name": "Gregory Barnes, MD", "address": "720 E 2nd Ave Suite 102, Bowling Green, KY 42101", "city": "Bowling Green", "state": "Kentucky", "state_code": "KY", "phone": "+1 502-588-3650", "website": "", "rating": "", "reviews": "", "place_id": "ChIJrTKyiafvZYgRsXPZg5-9uKk", "latitude": 36.996483, "longitude": -86.42855449999999, "subtypes": "Pediatric neurologist"}, {"name": "Jaswinder Singh, M.D.", "address": "201 Park St, Bowling Green, KY 42101", "city": "Bowling Green", "state": "Kentucky", "state_code": "KY", "phone": "+1 270-783-3315", "website": "", "rating": 1, "reviews": 1, "place_id": "ChIJC3DljE_vZYgRqFd12gYr3TU", "latitude": 36.9968076, "longitude": -86.4302295, "subtypes": "Neurologist"}, {"name": "Todd Shanks, M.D.", "address": "165 Natchez Trace Ave #100, Bowling Green, KY 42101", "city": "Bowling Green", "state": "Kentucky", "state_code": "KY", "phone": "+1 270-782-7800", "website": "", "rating": 3.2, "reviews": 5, "place_id": "ChIJQ6yrVRTmZYgR7FZKTGC131E", "latitude": 36.9670694, "longitude": -86.401158, "subtypes": "Neurosurgeon"}, {"name": "Jessica D Hatfield, APRN", "address": "720 E 2nd Ave Suite 102, Bowling Green, KY 42101", "city": "Bowling Green", "state": "Kentucky", "state_code": "KY", "phone": "+1 502-588-3650", "website": "https://providers.nortonchildrens.com/provider/Jessica%2BD%2BHatfield/475997%3Futm_source%3Dthird-party%26utm_medium%3Dlistings%26utm_campaign%3Dncni-dtc%26utm_content%3Dprovider-profile", "rating": "", "reviews": "", "place_id": "ChIJ_fIN4ofvZYgRyNZKHo8CyBk", "latitude": 36.996483, "longitude": -86.42855449999999, "subtypes": "Pediatric neurologist"}, {"name": "Hernandez Raul MD", "address": "1801 Ashley Cir, Bowling Green, KY 42104", "city": "Bowling Green", "state": "Kentucky", "state_code": "KY", "phone": "+1 270-793-1000", "website": "", "rating": "", "reviews": "", "place_id": "ChIJgdu0tr_oZYgRu-gZ7621qIs", "latitude": 36.9669207, "longitude": -86.4369127, "subtypes": "Neurologist"}, {"name": "Darren Farber, DO", "address": "720 E 2nd Ave Suite 102, Bowling Green, KY 42101", "city": "Bowling Green", "state": "Kentucky", "state_code": "KY", "phone": "+1 502-588-3650", "website": "", "rating": "", "reviews": "", "place_id": "ChIJe_59wjfvZYgRCNeZ_uQbTNY", "latitude": 36.996483, "longitude": -86.42855449999999, "subtypes": "Pediatric neurologist"}, {"name": "Christopher R Barton, MD", "address": "720 E 2nd Ave Suite 102, Bowling Green, KY 42101", "city": "Bowling Green", "state": "Kentucky", "state_code": "KY", "phone": "+1 502-588-3650", "website": "https://providers.nortonchildrens.com/provider/Christopher%2BR%2BBarton/467337%3Futm_source%3Dthird-party%26utm_medium%3Dlistings%26utm_campaign%3Dncni-dtc%26utm_content%3Dprovider-profile", "rating": "", "reviews": "", "place_id": "ChIJBSbcamzvZYgRGE2t9vaOYdM", "latitude": 36.996483, "longitude": -86.42855449999999, "subtypes": "Pediatric neurologist"}, {"name": "Erika B Chandler, MD", "address": "720 E 2nd Ave, Bowling Green, KY 42101", "city": "Bowling Green", "state": "Kentucky", "state_code": "KY", "phone": "+1 502-588-3650", "website": "https://providers.nortonchildrens.com/provider/Erika%2BB%2BChandler/1048165%3Futm_source%3Dthird-party%26utm_medium%3Dlistings%26utm_campaign%3Dncni-dtc%26utm_content%3Dprovider-profile", "rating": "", "reviews": "", "place_id": "ChIJz1Id3DfvZYgRrxbCUfPA08s", "latitude": 36.9964773, "longitude": -86.4285721, "subtypes": "Pediatric neurologist"}, {"name": "Arpita Lakhotia, MD", "address": "720 E 2nd Ave, Bowling Green, KY 42101", "city": "Bowling Green", "state": "Kentucky", "state_code": "KY", "phone": "+1 502-588-3650", "website": "https://providers.nortonchildrens.com/provider/Arpita%2BLakhotia/496411%3Futm_source%3Dthird-party%26utm_medium%3Dlistings%26utm_campaign%3Dncni-dtc%26utm_content%3Dprovider-profile", "rating": "", "reviews": "", "place_id": "ChIJpzwVVOHvZYgRgiCvE0-Vv5k", "latitude": 36.9965146, "longitude": -86.4285888, "subtypes": "Pediatric neurologist"}, {"name": "Angela M Bishop, APRN", "address": "720 E 2nd Ave Suite 102, Bowling Green, KY 42101", "city": "Bowling Green", "state": "Kentucky", "state_code": "KY", "phone": "+1 502-588-3650", "website": "https://providers.nortonchildrens.com/provider/Angela%2BM%2BBishop/484471%3Futm_source%3Dthird-party%26utm_medium%3Dlistings%26utm_campaign%3Dncni-dtc%26utm_content%3Dprovider-profile", "rating": "", "reviews": "", "place_id": "ChIJ8yMopAnvZYgRA-palBpu8n4", "latitude": 36.996483, "longitude": -86.42855449999999, "subtypes": "Pediatric neurologist"}, {"name": "Nessa Timoney", "address": "250 Park St, Bowling Green, KY 42101", "city": "Bowling Green", "state": "Kentucky", "state_code": "KY", "phone": "+1 270-796-6540", "website": "", "rating": 2, "reviews": 1, "place_id": "ChIJq6qqwU_vZYgRfIc8AbXO2QA", "latitude": 36.9957546, "longitude": -86.4299604, "subtypes": "Neurosurgeon"}, {"name": "Siddharth V Jain, MD", "address": "720 E 2nd Ave Suite 102, Bowling Green, KY 42101", "city": "Bowling Green", "state": "Kentucky", "state_code": "KY", "phone": "+1 502-588-3650", "website": "https://providers.nortonchildrens.com/provider/Siddharth%2BV%2BJain/2467011%3Futm_source%3Dthird-party%26utm_medium%3Dlistings%26utm_campaign%3Dncni-dtc%26utm_content%3Dprovider-profile", "rating": "", "reviews": "", "place_id": "ChIJRTL_xDLvZYgRRCzS0cCOiak", "latitude": 36.996483, "longitude": -86.42855449999999, "subtypes": "Pediatric neurologist"}, {"name": "James L. Lamb, MD", "address": "1301 Pleasant Valley Rd Suite 300, Owensboro, KY 42303", "city": "Owensboro", "state": "Kentucky", "state_code": "KY", "phone": "+1 270-417-7830", "website": "https://www.owensborohealth.org/find-doctor/basic-profile/james-lamb%3Futm_source%3Dlocal-listing%26utm_medium%3Dorganic%26utm_campaign%3Dwebsite-link", "rating": 4.6, "reviews": 9, "place_id": "ChIJW2WnGq6xb4gRvThjFOGl2Ig", "latitude": 37.7781835, "longitude": -87.0641747, "subtypes": "Neurologist"}, {"name": "Jeanie McCormack, DO", "address": "1301 Pleasant Valley Rd Suite 300, Owensboro, KY 42303", "city": "Owensboro", "state": "Kentucky", "state_code": "KY", "phone": "+1 270-417-7830", "website": "https://www.owensborohealth.org/find-doctor/basic-profile/jeanie-mccormack/%3Futm_source%3Dlocal-listing%26utm_medium%3Dorganic%26utm_campaign%3Dwebsite-link", "rating": 3.5, "reviews": 15, "place_id": "ChIJffzafQawb4gRqmwY7FfIyWY", "latitude": 37.7781835, "longitude": -87.0641747, "subtypes": "Neurologist"}, {"name": "Dr. Neil Troffkin", "address": "D, 2200 E Parrish Ave #100, Owensboro, KY 42303", "city": "Owensboro", "state": "Kentucky", "state_code": "KY", "phone": "+1 270-688-1770", "website": "http://nscmd.com/", "rating": 3.7, "reviews": 9, "place_id": "ChIJyZtwcLu6b4gRY2RP7t2lp1Q", "latitude": 37.7595739, "longitude": -87.0782691, "subtypes": "Neurologist"}, {"name": "Caroline Germany, MD", "address": "1301 Pleasant Valley Rd Suite 300, Owensboro, KY 42303", "city": "Owensboro", "state": "Kentucky", "state_code": "KY", "phone": "+1 270-417-7830", "website": "https://www.owensborohealth.org/find-doctor/basic-profile/caroline-germany%3Futm_source%3Dlocal-listing%26utm_medium%3Dorganic%26utm_campaign%3Dwebsite-link", "rating": 1, "reviews": 1, "place_id": "ChIJb4M1MZ6xb4gRTYVjTw_3IXg", "latitude": 37.7781835, "longitude": -87.0641747, "subtypes": "Neurologist"}, {"name": "Dr. Harold C. Cannon Jr, MD", "address": "2200 E Parrish Ave bldg d ste 100, Owensboro, KY 42303", "city": "Owensboro", "state": "Kentucky", "state_code": "KY", "phone": "+1 270-688-1770", "website": "https://www.owensborohealth.org/find-doctor/basic-profile/harold-cannon", "rating": 4, "reviews": 11, "place_id": "ChIJQz52gYe6b4gRZNAXR-lbIHE", "latitude": 37.759138, "longitude": -87.0763939, "subtypes": "Neurosurgeon"}, {"name": "Dr. David M. Eggers, MD", "address": "2780 Frederica St, Owensboro, KY 42301", "city": "Owensboro", "state": "Kentucky", "state_code": "KY", "phone": "+1 270-344-5201", "website": "https://www.owensborohealth.org/find-doctor/basic-profile/david-eggers/", "rating": 4.1, "reviews": 21, "place_id": "ChIJQz52gYe6b4gREY34RTlF6EU", "latitude": 37.7491762, "longitude": -87.11598959999999, "subtypes": "Neurosurgeon"}, {"name": "David J. Weaver, M.D", "address": "2200 E Parrish Ave, Owensboro, KY 42303", "city": "Owensboro", "state": "Kentucky", "state_code": "KY", "phone": "+1 270-688-1770", "website": "http://nscmd.com/", "rating": 5, "reviews": 1, "place_id": "ChIJyZtwcLu6b4gRydoGqz08sVw", "latitude": 37.7590221, "longitude": -87.0781124, "subtypes": "Neurologist"}, {"name": "Norton Children's Neuroscience Institute - Owensboro", "address": "1000 Breckenridge St #301, Owensboro, KY 42303", "city": "Owensboro", "state": "Kentucky", "state_code": "KY", "phone": "+1 502-588-3650", "website": "https://nortonchildrens.com/location/loc0000191901%3Futm_source%3Dthird-party%26utm_medium%3Dlistings%26utm_campaign%3Dncni-dtc%26utm_content%3Dlocation-page", "rating": "", "reviews": "", "place_id": "ChIJN8SzEsG7b4gRcnP-e8wiFdk", "latitude": 37.7668717, "longitude": -87.0996174, "subtypes": "Pediatric neurologist"}, {"name": "Dr. Eric A. Goebel, MD", "address": "2200 E Parrish Ave bldg d ste 100, Owensboro, KY 42303", "city": "Owensboro", "state": "Kentucky", "state_code": "KY", "phone": "+1 270-688-1770", "website": "http://nscmd.com/", "rating": 4.6, "reviews": 9, "place_id": "ChIJoz92gYe6b4gRgch-eeLzavs", "latitude": 37.759138, "longitude": -87.0763939, "subtypes": "Neurosurgeon"}, {"name": "Kortney LaCombe, DO", "address": "1301 Pleasant Valley Rd Suite 300, Owensboro, KY 42303", "city": "Owensboro", "state": "Kentucky", "state_code": "KY", "phone": "+1 270-417-7830", "website": "https://www.owensborohealth.org/find-doctor/basic-profile/kortney-lacombe%3Futm_source%3Dlocal-listing%26utm_medium%3Dorganic%26utm_campaign%3Dwebsite-link", "rating": "", "reviews": "", "place_id": "ChIJQaf6e6Cxb4gRLgL_nHijyBk", "latitude": 37.7781835, "longitude": -87.0641747, "subtypes": "Neurologist"}, {"name": "George Woodward, M.D.", "address": "1200 Breckenridge St #201, Owensboro, KY 42303", "city": "Owensboro", "state": "Kentucky", "state_code": "KY", "phone": "+1 270-691-1835", "website": "", "rating": "", "reviews": "", "place_id": "ChIJPTkKmd67b4gRxpqGzQLALws", "latitude": 37.7647747, "longitude": -87.09907179999999, "subtypes": "Neurologist"}, {"name": "Cox Randy J MD", "address": "920 Frederica St, Owensboro, KY 42301", "city": "Owensboro", "state": "Kentucky", "state_code": "KY", "phone": "+1 270-926-6864", "website": "", "rating": 5, "reviews": 1, "place_id": "ChIJtbJ663C6b4gRw5bfTXMt9A8", "latitude": 37.766622, "longitude": -87.113721, "subtypes": "Neurologist"}, {"name": "CHI Saint Joseph Medical Group - Neurology - Lexington, KY (Suite 200)", "address": "1021 Majestic Dr STE 200, Lexington, KY 40513", "city": "Lexington", "state": "Kentucky", "state_code": "KY", "phone": "+1 859-296-1922", "website": "https://www.chisaintjosephhealth.org/lexington-neurosciences%3Futm_source%3DLocalSearch%26utm_medium%3DFacility%26utm_campaign%3DCHIStJoseph%26utm_term%3DCHISaintJosephMedicalGroup-NeurologyMajesticDr%26y_source%3D1_MTczMjIzOTAtNzE1LWxvY2F0aW9uLndlYnNpdGU%253D", "rating": 4.4, "reviews": 45, "place_id": "ChIJl4Zt3CxDQogRlH-IPo4sBhs", "latitude": 38.0230029, "longitude": -84.55677759999999, "subtypes": "Neurologist"}, {"name": "Owens Ryan MD", "address": "1140 Lexington Rd #105, Georgetown, KY 40324", "city": "Georgetown", "state": "Kentucky", "state_code": "KY", "phone": "+1 502-868-5660", "website": "", "rating": "", "reviews": "", "place_id": "ChIJg0UdxIBAQogR-BV_nNoXTK8", "latitude": 38.1866691, "longitude": -84.5614841, "subtypes": "Neurologist"}, {"name": "Sharoon Qaiser, MD, MBBS", "address": "C, 740 S. Limestone, First Floor, Wing, Lexington, KY 40536", "city": "Lexington", "state": "Kentucky", "state_code": "KY", "phone": "+1 859-323-5661", "website": "https://ukhealthcare.uky.edu/doctors/sharoon-qaiser%3Futm_source%3Dlocal-listing%26utm_medium%3Dorganic%26utm_campaign%3Dwebsite-link", "rating": 5, "reviews": 1, "place_id": "ChIJ3R_6KgdFQogRkcoYMg4GK-8", "latitude": 38.0336375, "longitude": -84.5080859, "subtypes": "Neurologist"}, {"name": "Melissa Smith, DO", "address": "1140 Lexington Rd Suite 101, Georgetown, KY 40324", "city": "Georgetown", "state": "Kentucky", "state_code": "KY", "phone": "+1 502-868-5660", "website": "https://www.georgetowncommunityhospital.com/provider/1821093675/Melissa-Smith", "rating": 4, "reviews": 4, "place_id": "ChIJv79tIIFAQogRZEqc6MgqbhY", "latitude": 38.1868438, "longitude": -84.561481, "subtypes": "Neurologist"}, {"name": "Simeon Zou, MD", "address": "1413 N Elm St, Henderson, KY 42420", "city": "Henderson", "state": "Kentucky", "state_code": "KY", "phone": "+1 270-831-7937", "website": "https://deaconess.com/DocBio/3612/Simeon_Zou_MD", "rating": 1, "reviews": 2, "place_id": "ChIJdVsUJUcpcIgR3N5k-zGIoX0", "latitude": 37.8557333, "longitude": -87.5807499, "subtypes": "Neurologist"}, {"name": "James LaGuardia, MD", "address": "1413 N Elm St, Henderson, KY 42420", "city": "Henderson", "state": "Kentucky", "state_code": "KY", "phone": "+1 270-831-7937", "website": "https://deaconess.com/DocBio/3611/James_LaGuardia_MD", "rating": "", "reviews": "", "place_id": "ChIJjWCczb4pcIgRMXqK1rZwjio", "latitude": 37.8557333, "longitude": -87.5807499, "subtypes": "Neurologist"}, {"name": "Mayron Michael M.D.", "address": "1998 Barrett Ct Ste B, Henderson, KY 42420", "city": "Henderson", "state": "Kentucky", "state_code": "KY", "phone": "+1 270-830-9872", "website": "", "rating": 3, "reviews": 15, "place_id": "ChIJk9fl4oQpcIgR7cc61iny97Q", "latitude": 37.8600178, "longitude": -87.5710086, "subtypes": "Neurologist"}, {"name": "Dr. Joseph B. Oropilla, MD", "address": "1360 Rogersville Rd, Radcliff, KY 40160", "city": "Radcliff", "state": "Kentucky", "state_code": "KY", "phone": "+1 270-769-5959", "website": "", "rating": 4.3, "reviews": 6, "place_id": "ChIJRcGkTujdaIgR68k3KXs9lE4", "latitude": 37.810853, "longitude": -85.9480986, "subtypes": "Neurologist"}, {"name": "Norton Neuroscience Institute - Elizabethtown", "address": "157 Towne Dr Suite 102, Elizabethtown, KY 42701", "city": "Elizabethtown", "state": "Kentucky", "state_code": "KY", "phone": "+1 502-583-1697", "website": "https://nortonhealthcare.com/location/loc0000192108%3Futm_source%3Dthird-party%26utm_medium%3Dlistings%26utm_campaign%3Dnni-dtc%26utm_content%3Dlocation-page", "rating": 5, "reviews": 1, "place_id": "ChIJheid7SfpaIgRweFyM4QTELs", "latitude": 37.7342772, "longitude": -85.8902743, "subtypes": "Neurosurgeon"}, {"name": "Norton Children's Neuroscience Institute - Elizabethtown", "address": "2412 Ring Rd Suite 100, Elizabethtown, KY 42701", "city": "Elizabethtown", "state": "Kentucky", "state_code": "KY", "phone": "+1 502-588-3650", "website": "https://nortonchildrens.com/location/loc0000191894%3Futm_source%3Dthird-party%26utm_medium%3Dlistings%26utm_campaign%3Dncni-dtc%26utm_content%3Dlocation-page", "rating": 5, "reviews": 1, "place_id": "ChIJT-clND3vaIgRE6MbsfSeU94", "latitude": 37.7329997, "longitude": -85.8454096, "subtypes": "Pediatric neurologist"}, {"name": "Noel Z. Reloj, MD", "address": "9847 Elizabethtown Rd, Big Clifty, KY 42712", "city": "Big Clifty", "state": "Kentucky", "state_code": "KY", "phone": "+1 270-242-2000", "website": "https://www.owensborohealth.org/find-doctor/basic-profile/noel-reloj%3Futm_source%3Dlocal-listing%26utm_medium%3Dorganic%26utm_campaign%3Dwebsite-link", "rating": 2.8, "reviews": 35, "place_id": "ChIJB9t_XPvoaIgRy7lttFveMfM", "latitude": 37.5429977, "longitude": -86.1522336, "subtypes": "Neurologist"}, {"name": "Megan Rudinsky, D.O.", "address": "617 23rd St #5, Ashland, KY 41101", "city": "Ashland", "state": "Kentucky", "state_code": "KY", "phone": "+1 606-408-2820", "website": "http://www.kdmc.com/findaphysician/physicianprofile.aspx%3Fphysicianid%3D528", "rating": 3.3, "reviews": 3, "place_id": "ChIJqVeiIzF0RogR5nw7wPmhDOg", "latitude": 38.4708253, "longitude": -82.634316, "subtypes": "Neurologist"}, {"name": "Alexandr Karimov", "address": "617 23rd St Suite 400, Ashland, KY 411012880", "city": "Ashland", "state": "Kentucky", "state_code": "KY", "phone": "+1 606-886-0892", "website": "https://www.kingsdaughtershealth.com/providers/alexandr-karimov-m-d-/", "rating": 3.8, "reviews": 9, "place_id": "ChIJ1emmGzF0RogR4cLq9B-vFd4", "latitude": 38.4708626, "longitude": -82.6339809, "subtypes": "Neurologist"}, {"name": "Tanya Warwick", "address": "617 23rd St Suite 400, Ashland, KY 411012880", "city": "Ashland", "state": "Kentucky", "state_code": "KY", "phone": "+1 606-886-0892", "website": "https://www.kingsdaughtershealth.com/providers/tanya-warwick-m-d-/", "rating": 3.2, "reviews": 5, "place_id": "ChIJ1emmGzF0RogRR2gWrV84Hk4", "latitude": 38.4708626, "longitude": -82.6339809, "subtypes": "Neurologist"}, {"name": "Dr. Kathryn Guggenheim, MD", "address": "617 23rd St, Ashland, KY 41101", "city": "Ashland", "state": "Kentucky", "state_code": "KY", "phone": "+1 606-326-0300", "website": "", "rating": "", "reviews": "", "place_id": "ChIJx3aMJzF0RogR6hctcQVzWZA", "latitude": 38.4708945, "longitude": -82.6334383, "subtypes": "Neurologist"}, {"name": "Jeffrey Siegel", "address": "617 23rd St Suite 6, Ashland, KY 41101", "city": "Ashland", "state": "Kentucky", "state_code": "KY", "phone": "+1 606-326-0300", "website": "", "rating": 5, "reviews": 1, "place_id": "ChIJuXPPGzF0RogRhSCjXeSWSNU", "latitude": 38.4708368, "longitude": -82.63388049999999, "subtypes": "Neurologist"}, {"name": "Ausaf Ahmed MD", "address": "30 Tower Cir, Somerset, KY 42503", "city": "Somerset", "state": "Kentucky", "state_code": "KY", "phone": "+1 606-451-0300", "website": "https://www.lakecumberlandphysicianpractices.com/%3Futm_source%3DGMBSocialClimb%26utm_medium%3DAusafAhmedMD", "rating": 4.9, "reviews": 161, "place_id": "ChIJT3lUmApJXYgR12O_osPxmFA", "latitude": 37.0837879, "longitude": -84.6242278, "subtypes": "Neurologist"}, {"name": "Magdy M El-Kalliny, MD", "address": "75 Hail Knob Rd, Somerset, KY 42503", "city": "Somerset", "state": "Kentucky", "state_code": "KY", "phone": "+1 606-678-9617", "website": "https://www.lakecumberlandhospital.com/provider/1275504730/magdy-el-kalliny-md%3Futm_source%3DGMBSocialClimb%26utm_medium%3DMagdyMEl-Kalliny%252CMD", "rating": 4.6, "reviews": 118, "place_id": "ChIJY0AvxfZJXYgR9TFsLTIS5fs", "latitude": 37.0841461, "longitude": -84.6229345, "subtypes": "Neurosurgeon"}, {"name": "Dr. Jose A. Cardenas", "address": "154 Bogle Office Park Dr, Somerset, KY 42503", "city": "Somerset", "state": "Kentucky", "state_code": "KY", "phone": "+1 606-451-3958", "website": "", "rating": 4.7, "reviews": 3, "place_id": "ChIJ53ddVvRJXYgR_pxpJ5y54Pg", "latitude": 37.0871077, "longitude": -84.6260327, "subtypes": "Neurologist"}, {"name": "Amr O El-Naggar, MD", "address": "75 Hail Knob Rd, Somerset, KY 42503", "city": "Somerset", "state": "Kentucky", "state_code": "KY", "phone": "+1 606-678-9617", "website": "https://www.lakecumberlandhospital.com/provider/1033180757/amr-el-naggar-md%3Futm_source%3DGMBSocialClimb%26utm_medium%3DAmrOEl-Naggar%252CMD", "rating": 4.3, "reviews": 68, "place_id": "ChIJpcAbNWRJXYgRkLFIChJJF7Q", "latitude": 37.0841674, "longitude": -84.6229934, "subtypes": "Neurosurgeon"}, {"name": "Norton Neuroscience Institute - Frankfort", "address": "202 Limestone Dr Suite 1B, Frankfort, KY 40601", "city": "Frankfort", "state": "Kentucky", "state_code": "KY", "phone": "+1 502-394-6460", "website": "https://nortonhealthcare.com/location/loc0000192109%3Futm_source%3Dthird-party%26utm_medium%3Dlistings%26utm_campaign%3Dnni-dtc%26utm_content%3Dlocation-page", "rating": 5, "reviews": 1, "place_id": "ChIJV6K0RPp1QogRcZp-T7vmDRM", "latitude": 38.1691566, "longitude": -84.8960012, "subtypes": "Neurologist"}, {"name": "Daniel J. Howley (MD)", "address": "101 Medical Heights Dr H, Frankfort, KY 40601", "city": "Frankfort", "state": "Kentucky", "state_code": "KY", "phone": "+1 502-418-4799", "website": "", "rating": 2.3, "reviews": 3, "place_id": "ChIJ56ATPql1QogRz6WGeVPOFAU", "latitude": 38.1595588, "longitude": -84.90499969999999, "subtypes": "Neurologist"}, {"name": "Christian N Ramsey III, MD", "address": "107 Diagnostic Dr, Frankfort, KY 40601", "city": "Frankfort", "state": "Kentucky", "state_code": "KY", "phone": "+1 859-277-6143", "website": "https://www.baptisthealth.com/providers/christian-n-ramsey-iii-md-neurosurgery", "rating": "", "reviews": "", "place_id": "ChIJy8xQDed1QogRbHWWDbFlZyA", "latitude": 38.1596675, "longitude": -84.9108873, "subtypes": "Neurologist"}, {"name": "Norton Children's Neuroscience Institute - Frankfort", "address": "202 Limestone Dr Suite 1A, Frankfort, KY 40601", "city": "Frankfort", "state": "Kentucky", "state_code": "KY", "phone": "+1 502-588-3650", "website": "https://nortonchildrens.com/location/loc0000191895%3Futm_source%3Dthird-party%26utm_medium%3Dlistings%26utm_campaign%3Dncni-dtc%26utm_content%3Dlocation-page", "rating": "", "reviews": "", "place_id": "ChIJ-zCIce91QogRcYi4Zzck_bU", "latitude": 38.1691566, "longitude": -84.8960012, "subtypes": "Pediatric neurologist"}, {"name": "Christopher David Wood,", "address": "4900 Houston Rd, Florence, KY 41042", "city": "Florence", "state": "Kentucky", "state_code": "KY", "phone": "+1 859-957-0052", "website": "https://www.stelizabethphysicians.com/care/providers/bio/christopher-wood", "rating": 4.6, "reviews": 11, "place_id": "ChIJxexNVVvHQYgRPbWjqE0NRO8", "latitude": 39.0162024, "longitude": -84.6304442, "subtypes": "Neurologist"}, {"name": "Christopher Wood, MD", "address": "2670 Chancellor Dr, Crestview Hills, KY 41017", "city": "Crestview Hills", "state": "Kentucky", "state_code": "KY", "phone": "+1 859-957-0052", "website": "https://www.stelizabeth.com/providers/bio/christopher-wood", "rating": 5, "reviews": 17, "place_id": "ChIJI1rE4TG5QYgRc90Jh_nLGpA", "latitude": 39.0245287, "longitude": -84.55800599999999, "subtypes": "Neurologist"}, {"name": "Baber Khan", "address": "320 Thomas More Pkwy, Crestview Hills, KY 410173410", "city": "Crestview Hills", "state": "Kentucky", "state_code": "KY", "phone": "+1 859-341-4266", "website": "https://www.riverhillsneuro.com/provider/baber-khan-md", "rating": 4.9, "reviews": 70, "place_id": "ChIJzTMGuCu4QYgRSB9IQPXmAJA", "latitude": 39.0248775, "longitude": -84.5680649, "subtypes": "Neurologist"}, {"name": "Dr. Li Maureen", "address": "320 Thomas More Pkwy STE A, Crestview Hills, KY 41017", "city": "Crestview Hills", "state": "Kentucky", "state_code": "KY", "phone": "+1 859-341-4266", "website": "http://www.riverhillsneuro.com/", "rating": 4.7, "reviews": 13, "place_id": "ChIJkRcBxyu4QYgRfTEDAFvWeaI", "latitude": 39.0249022, "longitude": -84.5680843, "subtypes": "Neurologist"}, {"name": "Vinod Mangapathy Krishnan,", "address": "2670 Chancellor Dr, Crestview Hills, KY 41017", "city": "Crestview Hills", "state": "Kentucky", "state_code": "KY", "phone": "+1 859-957-0052", "website": "https://www.stelizabethphysicians.com/care/providers/bio/vinod-krishnan-md", "rating": 4.8, "reviews": 25, "place_id": "ChIJbWGsWdO5QYgRw2qXurmFabM", "latitude": 39.0245003, "longitude": -84.5580873, "subtypes": "Neurologist"}, {"name": "P. Scott Becker, MD", "address": "320 Thomas More Pkwy, Crestview Hills, KY 41017", "city": "Crestview Hills", "state": "Kentucky", "state_code": "KY", "phone": "+1 859-341-4266", "website": "http://www.riverhillsneuro.com/", "rating": 4.8, "reviews": 24, "place_id": "ChIJg36fAdq5QYgRgpWBN3Nokt8", "latitude": 39.024878, "longitude": -84.56806499999999, "subtypes": "Neurologist"}, {"name": "Shreya Nayak,", "address": "2670 Chancellor Dr Suite 100, Crestview Hills, KY 41017", "city": "Crestview Hills", "state": "Kentucky", "state_code": "KY", "phone": "+1 859-957-0052", "website": "https://www.stelizabethphysicians.com/care/providers/bio/shreya-nayak", "rating": 4.9, "reviews": 14, "place_id": "ChIJ646BvJm5QYgR--ieYn2_BJY", "latitude": 39.0245304, "longitude": -84.5580061, "subtypes": "Neurologist"}, {"name": "Stephanie Lynn Dalton,", "address": "2670 Chancellor Dr, Crestview Hills, KY 41017", "city": "Crestview Hills", "state": "Kentucky", "state_code": "KY", "phone": "+1 859-957-0052", "website": "https://www.stelizabethphysicians.com/care/providers/bio/stephanie-dalton-do", "rating": 4.9, "reviews": 11, "place_id": "ChIJnd39amW5QYgRnGlC990GqUY", "latitude": 39.0245304, "longitude": -84.5580061, "subtypes": "Neurologist"}, {"name": "John Kendall Webb,", "address": "2670 Chancellor Dr, Crestview Hills, KY 41017", "city": "Crestview Hills", "state": "Kentucky", "state_code": "KY", "phone": "+1 859-957-0052", "website": "https://www.stelizabethphysicians.com/care/providers/bio/john-webb-md", "rating": 4.9, "reviews": 37, "place_id": "ChIJdQi2qNS5QYgRBx7QuaYUgZY", "latitude": 39.0245003, "longitude": -84.5580873, "subtypes": "Neurologist"}, {"name": "Dr. John T. Perkins, MD", "address": "320 Thomas More Pkwy, Crestview Hills, KY 41017", "city": "Crestview Hills", "state": "Kentucky", "state_code": "KY", "phone": "+1 859-341-4266", "website": "https://www.mercy.com/find-a-doctor/physicians/john-t-perkins/283675", "rating": 5, "reviews": 6, "place_id": "ChIJkRcBxyu4QYgRf5Aht0U1vRQ", "latitude": 39.0249022, "longitude": -84.5680843, "subtypes": "Neurologist"}, {"name": "Katelyn Dolbec,", "address": "2670 Chancellor Dr, Crestview Hills, KY 41017", "city": "Crestview Hills", "state": "Kentucky", "state_code": "KY", "phone": "+1 859-957-0052", "website": "https://www.stelizabethphysicians.com/care/providers/bio/katelyn-dolbec/", "rating": 5, "reviews": 11, "place_id": "ChIJk6tqjta5QYgRs4fPxIeIe5k", "latitude": 39.0245003, "longitude": -84.5580873, "subtypes": "Neurologist"}, {"name": "Ty David Brown,", "address": "2670 Chancellor Dr, Crestview Hills, KY 41017", "city": "Crestview Hills", "state": "Kentucky", "state_code": "KY", "phone": "+1 859-957-0052", "website": "https://www.stelizabethphysicians.com/care/providers/bio/ty-brown-md", "rating": 4.8, "reviews": 33, "place_id": "ChIJl_zKqNS5QYgRDqKEzd7ebv8", "latitude": 39.0244919, "longitude": -84.5580849, "subtypes": "Neurophysiologist"}, {"name": "Boughaba Dolly A MD", "address": "320 Thomas More Pkwy, Crestview Hills, KY 41017", "city": "Crestview Hills", "state": "Kentucky", "state_code": "KY", "phone": "+1 859-341-4266", "website": "", "rating": 5, "reviews": 1, "place_id": "ChIJkRcBxyu4QYgRIZSOWJ9IKGw", "latitude": 39.0248775, "longitude": -84.5680649, "subtypes": "Neurologist"}, {"name": "Dr. Brian N. Maddux, MD", "address": "320 Thomas More Pkwy, Crestview Hills, KY 41017", "city": "Crestview Hills", "state": "Kentucky", "state_code": "KY", "phone": "+1 859-341-4266", "website": "https://www.riverhillsneuro.com/physicians/brian-n-maddux/", "rating": 5, "reviews": 3, "place_id": "ChIJkRcBxyu4QYgRDZMtyksP5Vg", "latitude": 39.0249022, "longitude": -84.5680843, "subtypes": "Neurologist"}, {"name": "Steven Bailey, MD", "address": "544 Centre View Blvd, Crestview Hills, KY 41017", "city": "Crestview Hills", "state": "Kentucky", "state_code": "KY", "phone": "+1 859-916-7681", "website": "https://mayfieldclinic.com/mc_bios/bio_bailey.htm", "rating": 4.6, "reviews": 37, "place_id": "ChIJkYdSs9S5QYgRUlzVMng8O6I", "latitude": 39.0223824, "longitude": -84.5593201, "subtypes": "Neurosurgeon"}, {"name": "Rackley Angela Y MD", "address": "351 Centre View Blvd, Crestview Hills, KY 41017", "city": "Crestview Hills", "state": "Kentucky", "state_code": "KY", "phone": "+1 859-578-3400", "website": "http://www.stelizabethphysicians.com/", "rating": 5, "reviews": 3, "place_id": "ChIJdQi2qNS5QYgRRESqifQPqxc", "latitude": 39.02264539999999, "longitude": -84.5635368, "subtypes": "Neurologist"}, {"name": "Jesse Robinson", "address": "1862 Old Lebanon Rd, Campbellsville, KY 42718", "city": "Campbellsville", "state": "Kentucky", "state_code": "KY", "phone": "+1 270-789-6175", "website": "http://www.trhosp.org/", "rating": 5, "reviews": 3, "place_id": "ChIJ7zEEzg1yaIgRgfIV4vu8mi4", "latitude": 37.368181, "longitude": -85.33879019999999, "subtypes": "Neurologist"}, {"name": "Kyra Schmidt, MD", "address": "310 N L Rogers Wells Blvd, Glasgow, KY 42141", "city": "Glasgow", "state": "Kentucky", "state_code": "KY", "phone": "+1 270-659-5663", "website": "https://www.tjregionalhealth.org/provider-directory/provider/kyra-schmidt-md/", "rating": 5, "reviews": 11, "place_id": "ChIJFeBOZDk9ZogRLp35CjlM3_E", "latitude": 37.0071753, "longitude": -85.9287873, "subtypes": "Neurologist"}, {"name": "Vinod Mangapathy Krishnan,", "address": "1400 N Grand Ave, Newport, KY 41071", "city": "Newport", "state": "Kentucky", "state_code": "KY", "phone": "+1 859-957-0052", "website": "https://www.stelizabethphysicians.com/care/providers/bio/vinod-krishnan-md/", "rating": 5, "reviews": 6, "place_id": "ChIJ10DJHkCxQYgRgdiDICSIUj0", "latitude": 39.0809286, "longitude": -84.4696467, "subtypes": "Neurologist"}, {"name": "CHI Saint Joseph Health - Neurology Care, London", "address": "192 Shopping Center Suite 2, London, KY 40741", "city": "London", "state": "Kentucky", "state_code": "KY", "phone": "+1 606-330-7370", "website": "https://www.chisaintjosephhealth.org/london-neurology%3Futm_source%3Dpg-google%26utm_medium%3Dorganic%26utm_campaign%3Dpg-listings", "rating": 4, "reviews": 55, "place_id": "ChIJaVefGnfNXIgRDG6PWfn1DSI", "latitude": 37.1106776, "longitude": -84.08855659999999, "subtypes": "Neurologist"}, {"name": "Stephanie Lynn Dalton,", "address": "2626 Alexandria Pike, Highland Heights, KY 41076", "city": "Highland Heights", "state": "Kentucky", "state_code": "KY", "phone": "+1 859-957-0052", "website": "https://www.stelizabethphysicians.com/care/providers/bio/stephanie-dalton-do", "rating": 5, "reviews": 1, "place_id": "ChIJqZSQVJaxQYgRSeCz0ZXmNPs", "latitude": 39.0353481, "longitude": -84.45493429999999, "subtypes": "Neurologist"}, {"name": "William R. DeFoor Jr. MD, MPH", "address": "2765 Chapel Pl, Crestview Hills, KY 41017", "city": "Crestview Hills", "state": "Kentucky", "state_code": "KY", "phone": "+1 859-344-5390", "website": "https://www.cincinnatichildrens.org/bio/d/william-defoor%3Futm_source%3Dgoogle%26utm_medium%3Dorganic%26utm_campaign%3Dprofile_listing", "rating": 1, "reviews": 2, "place_id": "ChIJHY3fbLe5QYgR-6gFMug60wQ", "latitude": 39.0242264, "longitude": -84.56299899999999, "subtypes": "Neurologist"}, {"name": "Bradbury Skidmore", "address": "350 Thomas More Pkwy, Crestview Hills, KY 41017", "city": "Crestview Hills", "state": "Kentucky", "state_code": "KY", "phone": "+1 513-221-1100", "website": "https://mayfieldclinic.com/mc_bios/bio_skidmore.htm", "rating": 5, "reviews": 2, "place_id": "ChIJm9fCSyu4QYgR6AoV9SRlH4c", "latitude": 39.0238621, "longitude": -84.5644312, "subtypes": "Neurosurgeon"}, {"name": "Brad Skidmore, MD", "address": "544 Centre View Blvd, Crestview Hills, KY 41017", "city": "Crestview Hills", "state": "Kentucky", "state_code": "KY", "phone": "+1 859-916-7680", "website": "https://mayfieldclinic.com/mc_bios/bio_skidmore.htm", "rating": 4.2, "reviews": 39, "place_id": "ChIJkYdSs9S5QYgRvI4yJF7_53w", "latitude": 39.0223665, "longitude": -84.55933639999999, "subtypes": "Neurosurgeon"}, {"name": "Rahul Chandak, MD", "address": "4900 Houston Rd, Florence, KY 41042", "city": "Florence", "state": "Kentucky", "state_code": "KY", "phone": "+1 859-957-0052", "website": "https://www.stelizabethphysicians.com/providers/bio/rahul-chandak", "rating": "", "reviews": "", "place_id": "ChIJgRjpajbHQYgRJXFh3ZvRtZA", "latitude": 39.016332, "longitude": -84.6302364, "subtypes": "Neurologist"}, {"name": "Norton Neuroscience Institute Resource Center - St. Matthews", "address": "3991 Dutchmans Ln Suite 302, Louisville, KY 40207", "city": "Louisville", "state": "Kentucky", "state_code": "KY", "phone": "+1 502-559-3230", "website": "https://nortonhealthcare.com/location/loc0000192123%3Futm_source%3Dthird-party%26utm_medium%3Dlistings%26utm_campaign%3Dnni-dtc%26utm_content%3Dlocation-page", "rating": 3.7, "reviews": 6, "place_id": "ChIJecfJWkwLaYgRcee6jLmMPUw", "latitude": 38.2350225, "longitude": -85.6334734, "subtypes": "Neurologist"}, {"name": "Gutti Sujata R MD", "address": "515 Bypass Rd STE 101, Pikeville, KY 41501", "city": "Pikeville", "state": "Kentucky", "state_code": "KY", "phone": "+1 606-437-4100", "website": "https://www.pikevillehospital.org/physicians/sujata-r-gutti-m-d/", "rating": 2.8, "reviews": 27, "place_id": "ChIJryLx-H1rRYgRHwanwmvXSDs", "latitude": 37.483913, "longitude": -82.51389689999999, "subtypes": "Neurologist"}, {"name": "Naveed Ahmed, MD, MBBS, FAHA, FAAN", "address": "911 Bypass Rd, Pikeville, KY 41501", "city": "Pikeville", "state": "Kentucky", "state_code": "KY", "phone": "+1 606-430-2208", "website": "https://www.pikevillehospital.org/providers/naveed-ahmed-m-d-m-b-b-s-f-a-h-a-f-a-a-n/", "rating": 2.9, "reviews": 15, "place_id": "ChIJ9b45cnFrRYgRAeO9823-bKo", "latitude": 37.4718241, "longitude": -82.5225715, "subtypes": "Neurologist"}, {"name": "Christopher David Wood,", "address": "85 N Grand Ave, Fort Thomas, KY 41075", "city": "Fort Thomas", "state": "Kentucky", "state_code": "KY", "phone": "+1 859-957-0052", "website": "https://www.stelizabethphysicians.com/care/providers/bio/christopher-wood", "rating": "", "reviews": "", "place_id": "ChIJpTdR4UqxQYgR1sOUtQskZb0", "latitude": 39.0786773, "longitude": -84.46684789999999, "subtypes": "Neurologist"}, {"name": "Cameron Thomas MD, MS", "address": "2765 Chapel Pl, Crestview Hills, KY 41017", "city": "Crestview Hills", "state": "Kentucky", "state_code": "KY", "phone": "+1 859-344-5390", "website": "https://www.cincinnatichildrens.org/bio/t/cameron-thomas%3Futm_source%3Dgoogle%26utm_medium%3Dorganic%26utm_campaign%3Dprofile_listing", "rating": "", "reviews": "", "place_id": "ChIJlX_Q7kO5QYgRzan5UgCx-sw", "latitude": 39.0242784, "longitude": -84.5629263, "subtypes": "Neurologist"}, {"name": "Rahul Brijballabh Chandak,", "address": "1 Medical Village Dr, Edgewood, KY 41017", "city": "Edgewood", "state": "Kentucky", "state_code": "KY", "phone": "+1 859-957-0052", "website": "https://www.stelizabethphysicians.com/care/providers/bio/rahul-chandak/", "rating": "", "reviews": "", "place_id": "ChIJ7aHIZ_C5QYgR6zAlkHx8k7Y", "latitude": 39.0131557, "longitude": -84.5618867, "subtypes": "Neurologist"}, {"name": "Gross Larry MD", "address": "722 Scott St, Covington, KY 41011", "city": "Covington", "state": "Kentucky", "state_code": "KY", "phone": "+1 859-431-3052", "website": "", "rating": "", "reviews": "", "place_id": "ChIJkZdmXTmxQYgRlesJweSQxn0", "latitude": 39.0830407, "longitude": -84.50777339999999, "subtypes": "Neurologist"}, {"name": "Dr. Sheetal Malik", "address": "68 Cavalier Blvd, Florence, KY 41042", "city": "Florence", "state": "Kentucky", "state_code": "KY", "phone": "+1 513-475-7630", "website": "https://www.uchealth.com/en/provider-profiles/malik-sheetal-1669413712", "rating": "", "reviews": "", "place_id": "ChIJXdy_ObjHQYgR0e5LuiOwvbc", "latitude": 39.0086547, "longitude": -84.6363695, "subtypes": "Neurologist"}, {"name": "Coiculescu Olivia MD", "address": "1330 N Race St, Glasgow, KY 42141", "city": "Glasgow", "state": "Kentucky", "state_code": "KY", "phone": "+1 270-651-3729", "website": "http://www.tjsamson.org/", "rating": "", "reviews": "", "place_id": "ChIJ29BpWqc9ZogRuFnmodXEjrU", "latitude": 37.0133338, "longitude": -85.90469949999999, "subtypes": "Neurologist"}, {"name": "Rao Suprasad M MD", "address": "1012 Glenview Dr A, Glasgow, KY 42141", "city": "Glasgow", "state": "Kentucky", "state_code": "KY", "phone": "+1 270-659-0836", "website": "", "rating": "", "reviews": "", "place_id": "ChIJAW89HAg9ZogRPklCXbfmQSs", "latitude": 37.0123326, "longitude": -85.9019002, "subtypes": "Neurologist"}, {"name": "Chou Wesley MD", "address": "102 Physicians Blvd, Glasgow, KY 42141", "city": "Glasgow", "state": "Kentucky", "state_code": "KY", "phone": "+1 270-651-1082", "website": "", "rating": 4, "reviews": 1, "place_id": "ChIJefMo_3Q9ZogRyzbZmyX1Db8", "latitude": 37.0160942, "longitude": -85.9120835, "subtypes": "Neurologist"}, {"name": "Watts Endraetta B MD", "address": "1304 N Race St # D, Glasgow, KY 42141", "city": "Glasgow", "state": "Kentucky", "state_code": "KY", "phone": "+1 270-651-3415", "website": "", "rating": "", "reviews": "", "place_id": "ChIJMXmpFac9ZogRGT_khKttd1w", "latitude": 37.0116505, "longitude": -85.90353759999999, "subtypes": "Neurologist"}, {"name": "CHI Saint Joseph Medical Group - Neurology", "address": "305 Estill St 3rd Floor, Berea, KY 40403", "city": "Berea", "state": "Kentucky", "state_code": "KY", "phone": "+1 859-263-8807", "website": "https://www.chisaintjosephhealth.org/body.cfm%3Fid%3D5120%26action%3Ddetail%26ref%3D2137%3Futm_source%3DLocalSearch%26utm_medium%3DPhysician%26utm_campaign%3DKentuckyOneHealthNeurologyAssociatesMajesticDrive%26utm_term%3DWarren-Chumley-1114941895-1401HarrodsburgRoad", "rating": "", "reviews": "", "place_id": "ChIJ6UZZSl7hQogRKtrr4GmT9e4", "latitude": 37.5764882, "longitude": -84.28623979999999, "subtypes": "Neurologist"}, {"name": "Amjad Bukhari, MD", "address": "305 Estill St 3rd Floor, Berea, KY 40403", "city": "Berea", "state": "Kentucky", "state_code": "KY", "phone": "+1 859-263-8807", "website": "https://www.chisaintjosephhealth.org/body.cfm%3Fid%3D5120%26action%3Ddetail%26ref%3D1974%3Futm_source%3DLocalSearch%26utm_medium%3DPhysician%26utm_campaign%3DKentuckyOneHealthNeurologyAssociatesShoppingCenter%26utm_term%3DAmjad-Bukhari-1639181654-1401HarrodsburgRoad", "rating": "", "reviews": "", "place_id": "ChIJlb5I0nThQogRS91uPpPQDX0", "latitude": 37.5765087, "longitude": -84.286211, "subtypes": "Neurologist"}, {"name": "Alam Khan, MD", "address": "305 Estill St 3rd Floor, Berea, KY 40403", "city": "Berea", "state": "Kentucky", "state_code": "KY", "phone": "+1 859-263-8807", "website": "https://www.chisaintjosephhealth.org/body.cfm%3Fid%3D5120%26action%3Ddetail%26ref%3D1817%3Futm_source%3DLocalSearch%26utm_medium%3DPhysician%26utm_campaign%3DKentuckyOneHealthNeurologyAssociatesShoppingCenter%26utm_term%3DAlam-Khan-1376767962-1401HarrodsburgRoad", "rating": "", "reviews": "", "place_id": "ChIJMwtPbfzhQogRfLMpwM1yWFM", "latitude": 37.5765687, "longitude": -84.2863132, "subtypes": "Neurologist"}, {"name": "Norton Neuroscience Institute - Bardstown", "address": "106 W John Rowan Blvd Suite E2, Bardstown, KY 40004", "city": "Bardstown", "state": "Kentucky", "state_code": "KY", "phone": "+1 502-454-5044", "website": "https://nortonhealthcare.com/location/loc0000192106%3Futm_source%3Dthird-party%26utm_medium%3Dlistings%26utm_campaign%3Dnni-dtc%26utm_content%3Dlocation-page", "rating": 2.3, "reviews": 3, "place_id": "ChIJDfwTyo9TaIgRInT7hNn7i48", "latitude": 37.8287021, "longitude": -85.4646841, "subtypes": "Neurologist"}, {"name": "Jillian Miles, PA-C", "address": "106 W John Rowan Blvd Suite E2, Bardstown, KY 40004", "city": "Bardstown", "state": "Kentucky", "state_code": "KY", "phone": "+1 502-899-6782", "website": "https://providers.nortonhealthcare.com/provider/jillian-a-miles/2032197", "rating": 3.7, "reviews": 3, "place_id": "ChIJi0FYpvhTaIgR5yaZPxyl_Tc", "latitude": 37.8286174, "longitude": -85.46446949999999, "subtypes": "Neurologist"}, {"name": "JOSHUA J CHALKLEY", "address": "Bardstown Medical Plaza, 3615 E John Rowan Blvd Ste 101, Bardstown, KY 40004", "city": "Bardstown", "state": "Kentucky", "state_code": "KY", "phone": "+1 502-350-3889", "website": "", "rating": 5, "reviews": 1, "place_id": "ChIJcRPbtgBOaIgRZl9tnICg8Oo", "latitude": 37.8043293, "longitude": -85.4328489, "subtypes": "Neurologist"}, {"name": "UofL Physicians \u2013 Neurology", "address": "1905 W Hebron Ln Suite 201, Shepherdsville, KY 40165", "city": "Shepherdsville", "state": "Kentucky", "state_code": "KY", "phone": "+1 502-588-4800", "website": "https://uoflhealth.org/locations/uofl-physicians-neurology-south-hospital/%3Futm_source%3DGMBSocialClimb%26utm_medium%3DUofLPhysicians%25E2%2580%2593Neurology", "rating": 5, "reviews": 7, "place_id": "ChIJ18XKU_EFaYgRWXIqci1lG5U", "latitude": 38.0617923, "longitude": -85.6969659, "subtypes": "Neurologist"}, {"name": "Joseph Oropilla, MD", "address": "1905 W Hebron Ln #203, Shepherdsville, KY 40165", "city": "Shepherdsville", "state": "Kentucky", "state_code": "KY", "phone": "+1 844-497-2054", "website": "", "rating": 2.6, "reviews": 5, "place_id": "ChIJe10_-PAFaYgRTarw5fgsy8Y", "latitude": 38.0617923, "longitude": -85.6969659, "subtypes": "Neurologist"}, {"name": "Norton Children's Neuroscience Institute - Shepherdsville", "address": "1707 Cedar Grove Rd, Shepherdsville, KY 40165", "city": "Shepherdsville", "state": "Kentucky", "state_code": "KY", "phone": "+1 502-588-3650", "website": "https://nortonchildrens.com/location/loc0000220534%3Futm_source%3Dthird-party%26utm_medium%3Dlistings%26utm_campaign%3Dncni-dtc%26utm_content%3Dlocation-page", "rating": "", "reviews": "", "place_id": "ChIJq8Hq3wsBaYgRzR2RnyqAC7Q", "latitude": 37.97791309999999, "longitude": -85.6817701, "subtypes": "Pediatric neurologist"}, {"name": "UofL Physicians \u2013 Neurosurgery", "address": "1905 W Hebron Ln Suite 201, Shepherdsville, KY 40165", "city": "Shepherdsville", "state": "Kentucky", "state_code": "KY", "phone": "+1 502-588-2160", "website": "https://uoflhealth.org/locations/uofl-physicians-neurosurgery-south-hospital/%3Futm_source%3DGMBSocialClimb%26utm_medium%3DUofLPhysicians%25E2%2580%2593Neurosurgery", "rating": "", "reviews": "", "place_id": "ChIJGc_EOdEFaYgRaZa_iLL8hW0", "latitude": 38.0617923, "longitude": -85.6969659, "subtypes": "Neurosurgeon"}, {"name": "Catarina de Marchi Assuncao, M.D.", "address": "1905 W Hebron Ln Suite 201, Shepherdsville, KY 40165", "city": "Shepherdsville", "state": "Kentucky", "state_code": "KY", "phone": "+1 502-588-4800", "website": "https://uoflhealth.org/provider/catarina-de-marchi-assuncao-neurology/%3Futm_source%3DGMBSocialClimb%26utm_medium%3DCatarinadeMarchiAssuncao%252CM.D.", "rating": "", "reviews": "", "place_id": "ChIJ99BT-nEFaYgRvOp-qr2M5xY", "latitude": 38.0617923, "longitude": -85.6969659, "subtypes": "Neurologist"}, {"name": "Christopher R. Shafer, M.D.", "address": "1905 W Hebron Ln Suite 201, Shepherdsville, KY 40165", "city": "Shepherdsville", "state": "Kentucky", "state_code": "KY", "phone": "+1 502-588-4800", "website": "https://uoflhealth.org/provider/christopher-shafer-neurology/%3Futm_source%3DGMBSocialClimb%26utm_medium%3DChristopherR.Shafer%252CM.D.", "rating": "", "reviews": "", "place_id": "ChIJRaALU4EFaYgR3SHbi7_ps1Y", "latitude": 38.0617923, "longitude": -85.6969659, "subtypes": "Neurologist"}, {"name": "Michael L Sweeney, MD", "address": "1707 Cedar Grove Rd, Shepherdsville, KY 40165", "city": "Shepherdsville", "state": "Kentucky", "state_code": "KY", "phone": "+1 502-588-3650", "website": "https://providers.nortonhealthcare.com/provider/Michael%2BL%2BSweeney/496328%3Futm_source%3DYext", "rating": "", "reviews": "", "place_id": "ChIJObTI0RUBaYgRRDQ-jyN69Kc", "latitude": 37.97791309999999, "longitude": -85.6817701, "subtypes": "Neurologist"}, {"name": "Bobbi Westbrook, RN", "address": "115 Huston Dr #2, Shepherdsville, KY 40165", "city": "Shepherdsville", "state": "Kentucky", "state_code": "KY", "phone": "+1 502-955-8979", "website": "", "rating": "", "reviews": "", "place_id": "ChIJW9QCex0HaYgRMf8j8piwVHg", "latitude": 38.0053845, "longitude": -85.6779493, "subtypes": "Neurosurgeon"}, {"name": "Norton Neuroscience Institute - Neurosurgery - Bullitt County", "address": "170 Dr Arla Way Suite 101, Louisville, KY 40229", "city": "Louisville", "state": "Kentucky", "state_code": "KY", "phone": "+1 502-394-6390", "website": "https://nortonhealthcare.com/location/LOC0000192113%3Futm_source%3DYext", "rating": "", "reviews": "", "place_id": "ChIJoSCDiuMJaYgRCCFJpNZJ_SE", "latitude": 38.0704816, "longitude": -85.6710396, "subtypes": "Neurologist"}, {"name": "Allison G Spine, APRN", "address": "1707 Cedar Grove Rd, Shepherdsville, KY 40165", "city": "Shepherdsville", "state": "Kentucky", "state_code": "KY", "phone": "+1 502-588-3650", "website": "https://providers.nortonchildrens.com/provider/Allison%2BG%2BSpine/479493%3Futm_source%3DYext", "rating": "", "reviews": "", "place_id": "ChIJMRuY8G8BaYgReW2RGJr6GBU", "latitude": 37.97791309999999, "longitude": -85.6817701, "subtypes": "Pediatric neurologist"}, {"name": "Dr. Paresh V. Sheth, MD", "address": "1724 Kenton St Ste 1A, Hopkinsville, KY 42240", "city": "Hopkinsville", "state": "Kentucky", "state_code": "KY", "phone": "+1 270-885-5003", "website": "https://www.jenniestuarthealth.org/our-locations/neurology/", "rating": 3.2, "reviews": 30, "place_id": "ChIJRU6i7GA0ZYgRBmOj9mXqcDs", "latitude": 36.8612449, "longitude": -87.4947454, "subtypes": "Neurologist"}, {"name": "Gregory B. Lanford, MD", "address": "10634 Eagle Way #100, Hopkinsville, KY 42240", "city": "Hopkinsville", "state": "Kentucky", "state_code": "KY", "phone": "+1 615-327-9543", "website": "https://healthcare.ascension.org/find-care/provider/1700856994/gregory-lanford%3Futm_campaign%3Dgmb-website%26utm_medium%3Dorganic%26utm_source%3Dgoogle", "rating": 5, "reviews": 3, "place_id": "ChIJq6pqaWgzZYgRGB8ZBuIxo0Y", "latitude": 36.8182879, "longitude": -87.47704039999999, "subtypes": "Neurosurgeon"}, {"name": "Dr. Parseh V. Sheth, MD", "address": "1609 S Main St, Hopkinsville, KY 42240", "city": "Hopkinsville", "state": "Kentucky", "state_code": "KY", "phone": "+1 270-887-0783", "website": "", "rating": 1, "reviews": 1, "place_id": "ChIJh6G_v2c0ZYgRq0OcENT2N3k", "latitude": 36.8618289, "longitude": -87.49223219999999, "subtypes": "Neurologist"}, {"name": "Howell Allen Clinic with Ascension Saint Thomas Hopkinsville", "address": "10634 Eagle Way #100, Hopkinsville, KY 42240", "city": "Hopkinsville", "state": "Kentucky", "state_code": "KY", "phone": "+1 615-327-9543", "website": "https://healthcare.ascension.org/locations/kentucky/tnnas/hopkinsville-howell-allen-clinic-with-ascension-saint-thomas-hopkinsville%3Futm_campaign%3Dgmb%26utm_medium%3Dorganic-search%26utm_content%3Dlocation-listing%26utm_source%3Dlocal", "rating": 5, "reviews": 1, "place_id": "ChIJl2MdYgEzZYgRANrcccm1e34", "latitude": 36.8182879, "longitude": -87.47704039999999, "subtypes": "Neurosurgeon"}, {"name": "Dr. Stephen P. Montgomery, MD", "address": "735 North Dr, Hopkinsville, KY 42240", "city": "Hopkinsville", "state": "Kentucky", "state_code": "KY", "phone": "+1 270-886-2205", "website": "", "rating": "", "reviews": "", "place_id": "ChIJHc54Fa01ZYgRmPc1J-Wwh_o", "latitude": 36.8860342, "longitude": -87.4915395, "subtypes": "Neurologist"}, {"name": "Western State Hospital: Brula Abdul Q MD", "address": "2400 Russellville Rd, Hopkinsville, KY 42240", "city": "Hopkinsville", "state": "Kentucky", "state_code": "KY", "phone": "+1 270-889-6025", "website": "https://westernstatehospital.ky.gov/", "rating": "", "reviews": "", "place_id": "ChIJNbxI-pc2ZYgRRTyv1DLhlJc", "latitude": 36.8628991, "longitude": -87.4500851, "subtypes": "Neurologist"}, {"name": "Beshay Hany E MD", "address": "2400 Russellville Rd, Hopkinsville, KY 42240", "city": "Hopkinsville", "state": "Kentucky", "state_code": "KY", "phone": "+1 270-889-6025", "website": "", "rating": "", "reviews": "", "place_id": "ChIJYb5I-pc2ZYgRXQGIM8YMXK4", "latitude": 36.8628991, "longitude": -87.4500851, "subtypes": "Neurologist"}, {"name": "Dr. Srinivasan Periyanayagam, MD", "address": "390 W 17th St, Hopkinsville, KY 42240", "city": "Hopkinsville", "state": "Kentucky", "state_code": "KY", "phone": "+1 270-886-1944", "website": "", "rating": 3.6, "reviews": 8, "place_id": "ChIJv96zS2c0ZYgRN_UxK80LDSQ", "latitude": 36.8622516, "longitude": -87.4947438, "subtypes": "Neurosurgeon"}, {"name": "Joseph Oropilla, MD", "address": "101 Financial Dr #210, Elizabethtown, KY 42701", "city": "Elizabethtown", "state": "Kentucky", "state_code": "KY", "phone": "+1 270-706-5515", "website": "https://www.chisaintjosephhealth.org/body.cfm%3Fid%3D5120%26action%3Ddetail%26ref%3D2811%26utm_source%3Dlocal-listing%26utm_medium%3Dorganic%26utm_campaign%3Dwebsite-link", "rating": 2.9, "reviews": 21, "place_id": "ChIJDxXjPezoaIgRIvbr23fv1Pg", "latitude": 37.5866571, "longitude": -86.7102847, "subtypes": "Neurologist"}, {"name": "Thad Jackson, M.D.", "address": "101 Financial Dr #200, Elizabethtown, KY 42701", "city": "Elizabethtown", "state": "Kentucky", "state_code": "KY", "phone": "+1 270-706-5515", "website": "https://www.baptisthealth.com/providers/thad-r-jackson-md-neurosurgery", "rating": 3.9, "reviews": 34, "place_id": "ChIJR0kf3WnoaIgRFw4Apqldysk", "latitude": 37.7309533, "longitude": -85.85074829999999, "subtypes": "Neurosurgeon"}, {"name": "Norton Neuroscience Institute - Neurosurgery - Elizabethtown", "address": "2410 Ring Rd Ste 500, Elizabethtown, KY 42701", "city": "Elizabethtown", "state": "Kentucky", "state_code": "KY", "phone": "+1 502-583-1697", "website": "", "rating": "", "reviews": "", "place_id": "ChIJkWJMn-vpaIgRp38zwjLJXrU", "latitude": 37.7330603, "longitude": -85.8459843, "subtypes": "Neurosurgeon"}, {"name": "Ajmal Bangash MD", "address": "101 Financial Dr #210, Elizabethtown, KY 42701", "city": "Elizabethtown", "state": "Kentucky", "state_code": "KY", "phone": "+1 270-706-5515", "website": "https://www.baptisthealth.com/providers/ajmal-hussain-bangash-md-neurology%3Futm_source%3Dgoogle%26utm_medium%3Dorganic%26utm_content%3Dgbp-website%26utm_campaign%3D25-pro-gbp-listing", "rating": 1, "reviews": 1, "place_id": "ChIJP6EMsZTpaIgR38SiwfKzb6s", "latitude": 37.7310309, "longitude": -85.8509693, "subtypes": "Neurologist"}, {"name": "Jason Hall, MD", "address": "101 Financial Dr #210, Elizabethtown, KY 42701", "city": "Elizabethtown", "state": "Kentucky", "state_code": "KY", "phone": "+1 270-706-5515", "website": "https://www.baptisthealth.com/providers/jason-robert-hall-md-neurosurgery%3Futm_source%3Dgoogle%26utm_medium%3Dorganic%26utm_content%3Dgbp-website%26utm_campaign%3D025-pro-gbp-listing", "rating": 5, "reviews": 1, "place_id": "ChIJP8-21rLpaIgRFT8zm5zRsdY", "latitude": 37.7310309, "longitude": -85.8509693, "subtypes": "Neurosurgeon"}, {"name": "Heather Ruccio, PA-C", "address": "1111 Ring Rd, Elizabethtown, KY 42701", "city": "Elizabethtown", "state": "Kentucky", "state_code": "KY", "phone": "+1 270-706-5515", "website": "", "rating": 1, "reviews": 1, "place_id": "ChIJR0kf3WnoaIgRPUXCWfbIEvc", "latitude": 37.7180425, "longitude": -85.9013974, "subtypes": "Neurologist"}, {"name": "Vinay Puri, MD", "address": "2412 Ring Rd, Elizabethtown, KY 42701", "city": "Elizabethtown", "state": "Kentucky", "state_code": "KY", "phone": "+1 270-769-1935", "website": "https://providers.nortonchildrens.com/provider/Vinay%2BPuri/501317%3Futm_source%3Dthird-party%26utm_medium%3Dlistings%26utm_content%3Dprovider-profile%26utm_campaign%3Dnc-dtc", "rating": "", "reviews": "", "place_id": "ChIJSTqSSAzvaIgRDVgELFhx4uo", "latitude": 37.7330378, "longitude": -85.8453445, "subtypes": "Pediatric neurologist"}, {"name": "Thong Pham, MD", "address": "1239 Woodland Dr Suite 114, Elizabethtown, KY 42701", "city": "Elizabethtown", "state": "Kentucky", "state_code": "KY", "phone": "+1 270-506-4087", "website": "https://uoflhealth.org/provider/thong-pham/", "rating": "", "reviews": "", "place_id": "ChIJRQwTjl3paIgRKD8dPJaXz2o", "latitude": 37.7208391, "longitude": -85.8827439, "subtypes": "Neurologist"}, {"name": "Lindsay Rebekah Pattison,", "address": "2670 Chancellor Dr Suite 100, Crestview Hills, KY 41017", "city": "Crestview Hills", "state": "Kentucky", "state_code": "KY", "phone": "+1 859-957-0052", "website": "https://www.stelizabethphysicians.com/care/providers/bio/lindsay-pattison-do", "rating": 4, "reviews": 9, "place_id": "ChIJW086zNu5QYgRWzH7k5J2XYA", "latitude": 39.0245304, "longitude": -84.5580061, "subtypes": "Neurologist"}, {"name": "Kyle Andrew Darpel,", "address": "2670 Chancellor Dr Suite 100, Crestview Hills, KY 41017", "city": "Crestview Hills", "state": "Kentucky", "state_code": "KY", "phone": "+1 859-957-0052", "website": "https://www.stelizabethphysicians.com/care/providers/bio/kyle-darpel", "rating": "", "reviews": "", "place_id": "ChIJ30zDvzO5QYgRbXH5JncSZNs", "latitude": 39.0245003, "longitude": -84.5580873, "subtypes": "Neurologist"}, {"name": "Robert F. James, MD", "address": "544 Centre View Blvd, Crestview Hills, KY 41017", "city": "Crestview Hills", "state": "Kentucky", "state_code": "KY", "phone": "+1 513-221-1100", "website": "https://mayfieldclinic.com/mc_bios/bio_james.htm", "rating": 5, "reviews": 10, "place_id": "ChIJx5sUhtlQa4gR57QNUDlZr4Y", "latitude": 39.0223824, "longitude": -84.5593201, "subtypes": "Neurosurgeon"}, {"name": "David M. Ritter MD, PhD", "address": "2765 Chapel Pl, Crestview Hills, KY 41017", "city": "Crestview Hills", "state": "Kentucky", "state_code": "KY", "phone": "+1 859-344-5390", "website": "https://www.cincinnatichildrens.org/bio/r/david-ritter%3Futm_source%3Dgoogle%26utm_medium%3Dorganic%26utm_campaign%3Dprofile_listing", "rating": "", "reviews": "", "place_id": "ChIJH3i-eKu5QYgRJwtkCO7sq2Y", "latitude": 39.0242784, "longitude": -84.5629263, "subtypes": "Neurologist"}, {"name": "Christopher David Wood,", "address": "1 Medical Village Dr, Edgewood, KY 41017", "city": "Edgewood", "state": "Kentucky", "state_code": "KY", "phone": "+1 859-957-0052", "website": "https://www.stelizabethphysicians.com/care/providers/bio/christopher-wood", "rating": "", "reviews": "", "place_id": "ChIJC4wl2yK5QYgRGQe6utxiaH8", "latitude": 39.0131557, "longitude": -84.5618867, "subtypes": "Neurologist"}, {"name": "James P. Farrell, MD", "address": "320 Thomas More Pkwy STE B, Crestview Hills, KY 41017", "city": "Crestview Hills", "state": "Kentucky", "state_code": "KY", "phone": "+1 859-341-4266", "website": "http://www.riverhillsneuro.com/physicians/james-p-farrell/", "rating": 1, "reviews": 1, "place_id": "ChIJkRcBxyu4QYgRTwEoQf-fvk8", "latitude": 39.024902, "longitude": -84.568063, "subtypes": "Neurologist"}, {"name": "Daniel L. Gripshover, Ph.D.", "address": "2734 Chancellor Dr STE 101, Crestview Hills, KY 41017", "city": "Crestview Hills", "state": "Kentucky", "state_code": "KY", "phone": "+1 859-426-7800", "website": "", "rating": 3.8, "reviews": 4, "place_id": "ChIJeajv4NO5QYgRYoWbOUpBt-A", "latitude": 39.024203, "longitude": -84.56003319999999, "subtypes": "Neurophysiologist"}, {"name": "Tann Nichols", "address": "544 Centre View Blvd, Crestview Hills, KY 41017", "city": "Crestview Hills", "state": "Kentucky", "state_code": "KY", "phone": "+1 513-221-1100", "website": "https://mayfieldclinic.com/mc_bios/bio_nichols.htm", "rating": 4.3, "reviews": 10, "place_id": "ChIJVVVVyoayQYgROfr2uUmzx48", "latitude": 39.0223824, "longitude": -84.5593201, "subtypes": "Neurosurgeon"}, {"name": "Dr. Robert E. Albright Jr, MD: St. Elizabeth Physicians", "address": "1 Medical Village Dr, Edgewood, KY 41017", "city": "Edgewood", "state": "Kentucky", "state_code": "KY", "phone": "+1 859-301-2237", "website": "http://www.stelizabethphysicians.com/", "rating": "", "reviews": "", "place_id": "ChIJ6SzwTzW4QYgRBaGLA8PDSHc", "latitude": 39.013227, "longitude": -84.562652, "subtypes": "Neurologist"}, {"name": "Rahul Brijballabh Chandak,", "address": "1400 N Grand Ave, Newport, KY 41071", "city": "Newport", "state": "Kentucky", "state_code": "KY", "phone": "+1 859-957-0052", "website": "https://www.stelizabethphysicians.com/care/providers/bio/rahul-chandak/", "rating": "", "reviews": "", "place_id": "ChIJVQq5qnixQYgRariAV6pIGMk", "latitude": 39.0809286, "longitude": -84.4696467, "subtypes": "Neurologist"}, {"name": "Riverhills Healthcare Inc: Feibel John H MD", "address": "320 Thomas More Pkwy, Crestview Hills, KY 41017", "city": "Crestview Hills", "state": "Kentucky", "state_code": "KY", "phone": "+1 859-341-4266", "website": "", "rating": "", "reviews": "", "place_id": "ChIJkRcBxyu4QYgRC5aHytpwmM0", "latitude": 39.0250175, "longitude": -84.5681166, "subtypes": "Neurologist"}, {"name": "Dr. Rachel Korson", "address": "300 S 8th St #301, Murray, KY 42071", "city": "Murray", "state": "Kentucky", "state_code": "KY", "phone": "+1 270-762-1566", "website": "https://www.murrayhospital.org/services/neurology/", "rating": 4.3, "reviews": 18, "place_id": "ChIJF1_cRLdSeogROKRFXH_QmZU", "latitude": 36.606905, "longitude": -88.30916599999999, "subtypes": "Neurologist"}, {"name": "Norton Neuroscience Institute - Neurology - St. Matthews", "address": "3991 Dutchmans Ln Suite 310, Louisville, KY 40207", "city": "Louisville", "state": "Kentucky", "state_code": "KY", "phone": "+1 502-583-1697", "website": "https://nortonhealthcare.com/location/loc0000192112%3Futm_source%3Dthird-party%26utm_medium%3Dlistings%26utm_campaign%3Dnni-dtc%26utm_content%3Dlocation-page", "rating": 4, "reviews": 20, "place_id": "ChIJNaO2WM0KaYgRT3ocymeqctc", "latitude": 38.2352791, "longitude": -85.63332609999999, "subtypes": "Neurologist"}, {"name": "St Matthew's Neurology: Melton John W MD", "address": "3900 Kresge Way, St Matthews, KY 40207", "city": "St Matthews", "state": "Kentucky", "state_code": "KY", "phone": "+1 502-899-1193", "website": "", "rating": "", "reviews": "", "place_id": "ChIJ45iRbCt1aYgRdWGnBhJhrcE", "latitude": 38.2375087, "longitude": -85.639521, "subtypes": "Neurologist"}, {"name": "Norton Neuroscience Institute Headache Center - St. Matthews", "address": "3999 Dutchmans Ln #5D, Louisville, KY 40207", "city": "Louisville", "state": "Kentucky", "state_code": "KY", "phone": "+1 502-394-6460", "website": "https://nortonhealthcare.com/location/loc0000192121%3Futm_source%3Dthird-party%26utm_medium%3Dlistings%26utm_campaign%3Dnni-dtc%26utm_content%3Dlocation-page", "rating": 2.6, "reviews": 7, "place_id": "ChIJuZ0btU0LaYgRSssd7NJPMg4", "latitude": 38.2346188, "longitude": -85.63319469999999, "subtypes": "Neurologist"}, {"name": "Norton Neuroscience Institute - Sports Neurology - St. Matthews", "address": "4123 Dutchmans Ln Suite 101, Louisville, KY 40207", "city": "Louisville", "state": "Kentucky", "state_code": "KY", "phone": "+1 502-899-6782", "website": "https://nortonhealthcare.com/location/loc0000192119%3Futm_source%3Dthird-party%26utm_medium%3Dlistings%26utm_campaign%3Dnni-dtc%26utm_content%3Dlocation-page", "rating": "", "reviews": "", "place_id": "ChIJtXKdLpULaYgRpA7_H9Usr1g", "latitude": 38.2361799, "longitude": -85.6313531, "subtypes": "Neurologist"}, {"name": "Norton Children's Neuroscience Institute - St. Matthews", "address": "4123 Dutchmans Ln, Louisville, KY 40207", "city": "Louisville", "state": "Kentucky", "state_code": "KY", "phone": "+1 502-588-3650", "website": "https://nortonchildrens.com/location/loc0000191904%3Futm_source%3Dthird-party%26utm_medium%3Dlistings%26utm_campaign%3Dncni-dtc%26utm_content%3Dlocation-page", "rating": 3.7, "reviews": 3, "place_id": "ChIJT154MTsLaYgR2j_WNyrYd9c", "latitude": 38.2361434, "longitude": -85.6315521, "subtypes": "Pediatric neurologist"}, {"name": "Hussung Family Multiple Sclerosis Center - St. Matthews", "address": "3991 Dutchmans Ln Suite 310, Louisville, KY 40207", "city": "Louisville", "state": "Kentucky", "state_code": "KY", "phone": "+1 502-899-6782", "website": "https://nortonhealthcare.com/location/loc0000191699%3Futm_source%3Dthird-party%26utm_medium%3Dlistings%26utm_campaign%3Dnni-dtc%26utm_content%3Dlocation-page", "rating": 1, "reviews": 2, "place_id": "ChIJXaheTTELaYgRUEt6yIQZqBQ", "latitude": 38.2350991, "longitude": -85.63365759999999, "subtypes": "Neurologist"}, {"name": "Michael Doyle, MD", "address": "4130 Dutchmans Ln Ste 200, St Matthews, KY 40207", "city": "St Matthews", "state": "Kentucky", "state_code": "KY", "phone": "+1 502-897-1794", "website": "https://www.louortho.com/about-us/providers/doyle/", "rating": 4.4, "reviews": 92, "place_id": "ChIJJb6qiyt1aYgRrAb_3ORf5lw", "latitude": 38.2351854, "longitude": -85.6297637, "subtypes": "Neurologist"}, {"name": "Dr. James P. Maynard, MD", "address": "85 N Grand Ave, Fort Thomas, KY 41075", "city": "Fort Thomas", "state": "Kentucky", "state_code": "KY", "phone": "+1 859-572-3452", "website": "", "rating": "", "reviews": "", "place_id": "ChIJ-WVuf7mxQYgRjX2jkxKgob0", "latitude": 39.078225, "longitude": -84.4668834, "subtypes": "Neurologist"}, {"name": "Norton Neuroscience Institute - Neurosurgery - Downtown", "address": "210 E Gray St # 1105, Louisville, KY 40202", "city": "Louisville", "state": "Kentucky", "state_code": "KY", "phone": "+1 502-583-1697", "website": "https://nortonhealthcare.com/location/loc0000192115%3Futm_source%3Dthird-party%26utm_medium%3Dlistings%26utm_campaign%3Dnni-dtc%26utm_content%3Dlocation-page", "rating": 4.9, "reviews": 17, "place_id": "ChIJse8mxrZyaYgRo0WWz600Gwk", "latitude": 38.2464422, "longitude": -85.7505575, "subtypes": "Neurologist"}, {"name": "Norton Neuroscience Institute - Neurology - Downtown", "address": "210 E Gray St Suite 1003, Louisville, KY 40202", "city": "Louisville", "state": "Kentucky", "state_code": "KY", "phone": "+1 502-899-6782", "website": "https://nortonhealthcare.com/location/loc0000192111%3Futm_source%3Dthird-party%26utm_medium%3Dlistings%26utm_campaign%3Dnni-dtc%26utm_content%3Dlocation-page", "rating": 3.3, "reviews": 3, "place_id": "ChIJE8wByLZyaYgRGxQ11QnPVsY", "latitude": 38.2464464, "longitude": -85.750528, "subtypes": "Neurologist"}, {"name": "Norton Neuroscience Institute - Neurology - Brownsboro", "address": "4915 Norton Healthcare Blvd Suite 301, Louisville, KY 40241", "city": "Louisville", "state": "Kentucky", "state_code": "KY", "phone": "+1 502-394-6460", "website": "https://nortonhealthcare.com/location/loc0000213031%3Futm_source%3Dthird-party%26utm_medium%3Dlistings%26utm_campaign%3Dnni-dtc%26utm_content%3Dlocation-page", "rating": 4.7, "reviews": 3, "place_id": "ChIJr0hRpH6faYgR-bHIMVZ429Y", "latitude": 38.3140474, "longitude": -85.5733214, "subtypes": "Neurologist"}, {"name": "Christopher R. Shafer, MD", "address": "401 E Chestnut St Suite 510, Louisville, KY 40202", "city": "Louisville", "state": "Kentucky", "state_code": "KY", "phone": "+1 502-588-4800", "website": "https://uoflhealth.org/provider/christopher-shafer-neurology/", "rating": 4.9, "reviews": 27, "place_id": "ChIJ4aR90rdyaYgRdN91ZAKl-9E", "latitude": 38.2480502, "longitude": -85.7467542, "subtypes": "Neurologist"}, {"name": "Peter Hedera, MD, PhD", "address": "220 Abraham Flexner Way UNIT 606, Louisville, KY 40202", "city": "Louisville", "state": "Kentucky", "state_code": "KY", "phone": "+1 502-588-4800", "website": "https://uoflhealth.org/provider/peter-hedera-neurology/", "rating": 5, "reviews": 28, "place_id": "ChIJJXZiR7dyaYgRV392uI7ooGE", "latitude": 38.2490206, "longitude": -85.7503926, "subtypes": "Neurologist"}, {"name": "Thomas P Sanford, Jr., MD", "address": "3 Audubon Plaza Dr Suite LL2, Louisville, KY 40217", "city": "Louisville", "state": "Kentucky", "state_code": "KY", "phone": "+1 502-454-5044", "website": "https://providers.nortonhealthcare.com/provider/Thomas%2BP%2BSanford/2275502%3Futm_source%3Dthird-party%26utm_medium%3Dlistings%26utm_campaign%3Dnni-dtc%26utm_content%3Dprovider-profile", "rating": 5, "reviews": 11, "place_id": "ChIJ6axTj5gNaYgRFgO5Y2CA06E", "latitude": 38.2151903, "longitude": -85.72264559999999, "subtypes": "Neurologist"}, {"name": "Neurology Multidisciplinary Clinic", "address": "4915 Norton Healthcare Blvd Suite 402, Louisville, KY 40241", "city": "Louisville", "state": "Kentucky", "state_code": "KY", "phone": "+1 502-559-3230", "website": "https://nortonhealthcare.com/location/loc0000192122%3Futm_source%3Dthird-party%26utm_medium%3Dlistings%26utm_campaign%3Dnni-dtc%26utm_content%3Dlocation-page", "rating": 5, "reviews": 3, "place_id": "ChIJ3_VUBc6faYgRXlgv8Ua5kso", "latitude": 38.3142169, "longitude": -85.57332009999999, "subtypes": "Neurologist"}, {"name": "Victoria N. Holiday, MD", "address": "220 Abraham Flexner Way 6th floor, Louisville, KY 40202", "city": "Louisville", "state": "Kentucky", "state_code": "KY", "phone": "+1 502-588-4800", "website": "https://uoflhealth.org/provider/victoria-holiday-neurology/", "rating": 4.6, "reviews": 19, "place_id": "ChIJeeppP5ZzaYgRPUa6O8zM9iw", "latitude": 38.2490206, "longitude": -85.7503926, "subtypes": "Neurologist"}, {"name": "Brent Furnish D.C., Board Certified Chiropractic Functional Neurologist", "address": "13121 Eastpoint Park Blvd #1a, Louisville, KY 40223", "city": "Louisville", "state": "Kentucky", "state_code": "KY", "phone": "+1 502-296-3581", "website": "https://brentfurnishdc.com/", "rating": 4.8, "reviews": 36, "place_id": "ChIJuez7A9qYaYgR1giWkINGwig", "latitude": 38.2796887, "longitude": -85.5160543, "subtypes": "Neurologist"}, {"name": "Norton Children's Neuroscience Institute - Novak Center", "address": "411 E Chestnut St Level 6, Louisville, KY 40202", "city": "Louisville", "state": "Kentucky", "state_code": "KY", "phone": "+1 502-588-3650", "website": "https://nortonchildrens.com/location/loc0000191900%3Futm_source%3Dthird-party%26utm_medium%3Dlistings%26utm_campaign%3Dncni-dtc%26utm_content%3Dlocation-page", "rating": 4.1, "reviews": 24, "place_id": "ChIJnWThM1xzaYgRNBAYGkn4woM", "latitude": 38.2480984, "longitude": -85.7458917, "subtypes": "Pediatric neurologist"}, {"name": "Norton Neuroscience Institute - Audubon", "address": "3 Audubon Plaza Dr Suite LL2, Louisville, KY 40217", "city": "Louisville", "state": "Kentucky", "state_code": "KY", "phone": "+1 502-454-5044", "website": "https://nortonhealthcare.com/location/loc0000192105%3Futm_source%3Dthird-party%26utm_medium%3Dlistings%26utm_campaign%3Dnni-dtc%26utm_content%3Dlocation-page", "rating": 3.7, "reviews": 3, "place_id": "ChIJc8_tu7ZyaYgRSegxnVLMoWQ", "latitude": 38.2150758, "longitude": -85.7215717, "subtypes": "Neurologist"}, {"name": "Norton Neuroscience Institute - Adult Neurodevelopmental Program - Downtown", "address": "210 E Gray St Suite 1003, Louisville, KY 40202", "city": "Louisville", "state": "Kentucky", "state_code": "KY", "phone": "+1 502-899-6782", "website": "https://nortonhealthcare.com/location/loc0000254993%3Futm_source%3Dthird-party%26utm_medium%3Dlistings%26utm_campaign%3Dnni-dtc%26utm_content%3Dlocation-page", "rating": 4, "reviews": 4, "place_id": "ChIJ1ZUM4CkLaYgR2855Kpl7drk", "latitude": 38.2467432, "longitude": -85.75074149999999, "subtypes": "Neurologist"}, {"name": "Martin E. Brown, MD", "address": "401 E Chestnut St Suite 510, Louisville, KY 40202", "city": "Louisville", "state": "Kentucky", "state_code": "KY", "phone": "+1 502-588-4800", "website": "https://uoflhealth.org/provider/martin-brown-neurology/", "rating": 4.5, "reviews": 17, "place_id": "ChIJ4aR90rdyaYgRIGosDafX0HU", "latitude": 38.2480521, "longitude": -85.7467891, "subtypes": "Neurologist"}, {"name": "Norton Neurology Services", "address": "601 S Floyd St #300, Louisville, KY 40202", "city": "Louisville", "state": "Kentucky", "state_code": "KY", "phone": "+1 502-629-2602", "website": "https://nortonhealthcare.com/services-and-conditions/neurosciences/specialists/", "rating": "", "reviews": "", "place_id": "ChIJ5cmCA7dyaYgRv62SQnBgkz0", "latitude": 38.2475967, "longitude": -85.74895219999999, "subtypes": "Pediatric neurologist"}, {"name": "Norton Children's Neuroimmunology Clinic - Novak Center", "address": "411 E Chestnut St Level 6, Louisville, KY 40202", "city": "Louisville", "state": "Kentucky", "state_code": "KY", "phone": "+1 502-588-3650", "website": "https://nortonchildrens.com/location/LOC0000229239%3Futm_source%3DYext", "rating": 3, "reviews": 25, "place_id": "ChIJVVUV_rZyaYgR2KJweuFlhnE", "latitude": 38.2480984, "longitude": -85.7458917, "subtypes": "Pediatric neurologist"}, {"name": "Norton Neuroscience Institute Cressman Neurological Rehabilitation - Brownsboro", "address": "4915 Norton Healthcare Blvd Suite 401, Louisville, KY 40241", "city": "Louisville", "state": "Kentucky", "state_code": "KY", "phone": "+1 502-446-8520", "website": "https://nortonhealthcare.com/location/loc0000192120%3Futm_source%3Dthird-party%26utm_medium%3Dlistings%26utm_campaign%3Dnni-dtc%26utm_content%3Dlocation-page", "rating": 4.9, "reviews": 9, "place_id": "ChIJcW3bUJyfaYgRYOAfhYuPf-A", "latitude": 38.3142309, "longitude": -85.5733094, "subtypes": "Neurologist"}, {"name": "Brian M Plato, DO", "address": "3999 Dutchmans Ln #5D, Louisville, KY 40207", "city": "Louisville", "state": "Kentucky", "state_code": "KY", "phone": "+1 502-899-6782", "website": "https://providers.nortonhealthcare.com/provider/Brian%2BM%2BPlato/483870%3Futm_source%3Dthird-party%26utm_medium%3Dlistings%26utm_campaign%3Dnni-dtc%26utm_content%3Dprovider-profile", "rating": 4.2, "reviews": 35, "place_id": "ChIJNaO2WM0KaYgRG1ItWEXogSA", "latitude": 38.2346564, "longitude": -85.633127, "subtypes": "Neurologist"}, {"name": "Baptist Health Medical Group Neurology", "address": "3900 Kresge Way STE 56, Louisville, KY 40207", "city": "Louisville", "state": "Kentucky", "state_code": "KY", "phone": "+1 502-895-7265", "website": "https://www.baptisthealth.com/care-services/services/neurology-stroke-care", "rating": 1.5, "reviews": 2, "place_id": "ChIJ0yCIUV11aYgRt8qXodCnFu8", "latitude": 38.2374817, "longitude": -85.6395802, "subtypes": "Neurologist"}, {"name": "Richard A Lewis, MD", "address": "4915 Norton Healthcare Blvd Ste 301, Louisville, KY 40241", "city": "Louisville", "state": "Kentucky", "state_code": "KY", "phone": "+1 502-394-6460", "website": "https://providers.nortonhealthcare.com/provider/Richard%2BA%2BLewis/2351076%3Futm_source%3Dthird-party%26utm_medium%3Dlistings%26utm_campaign%3Dnni-dtc%26utm_content%3Dprovider-profile", "rating": 3.6, "reviews": 10, "place_id": "ChIJ1cbdtzOfaYgR6Gm8iFvqr8Q", "latitude": 38.3140434, "longitude": -85.5733073, "subtypes": "Neurologist"}, {"name": "Norton Neuroscience Institute - Neurosurgery - West Louisville", "address": "850 S 28th St Suite 104, Louisville, KY 40211", "city": "Louisville", "state": "Kentucky", "state_code": "KY", "phone": "+1 502-446-4664", "website": "https://nortonhealthcare.com/location/loc0000211889%3Futm_source%3Dthird-party%26utm_medium%3Dlistings%26utm_campaign%3Dnni-dtc%26utm_content%3Dlocation-page", "rating": "", "reviews": "", "place_id": "ChIJb5yD2YVtaYgRER3B3Jb7cFw", "latitude": 38.24631, "longitude": -85.799573, "subtypes": "Neurosurgeon"}, {"name": "Mike Zhang MD", "address": "4003 Kresge Way Ste 400, Louisville, KY 40207", "city": "Louisville", "state": "Kentucky", "state_code": "KY", "phone": "+1 502-895-7265", "website": "https://www.baptisthealth.com/providers/mike-weng-zhang-md-neurology", "rating": 5, "reviews": 13, "place_id": "ChIJlz2ZA211aYgRQ0cwKPrtfws", "latitude": 38.2394774, "longitude": -85.6399339, "subtypes": "Neurologist"}, {"name": "Michael Alt, DO", "address": "2934 Breckenridge Ln #2, Louisville, KY 40220", "city": "Louisville", "state": "Kentucky", "state_code": "KY", "phone": "+1 502-454-7871", "website": "https://rymaps.xyz/business/michael-alt-do-00x4kq", "rating": 4.3, "reviews": 25, "place_id": "ChIJ4zkBLcUKaYgRhFqsW49NCZk", "latitude": 38.2228432, "longitude": -85.6335082, "subtypes": "Neurologist"}, {"name": "UofL Physicians \u2013 Neurology", "address": "2401 Terra Crossing Blvd Suite 400, Louisville, KY 40245", "city": "Louisville", "state": "Kentucky", "state_code": "KY", "phone": "+1 502-588-4800", "website": "https://uoflhealth.org/locations/uofl-physicians-neurology-2401-terra-crossing/%3Futm_source%3DGMBSocialClimb%26utm_medium%3DUofLPhysicians%25E2%2580%2593Neurology", "rating": "", "reviews": "", "place_id": "ChIJvW3PFvuZaYgRdmqoNoKubwY", "latitude": 38.2738905, "longitude": -85.49547439999999, "subtypes": "Neurologist"}, {"name": "Norton Neuroscience Institute Memory Center", "address": "4915 Norton Healthcare Blvd Suite 301, Louisville, KY 40241", "city": "Louisville", "state": "Kentucky", "state_code": "KY", "phone": "+1 502-394-6390", "website": "https://nortonhealthcare.com/services-and-conditions/neurosciences/programs/memory-center/", "rating": "", "reviews": "", "place_id": "ChIJgY4WwfefaYgRItaiWivIg3M", "latitude": 38.3143034, "longitude": -85.57327289999999, "subtypes": "Neurologist"}, {"name": "Alexi R. Hernandez, MD", "address": "401 E Chestnut St Suite 510, Louisville, KY 40202", "city": "Louisville", "state": "Kentucky", "state_code": "KY", "phone": "+1 502-588-4800", "website": "https://uoflhealth.org/provider/alexi-hernandez-neurology/", "rating": 4.6, "reviews": 16, "place_id": "ChIJ4aR90rdyaYgRI-HGTnNSnQI", "latitude": 38.2480521, "longitude": -85.7467891, "subtypes": "Neurologist"}, {"name": "Geeta A Ganesh, MD,MPH", "address": "3991 Dutchmans Ln Suite 310, Louisville, KY 40207", "city": "Louisville", "state": "Kentucky", "state_code": "KY", "phone": "+1 502-899-6782", "website": "https://providers.nortonhealthcare.com/provider/Geeta%2BA%2BGanesh/475289%3Futm_source%3Dthird-party%26utm_medium%3Dlistings%26utm_campaign%3Dnni-dtc%26utm_content%3Dprovider-profile", "rating": 3.6, "reviews": 19, "place_id": "ChIJc5-prDJ1aYgRm7MyOYdIlN4", "latitude": 38.2352875, "longitude": -85.6329313, "subtypes": "Neurologist"}, {"name": "Akshitkumar Mistry, MD", "address": "225 Abraham Flexner Way Suite 505, Louisville, KY 40202", "city": "Louisville", "state": "Kentucky", "state_code": "KY", "phone": "+1 502-588-2160", "website": "https://uoflhealth.org/provider/akshitkumar-mistry-neurosurgery/", "rating": 5, "reviews": 16, "place_id": "ChIJp_7TLaFzaYgRRgMAbhosPrc", "latitude": 38.24999, "longitude": -85.7505619, "subtypes": "Neurologist"}, {"name": "Vinay Puri, MD", "address": "411 E Chestnut St Level 6, Louisville, KY 40202", "city": "Louisville", "state": "Kentucky", "state_code": "KY", "phone": "+1 502-588-3650", "website": "https://providers.nortonchildrens.com/provider/Vinay%2BPuri/501317%3Futm_source%3Dthird-party%26utm_medium%3Dlistings%26utm_campaign%3Dncni-dtc%26utm_content%3Dprovider-profile", "rating": 4.5, "reviews": 25, "place_id": "ChIJZcmCA7dyaYgRvz3cYBi3sCQ", "latitude": 38.2478863, "longitude": -85.74645129999999, "subtypes": "Pediatric neurologist"}, {"name": "Justin T Phillips, MD", "address": "4915 Norton Healthcare Blvd Suite 301, Louisville, KY 40241", "city": "Louisville", "state": "Kentucky", "state_code": "KY", "phone": "+1 502-394-6460", "website": "https://providers.nortonhealthcare.com/provider/Justin%2BT%2BPhillips/485599%3Futm_source%3Dthird-party%26utm_medium%3Dlistings%26utm_campaign%3Dnni-dtc%26utm_content%3Dprovider-profile", "rating": 5, "reviews": 5, "place_id": "ChIJJZ_FO--faYgRKyRgF5DRESs", "latitude": 38.3140436, "longitude": -85.57330739999999, "subtypes": "Neurologist"}, {"name": "Thomas M Moriarty, MD", "address": "210 E Gray St # 1105, Louisville, KY 40202", "city": "Louisville", "state": "Kentucky", "state_code": "KY", "phone": "+1 502-583-1697", "website": "https://providers.nortonchildrens.com/provider/Thomas%2BM%2BMoriarty/504079%3Futm_source%3Dthird-party%26utm_medium%3Dlistings%26utm_campaign%3Dncni-dtc%26utm_content%3Dprovider-profile", "rating": 5, "reviews": 17, "place_id": "ChIJse8mxrZyaYgRPCfwX-twBy8", "latitude": 38.2464421, "longitude": -85.75053679999999, "subtypes": "Neurosurgeon"}, {"name": "Michael K. Sowell, MD", "address": "401 E Chestnut St Suite 510, Louisville, KY 40202", "city": "Louisville", "state": "Kentucky", "state_code": "KY", "phone": "+1 502-588-4800", "website": "https://uoflhealth.org/provider/michael-sowell-neurology/", "rating": 4.3, "reviews": 21, "place_id": "ChIJZcmCA7dyaYgRCkY6UDmlfx4", "latitude": 38.2480502, "longitude": -85.7467542, "subtypes": "Neurologist"}, {"name": "Gregory E Cooper, MD, Ph.D.", "address": "4915 Norton Healthcare Blvd Suite 301, Louisville, KY 40241", "city": "Louisville", "state": "Kentucky", "state_code": "KY", "phone": "+1 502-394-6460", "website": "https://providers.nortonhealthcare.com/provider/Gregory%2BE%2BCooper/472624%3Futm_source%3Dthird-party%26utm_medium%3Dlistings%26utm_campaign%3Dnni-dtc%26utm_content%3Dprovider-profile", "rating": 3.7, "reviews": 6, "place_id": "ChIJDSZLnXaeaYgR4YyGz7gIRr4", "latitude": 38.3141724, "longitude": -85.57334379999999, "subtypes": "Neurologist"}, {"name": "Dale Ding, MD", "address": "225 Abraham Flexner Way Suite 505, Louisville, KY 40202", "city": "Louisville", "state": "Kentucky", "state_code": "KY", "phone": "+1 502-588-2160", "website": "https://uoflhealth.org/provider/dale-ding-neurosurgery/", "rating": 4.8, "reviews": 12, "place_id": "ChIJ_81gnhJzaYgRph-cwjzCmQE", "latitude": 38.24999, "longitude": -85.7505619, "subtypes": "Neurosurgeon"}, {"name": "Brittany Walker, DNP, APRN, FNP-C", "address": "6400 Dutchmans Pkwy #140, Louisville, KY 40205", "city": "Louisville", "state": "Kentucky", "state_code": "KY", "phone": "+1 502-721-5899", "website": "https://uoflhealth.org/provider/brittany-walker-neurology/", "rating": 5, "reviews": 44, "place_id": "ChIJxYsVVgULaYgRiux5hOqnULA", "latitude": 38.2290425, "longitude": -85.6413192, "subtypes": "Neurologist"}, {"name": "Greg Smith MD", "address": "4003 Kresge Way Ste 400, Louisville, KY 40207", "city": "Louisville", "state": "Kentucky", "state_code": "KY", "phone": "+1 502-895-7265", "website": "https://www.baptisthealth.com/providers/greg-nelson-smith-md-neurology%3Futm_source%3Dgoogle%26utm_medium%3Dorganic%26utm_content%3Dgbp-website%26utm_campaign%3D025-pro-gbp-listing", "rating": 3.3, "reviews": 7, "place_id": "ChIJkamKbCt1aYgRlGz2mXIFEOQ", "latitude": 38.2394774, "longitude": -85.6399339, "subtypes": "Neurologist"}, {"name": "Gaurav Rajashekar, MBBS", "address": "220 Abraham Flexner Way 3rd Floor, Louisville, KY 40202", "city": "Louisville", "state": "Kentucky", "state_code": "KY", "phone": "+1 502-587-4939", "website": "https://uoflhealth.org/provider/gaurav-rajashekar-nephrology/", "rating": 5, "reviews": 1, "place_id": "ChIJSeVo2J9zaYgRJiIpyXN-W54", "latitude": 38.2490803, "longitude": -85.75042839999999, "subtypes": "Neurologist"}, {"name": "Michael L Sweeney, MD", "address": "411 E Chestnut St Level 6, Louisville, KY 40202", "city": "Louisville", "state": "Kentucky", "state_code": "KY", "phone": "+1 502-588-3650", "website": "https://providers.nortonhealthcare.com/provider/Michael%2BL%2BSweeney/496328%3Futm_source%3Dthird-party%26utm_medium%3Dlistings%26utm_campaign%3Dncni-dtc%26utm_content%3Dprovider-profile", "rating": 5, "reviews": 1, "place_id": "ChIJSyMGt8pzaYgRsizTzhFBy7c", "latitude": 38.2478863, "longitude": -85.74645129999999, "subtypes": "Neurologist"}, {"name": "Emily P. Sieg, MD, MS", "address": "225 Abraham Flexner Way Suite 505, Louisville, KY 40202", "city": "Louisville", "state": "Kentucky", "state_code": "KY", "phone": "+1 502-588-2160", "website": "https://uoflhealth.org/provider/emily-sieg-neurosurgery/", "rating": 4.9, "reviews": 12, "place_id": "ChIJB4VRXSFzaYgRQoaeSvyV_7o", "latitude": 38.24999, "longitude": -85.7505619, "subtypes": "Neurosurgeon"}, {"name": "David A Robertson, MD", "address": "3991 Dutchmans Ln, Louisville, KY 40207", "city": "Louisville", "state": "Kentucky", "state_code": "KY", "phone": "+1 502-899-6782", "website": "https://providers.nortonhealthcare.com/provider/David%2BA%2BRobertson/505886%3Futm_source%3Dthird-party%26utm_medium%3Dlistings%26utm_campaign%3Dnni-dtc%26utm_content%3Dprovider-profile", "rating": 3.7, "reviews": 3, "place_id": "ChIJ0b3YpUELaYgRcJ_1Brl1IoU", "latitude": 38.2350225, "longitude": -85.6334734, "subtypes": "Neurologist"}, {"name": "Dr. Cameron S. Luo, MD", "address": "3 Audubon Plaza Dr #320, Louisville, KY 40217", "city": "Louisville", "state": "Kentucky", "state_code": "KY", "phone": "+1 502-636-8095", "website": "", "rating": 3, "reviews": 4, "place_id": "ChIJtwLMC-EMaYgRu4G19Wty57o", "latitude": 38.2152513, "longitude": -85.7228422, "subtypes": "Neurologist"}, {"name": "Christopher R Barton, MD", "address": "411 E Chestnut St Level 6, Louisville, KY 40202", "city": "Louisville", "state": "Kentucky", "state_code": "KY", "phone": "+1 502-588-3650", "website": "https://providers.nortonchildrens.com/provider/Christopher%2BR%2BBarton/467337%3Futm_source%3Dthird-party%26utm_medium%3Dlistings%26utm_campaign%3Dncni-dtc%26utm_content%3Dprovider-profile", "rating": 5, "reviews": 5, "place_id": "ChIJJY5-f5ZzaYgRhKlpb4n0hq0", "latitude": 38.2478863, "longitude": -85.74645129999999, "subtypes": "Pediatric neurologist"}, {"name": "Nasir Fakhri, MD", "address": "401 E Chestnut St Suite 510, Louisville, KY 40202", "city": "Louisville", "state": "Kentucky", "state_code": "KY", "phone": "+1 502-588-4800", "website": "https://uoflhealth.org/provider/nasir-fakhri-neurology/", "rating": 4.7, "reviews": 3, "place_id": "ChIJfxih1a1awokRa5rU_qwPOOM", "latitude": 38.2480502, "longitude": -85.7467542, "subtypes": "Neurologist"}, {"name": "Norton Audubon Hospital - Neurodiagnostics", "address": "1 Audubon Plaza Dr, Louisville, KY 40217", "city": "Louisville", "state": "Kentucky", "state_code": "KY", "phone": "+1 502-636-7278", "website": "https://nortonhealthcare.com/location/loc0000191718%3Futm_source%3Dthird-party%26utm_medium%3Dlistings%26utm_campaign%3Dnni-dtc%26utm_content%3Dlocation-page", "rating": "", "reviews": "", "place_id": "ChIJA6wJZ04NaYgRvNrcIkinVUg", "latitude": 38.2150486, "longitude": -85.7223853, "subtypes": "Neurologist"}, {"name": "Dr. Gregory Barnes", "address": "601 S Floyd St, Louisville, KY 40202", "city": "Louisville", "state": "Kentucky", "state_code": "KY", "phone": "+1 502-588-3650", "website": "http://www.uoflphysicians.com/1962599092-gregory-barnes", "rating": 5, "reviews": 3, "place_id": "ChIJ_9FwA7dyaYgRJianUU2bbGY", "latitude": 38.2475935, "longitude": -85.7489346, "subtypes": "Neurologist"}, {"name": "David Freeman, M.D., Ph.D.", "address": "225 Abraham Flexner Way Suite 505, Louisville, KY 40202", "city": "Louisville", "state": "Kentucky", "state_code": "KY", "phone": "+1 502-588-2160", "website": "https://uoflhealth.org/provider/david-freeman-neurosurgery/", "rating": 5, "reviews": 10, "place_id": "ChIJLbEaAfxzaYgR5bEj_BeqWCM", "latitude": 38.24999, "longitude": -85.7505619, "subtypes": "Neurosurgeon"}, {"name": "Norton Neuroscience Institute Resource Center - Brownsboro", "address": "4915 Norton Healthcare Blvd Suite 405, Louisville, KY 40241", "city": "Louisville", "state": "Kentucky", "state_code": "KY", "phone": "+1 502-559-3221", "website": "https://nortonhealthcare.com/location/loc0000205578%3Futm_source%3Dthird-party%26utm_medium%3Dlistings%26utm_campaign%3Dnni-dtc%26utm_content%3Dlocation-page", "rating": "", "reviews": "", "place_id": "ChIJ8-jwv5efaYgRzYqKK0PrPvg", "latitude": 38.3140909, "longitude": -85.5732736, "subtypes": "Neurologist"}, {"name": "Mohammad S Alsorogi, MD", "address": "210 E Gray St Suite 1003, Louisville, KY 40202", "city": "Louisville", "state": "Kentucky", "state_code": "KY", "phone": "+1 502-629-2602", "website": "https://providers.nortonhealthcare.com/provider/Mohammad%2BS%2BAlsorogi/469463%3Futm_source%3Dthird-party%26utm_medium%3Dlistings%26utm_campaign%3Dnni-dtc%26utm_content%3Dprovider-profile", "rating": 4.5, "reviews": 8, "place_id": "ChIJ5cmCA7dyaYgRJ0p3IruAB-w", "latitude": 38.2464234, "longitude": -85.75025889999999, "subtypes": "Neurologist"}, {"name": "Dylan C Brock, MD", "address": "411 E Chestnut St Level 6, Louisville, KY 40202", "city": "Louisville", "state": "Kentucky", "state_code": "KY", "phone": "+1 502-588-3650", "website": "https://providers.nortonchildrens.com/provider/Dylan%2BC%2BBrock/1978354%3Futm_source%3Dthird-party%26utm_medium%3Dlistings%26utm_campaign%3Dncni-dtc%26utm_content%3Dprovider-profile", "rating": 5, "reviews": 2, "place_id": "ChIJHSjyUlhzaYgR2wSxb9RCWqU", "latitude": 38.2478863, "longitude": -85.74645129999999, "subtypes": "Pediatric neurologist"}, {"name": "Norton Children's Neuroscience Institute - Tuberous Sclerosis Clinic - Novak Center", "address": "411 E Chestnut St Level 4B-6B, Louisville, KY 40202", "city": "Louisville", "state": "Kentucky", "state_code": "KY", "phone": "+1 502-588-3650", "website": "https://nortonchildrens.com/location/LOC0000191905%3Futm_source%3DYext", "rating": 5, "reviews": 1, "place_id": "ChIJKZ0ftlFzaYgR5O3F-njkgF4", "latitude": 38.2485807, "longitude": -85.7464055, "subtypes": "Pediatric neurologist"}, {"name": "Nadeem A Talpur, MD", "address": "210 E Gray St Suite 1003, Louisville, KY 40202", "city": "Louisville", "state": "Kentucky", "state_code": "KY", "phone": "+1 502-629-2602", "website": "https://providers.nortonhealthcare.com/provider/Nadeem%2BA%2BTalpur/470240%3Futm_source%3Dthird-party%26utm_medium%3Dlistings%26utm_campaign%3Dnni-dtc%26utm_content%3Dprovider-profile", "rating": 5, "reviews": 3, "place_id": "ChIJZcmCA7dyaYgRr626RjaxeNI", "latitude": 38.2464316, "longitude": -85.7505099, "subtypes": "Neurologist"}, {"name": "Thomas Altstadt, MD, FAANS", "address": "200 Abraham Flexner Way, Louisville, KY 40202", "city": "Louisville", "state": "Kentucky", "state_code": "KY", "phone": "+1 502-587-4011", "website": "https://uoflhealth.org/provider/thomas-altstadt-neurosurgery/", "rating": 4.3, "reviews": 6, "place_id": "ChIJhztQn0x6z1QRNKXsuw_x-9Y", "latitude": 38.2492273, "longitude": -85.7511432, "subtypes": "Neurosurgeon"}, {"name": "Burton Eric C MD", "address": "401 E Chestnut St # 270, Louisville, KY 40202", "city": "Louisville", "state": "Kentucky", "state_code": "KY", "phone": "+1 502-589-0802", "website": "http://www.uoflphysicians.com/", "rating": 1, "reviews": 1, "place_id": "ChIJ4aR90rdyaYgRryuXH4jfGbY", "latitude": 38.2480482, "longitude": -85.7467195, "subtypes": "Neurologist"}, {"name": "Adolfo Ramirez-Zamora, M.D.", "address": "220 Abraham Flexner Way UNIT 606, Louisville, KY 40202", "city": "Louisville", "state": "Kentucky", "state_code": "KY", "phone": "+1 502-588-4800", "website": "https://uoflhealth.org/provider/adolfo-ramirez-zamora-neurologist/%3Futm_source%3DGMBSocialClimb%26utm_medium%3DAdolfoRamirez-Zamora%252CM.D.", "rating": "", "reviews": "", "place_id": "ChIJr6QsP-tzaYgRDsDAMIBrZ18", "latitude": 38.2490206, "longitude": -85.7503926, "subtypes": "Neurologist"}, {"name": "Vishwanath Sagi, MD", "address": "401 E Chestnut St Suite 510, Louisville, KY 40202", "city": "Louisville", "state": "Kentucky", "state_code": "KY", "phone": "+1 502-588-4800", "website": "https://uoflhealth.org/provider/vishwanath-sagi/", "rating": 3, "reviews": 6, "place_id": "ChIJf68a77dyaYgRmDZgyhxxlno", "latitude": 38.2480521, "longitude": -85.7467891, "subtypes": "Neurologist"}, {"name": "Vishwanath Sagi, M.D.", "address": "200 Abraham Flexner Way, Louisville, KY 40202", "city": "Louisville", "state": "Kentucky", "state_code": "KY", "phone": "+1 502-587-4011", "website": "https://uoflhealth.org/provider/vishwanath-sagi-neurologist/%3Futm_source%3DGMBSocialClimb%26utm_medium%3DVishwanathSagi%252CM.D.", "rating": 5, "reviews": 1, "place_id": "ChIJ8yMr96JzaYgRs5cptX-D3Y4", "latitude": 38.2492273, "longitude": -85.7511432, "subtypes": "Neurologist"}, {"name": "Joseph Neimat, MD, MS", "address": "225 Abraham Flexner Way Suite 505, Louisville, KY 40202", "city": "Louisville", "state": "Kentucky", "state_code": "KY", "phone": "+1 502-588-2160", "website": "https://uoflhealth.org/provider/joseph-neimat-neurosurgery/", "rating": 5, "reviews": 6, "place_id": "ChIJLda7uNMKaYgRGJhwk8HEIrg", "latitude": 38.24999, "longitude": -85.7505619, "subtypes": "Neurosurgeon"}, {"name": "William C Gump, MD", "address": "210 E Gray St # 1105, Louisville, KY 40202", "city": "Louisville", "state": "Kentucky", "state_code": "KY", "phone": "+1 502-583-1697", "website": "https://providers.nortonchildrens.com/provider/William%2BC%2BGump/498644%3Futm_source%3Dthird-party%26utm_medium%3Dlistings%26utm_campaign%3Dncni-dtc%26utm_content%3Dprovider-profile", "rating": 4.9, "reviews": 8, "place_id": "ChIJse8mxrZyaYgRaR2x3LIiwCM", "latitude": 38.2464656, "longitude": -85.75051859999999, "subtypes": "Neurosurgeon"}, {"name": "Gregory Neal Barnes", "address": "200 E Chestnut St, Louisville, KY 40202", "city": "Louisville", "state": "Kentucky", "state_code": "KY", "phone": "+1 502-588-4940", "website": "", "rating": "", "reviews": "", "place_id": "ChIJtfHT17ZyaYgRR3Hf2wgoR_0", "latitude": 38.2477538, "longitude": -85.7507854, "subtypes": "Neurologist"}, {"name": "Choucair Ali K MD", "address": "676 S Floyd St, Louisville, KY 40202", "city": "Louisville", "state": "Kentucky", "state_code": "KY", "phone": "", "website": "http://nortonhealthcare.com/", "rating": 1, "reviews": 2, "place_id": "ChIJfecPmrZyaYgRUx_DaAqfF-w", "latitude": 38.2458162, "longitude": -85.75004109999999, "subtypes": "Neurologist"}, {"name": "Ahmad Marashly, MD", "address": "411 E Chestnut St Level 6, Louisville, KY 40202", "city": "Louisville", "state": "Kentucky", "state_code": "KY", "phone": "+1 502-588-3650", "website": "https://providers.nortonchildrens.com/provider/Ahmad%2BMarashly/6811990%3Futm_source%3Dthird-party%26utm_medium%3Dlistings%26utm_campaign%3Dncni-dtc%26utm_content%3Dprovider-profile", "rating": "", "reviews": "", "place_id": "ChIJ-a5yKshyaYgR3tSm2Zj8v4M", "latitude": 38.2478863, "longitude": -85.74645129999999, "subtypes": "Pediatric neurologist"}, {"name": "Norton Neuroscience Institute - Shelbyville", "address": "150 Frankfort Rd Suite 104B, Shelbyville, KY 40065", "city": "Shelbyville", "state": "Kentucky", "state_code": "KY", "phone": "+1 502-899-6782", "website": "https://nortonhealthcare.com/location/loc0000192118%3Futm_source%3Dthird-party%26utm_medium%3Dlistings%26utm_campaign%3Dnni-dtc%26utm_content%3Dlocation-page", "rating": "", "reviews": "", "place_id": "ChIJ52-hKwnBaYgRgNJf1f6kg8U", "latitude": 38.2092753, "longitude": -85.2051898, "subtypes": "Neurologist"}, {"name": "Timir Banerjee, MD, FACS", "address": "225 Abraham Flexner Way Suite 505, Louisville, KY 40202", "city": "Louisville", "state": "Kentucky", "state_code": "KY", "phone": "+1 502-588-2160", "website": "https://uoflhealth.org/provider/timir-banerjee/", "rating": 5, "reviews": 2, "place_id": "ChIJQYIJYTZzaYgReSWtOunLmQQ", "latitude": 38.24999, "longitude": -85.7505619, "subtypes": "Neurosurgeon"}, {"name": "Saad Hasan, MD", "address": "220 Abraham Flexner Way 6th floor, Louisville, KY 40202", "city": "Louisville", "state": "Kentucky", "state_code": "KY", "phone": "+1 502-588-4800", "website": "https://uoflhealth.org/provider/raja-kaikaus/", "rating": "", "reviews": "", "place_id": "ChIJLx0zGBtzaYgRHngENS155HU", "latitude": 38.2490206, "longitude": -85.7503926, "subtypes": "Neurologist"}, {"name": "Dr. Maria Koutourousiou, MD", "address": "220 Abraham Flexner Way #12, Louisville, KY 40202", "city": "Louisville", "state": "Kentucky", "state_code": "KY", "phone": "+1 502-899-3623", "website": "http://www.uoflphysicians.com/1093081713-maria-koutourousiou", "rating": "", "reviews": "", "place_id": "ChIJkccBSbdyaYgRY2jaNPOOqig", "latitude": 38.2490206, "longitude": -85.7503926, "subtypes": "Neurosurgeon"}, {"name": "Yao Tom L MD", "address": "210 E Gray St UNIT 1002, Louisville, KY 40202", "city": "Louisville", "state": "Kentucky", "state_code": "KY", "phone": "+1 502-584-2029", "website": "", "rating": 5, "reviews": 1, "place_id": "ChIJse8mxrZyaYgRMGZCdCPQOVg", "latitude": 38.2465445, "longitude": -85.75051619999999, "subtypes": "Neurosurgeon"}, {"name": "Thomas W Johnson, MD", "address": "3 Audubon Plaza Dr, Louisville, KY 40217", "city": "Louisville", "state": "Kentucky", "state_code": "KY", "phone": "+1 502-454-5044", "website": "https://providers.nortonhealthcare.com/provider/Thomas%2BW%2BJohnson/517120%3Futm_source%3Dthird-party%26utm_medium%3Dlistings%26utm_campaign%3Dnni-dtc%26utm_content%3Dprovider-profile", "rating": "", "reviews": "", "place_id": "ChIJt_JOKzoNaYgRsZ-_qtLuh20", "latitude": 38.2151903, "longitude": -85.72264559999999, "subtypes": "Neurologist"}, {"name": "Maxwell Boakye, MD, MPH, MBA, FACS, FAANS", "address": "225 Abraham Flexner Way Suite 505, Louisville, KY 40202", "city": "Louisville", "state": "Kentucky", "state_code": "KY", "phone": "+1 502-588-2160", "website": "https://uoflhealth.org/provider/maxwell-boakye-neurosurgery/", "rating": 5, "reviews": 2, "place_id": "ChIJ45iRbCt1aYgRltV9-T_Zj1c", "latitude": 38.24999, "longitude": -85.7505619, "subtypes": "Neurosurgeon"}, {"name": "Craig Silverman, MD", "address": "529 S Jackson St, Louisville, KY 40202", "city": "Louisville", "state": "Kentucky", "state_code": "KY", "phone": "+1 502-562-4673", "website": "https://uoflhealth.org/provider/craig-silverman/", "rating": 5, "reviews": 1, "place_id": "ChIJI4t8QshyaYgRoXta1N5Muew", "latitude": 38.2489491, "longitude": -85.7441595, "subtypes": "Neurologist"}, {"name": "Bobbi Westbrook, RN", "address": "230 E Broadway, Louisville, KY 40202", "city": "Louisville", "state": "Kentucky", "state_code": "KY", "phone": "+1 502-629-8990", "website": "", "rating": "", "reviews": "", "place_id": "ChIJ3yD2GuRzaYgRELDCz6GIRAs", "latitude": 38.2450258, "longitude": -85.74997599999999, "subtypes": "Neurosurgeon"},