[{"name": "Paul Atkinson, MD", "address": "2720 Fairview Ave N Suite 100, Roseville, MN 551131306", "city": "Roseville", "state": "Minnesota", "state_code": "MN", "phone": "+1 651-241-5290", "website": "https://mnepilepsy.org/our-team/paul-atkinson/", "rating": 5, "reviews": 45, "place_id": "ChIJ54Aiw_ors1IRB81zOqGz_0E", "latitude": 45.0229575, "longitude": -93.1764003, "subtypes": "Neurologist"}, {"name": "Kinshuk Sahaya, MD", "address": "2720 Fairview Ave N Suite 100, Roseville, MN 551131306", "city": "Roseville", "state": "Minnesota", "state_code": "MN", "phone": "+1 651-241-5290", "website": "https://mnepilepsy.org/our-team/kinshuk-sahaya/", "rating": 4.8, "reviews": 25, "place_id": "ChIJ54Aiw_ors1IRZ4Oyo002Xlk", "latitude": 45.0229575, "longitude": -93.1764003, "subtypes": "Neurologist"}, {"name": "James White, MD", "address": "2720 Fairview Ave N Suite 100, Roseville, MN 551131306", "city": "Roseville", "state": "Minnesota", "state_code": "MN", "phone": "+1 651-241-5290", "website": "https://mnepilepsy.org/our-team/james-white/", "rating": 4.9, "reviews": 35, "place_id": "ChIJ54Aiw_ors1IRxewgKvi-zDs", "latitude": 45.0229575, "longitude": -93.1764003, "subtypes": "Neurologist"}, {"name": "Micaela Chatman, MD", "address": "2720 Fairview Ave N Suite 100, Roseville, MN 55113", "city": "Roseville", "state": "Minnesota", "state_code": "MN", "phone": "+1 651-241-5290", "website": "https://mnepilepsy.org/our-team/micaela-chatman/", "rating": 5, "reviews": 39, "place_id": "ChIJG3KC3LUrs1IR0Q5M--tXBew", "latitude": 45.0229575, "longitude": -93.1764003, "subtypes": "Neurologist"}, {"name": "Syed M. Shahkhan, MD", "address": "11091 Ulysses St NE #100, Blaine, MN 55434", "city": "Blaine", "state": "Minnesota", "state_code": "MN", "phone": "+1 612-879-1000", "website": "http://www.noranclinic.com/our-providers/neurologist-biographies/adult-neurologists/syed-shahkhan", "rating": 4.1, "reviews": 14, "place_id": "ChIJH3kjihEls1IR8K_hz1qtLjg", "latitude": 45.1714202, "longitude": -93.2359434, "subtypes": "Neurologist"}, {"name": "Julie Hanna, MD", "address": "2720 Fairview Ave N Suite 100, Roseville, MN 55113", "city": "Roseville", "state": "Minnesota", "state_code": "MN", "phone": "+1 651-241-5290", "website": "https://mnepilepsy.org/our-team/julie-hanna/", "rating": 4.7, "reviews": 36, "place_id": "ChIJ54Aiw_ors1IRbzczDIAxIXo", "latitude": 45.0229575, "longitude": -93.1764003, "subtypes": "Neurologist"}, {"name": "Heidi Currier, MD", "address": "2720 Fairview Ave N, Roseville, MN 55113", "city": "Roseville", "state": "Minnesota", "state_code": "MN", "phone": "+1 651-241-5290", "website": "https://mnepilepsy.org/our-team/heidi-currier/", "rating": 5, "reviews": 24, "place_id": "ChIJ64Aiw_ors1IRt1zI6gNaF5g", "latitude": 45.0229575, "longitude": -93.17640039999999, "subtypes": "Neurologist"}, {"name": "Stephanie Ahrens, DO", "address": "2720 Fairview Ave N ste 100, Roseville, MN 55113", "city": "Roseville", "state": "Minnesota", "state_code": "MN", "phone": "+1 651-241-5290", "website": "https://mnepilepsy.org/our-team/stephanie-ahrens-do/", "rating": 5, "reviews": 19, "place_id": "ChIJtRPqIaMrs1IRDQ0hLrNHGG0", "latitude": 45.0231434, "longitude": -93.1761042, "subtypes": "Neurologist"}, {"name": "Douglas Smith, MD", "address": "2720 Fairview Ave N Suite 200, Roseville, MN 55113", "city": "Roseville", "state": "Minnesota", "state_code": "MN", "phone": "+1 651-241-5290", "website": "https://mnepilepsy.org/our-team/douglas-smith/", "rating": 5, "reviews": 34, "place_id": "ChIJ64Aiw_ors1IR3HZ0eXjuC58", "latitude": 45.0229575, "longitude": -93.17640039999999, "subtypes": "Neurologist"}, {"name": "John Nasseff Neuroscience Specialty Clinic", "address": "Ritchie Medical Plaza, 310 Smith Ave N Suite 440, St Paul, MN 55102", "city": "St Paul", "state": "Minnesota", "state_code": "MN", "phone": "+1 651-241-6550", "website": "https://account.allinahealth.org/locations/761%3Futm_source%3Dgmb%26utm_medium%3Dorganic%26utm_content%3Dweb-url%26utm_campaign%3Dgmb_website%26utm_term%3DJohn-Nasseff-Neuroscience-Specialty-Clinic", "rating": 4.2, "reviews": 5, "place_id": "ChIJzZ0ozLAq9ocRtyTlr13JMGA", "latitude": 44.9419929, "longitude": -93.1076102, "subtypes": "Neurologist"}, {"name": "Cory E. Sykora, MD", "address": "11091 Ulysses St NE, Blaine, MN 55434", "city": "Blaine", "state": "Minnesota", "state_code": "MN", "phone": "+1 612-879-1000", "website": "https://www.noranclinic.com/our-providers/neurologist-biographies/adult-neurologists/cory-sykora", "rating": 5, "reviews": 1, "place_id": "ChIJJxsycpQls1IRl67eWq72Qdk", "latitude": 45.1714219, "longitude": -93.2359482, "subtypes": "Neurologist"}, {"name": "HealthPartners Neuroscience Center - Neurology", "address": "295 Phalen Blvd, St Paul, MN 55130", "city": "St Paul", "state": "Minnesota", "state_code": "MN", "phone": "+1 651-495-6200", "website": "https://www.healthpartners.com/care/find/location/centers/neuroscience-center/st-paul/neurology/%3Futm_campaign%3Dneuro_locallistings_20m1_care_hp%26utm_source%3Dgooglemybusiness_%26utm_medium%3Dorganic%26utm_content%3Dhealthpartners-neuroscience-center-neurology_localpack_conversion%26utm_term%3D_v1__/", "rating": 3.6, "reviews": 105, "place_id": "ChIJESkBbVLVslIRxojJUmjJIzc", "latitude": 44.96197979999999, "longitude": -93.0882726, "subtypes": "Neurologist"}, {"name": "Fred Lux", "address": "11091 Ulysses St NE #100, Minneapolis, MN 55434", "city": "Minneapolis", "state": "Minnesota", "state_code": "MN", "phone": "+1 612-879-1000", "website": "https://www.noranclinic.com/our-providers/neurologist-biographies/adult-neurologists/fred-lux", "rating": 5, "reviews": 1, "place_id": "ChIJZ93YC3sks1IRri4NuazmqwY", "latitude": 45.171403, "longitude": -93.23598539999999, "subtypes": "Neurologist"}, {"name": "Chad D. Evans, MD", "address": "11091 Ulysses St NE Suite 100, Blaine, MN 55434", "city": "Blaine", "state": "Minnesota", "state_code": "MN", "phone": "+1 612-879-1000", "website": "http://www.noranclinic.com/our-providers/neurologist-biographies/adult-neurologists/chad-evans", "rating": 4.1, "reviews": 17, "place_id": "ChIJBQxjM3kks1IRyt7uxNtV6DM", "latitude": 45.171403, "longitude": -93.23598539999999, "subtypes": "Neurologist"}, {"name": "Jessica Winslow, MD", "address": "2720 Fairview Ave N Suite 100, Roseville, MN 55113", "city": "Roseville", "state": "Minnesota", "state_code": "MN", "phone": "+1 651-241-5290", "website": "https://mnepilepsy.org/our-team/jessica-winslow/", "rating": 5, "reviews": 31, "place_id": "ChIJ54Aiw_ors1IRInznUkSUCyg", "latitude": 45.0229575, "longitude": -93.1764003, "subtypes": "Neurologist"}, {"name": "Dennis Jorgenson-Rathke", "address": "11091 Ulysses St NE #100, Blaine, MN 55434", "city": "Blaine", "state": "Minnesota", "state_code": "MN", "phone": "+1 612-879-1000", "website": "https://www.noranclinic.com/our-providers/advanced-practice-providers-biographies", "rating": "", "reviews": "", "place_id": "ChIJZ93YC3sks1IRjdsM2ExYP0U", "latitude": 45.171403, "longitude": -93.23598539999999, "subtypes": "Neurologist"}, {"name": "Thomas R. Jacques, MD", "address": "1650 Beam Ave # 200, Maplewood, MN 55109", "city": "Maplewood", "state": "Minnesota", "state_code": "MN", "phone": "+1 651-221-9051", "website": "", "rating": 3.8, "reviews": 6, "place_id": "ChIJAcvoNgTUslIRLMh-c4EngXU", "latitude": 45.0275864, "longitude": -93.0310028, "subtypes": "Neurologist"}, {"name": "Dr. Gerald K. Morley, MD", "address": "11091 Ulysses St NE #100, Blaine, MN 55434", "city": "Blaine", "state": "Minnesota", "state_code": "MN", "phone": "+1 612-879-1500", "website": "http://www.noranclinic.com/", "rating": "", "reviews": "", "place_id": "ChIJ0Q1jM3kks1IRrsGDowTM2AE", "latitude": 45.171403, "longitude": -93.23598539999999, "subtypes": "Neurologist"}, {"name": "Allina Health Brain and Spine Institute \u2014 Minneapolis", "address": "Piper Building, 913 E 26th St suite 305, Minneapolis, MN 55407", "city": "Minneapolis", "state": "Minnesota", "state_code": "MN", "phone": "+1 612-863-3200", "website": "https://account.allinahealth.org/locations/12%3Futm_source%3Dgmb%26utm_medium%3Dorganic%26utm_content%3Dweb-url%26utm_campaign%3Dgmb_website%26utm_term%3DAbbott-Northwestern-Neuroscience-Institute", "rating": 4.7, "reviews": 3, "place_id": "ChIJz24ca_8n9ocRuR0nY5aWRWA", "latitude": 44.9551805, "longitude": -93.260902, "subtypes": "Neurologist"}, {"name": "Dr. Paul M. Schanfield, MD", "address": "1650 Beam Ave # 200, St Paul, MN 55109", "city": "St Paul", "state": "Minnesota", "state_code": "MN", "phone": "+1 651-221-9051", "website": "", "rating": 1, "reviews": 1, "place_id": "ChIJAcvoNgTUslIREliqi7TTST8", "latitude": 45.0275834, "longitude": -93.03098229999999, "subtypes": "Neurologist"}, {"name": "NADEEM IQBAL, M.D.", "address": "1650 Beam Ave # 200, Maplewood, MN 55109", "city": "Maplewood", "state": "Minnesota", "state_code": "MN", "phone": "+1 651-221-9051", "website": "", "rating": 2.8, "reviews": 8, "place_id": "ChIJAcvoNgTUslIRJ0uJv3r-my4", "latitude": 45.0275401, "longitude": -93.0309417, "subtypes": "Neurologist"}, {"name": "Dr. Masood R. Ghazali, MD", "address": "3833 Coon Rapids Blvd NW # 100, Coon Rapids, MN 55433", "city": "Coon Rapids", "state": "Minnesota", "state_code": "MN", "phone": "+1 763-427-8320", "website": "https://account.allinahealth.org/providers/758", "rating": 4, "reviews": 4, "place_id": "ChIJTS9S8AI8s1IRLTMQUV_GD34", "latitude": 45.1830753, "longitude": -93.3645324, "subtypes": "Neurologist"}, {"name": "Katherine L. Ferguson, MD", "address": "11091 Ulysses St NE, Blaine, MN 55434", "city": "Blaine", "state": "Minnesota", "state_code": "MN", "phone": "+1 612-879-1000", "website": "https://www.noranclinic.com/our-providers/neurologist-biographies/pediatric-neurologists/katherine-ferguson", "rating": "", "reviews": "", "place_id": "ChIJG2Gr8iwls1IRiAiKT3P_Bag", "latitude": 45.1714858, "longitude": -93.23592939999999, "subtypes": "Neurologist"}, {"name": "Dr. Charles F. Ormiston, MD", "address": "1650 Beam Ave # 200, St Paul, MN 55109", "city": "St Paul", "state": "Minnesota", "state_code": "MN", "phone": "+1 651-221-9051", "website": "", "rating": "", "reviews": "", "place_id": "ChIJAcvoNgTUslIRjaXrG8Z_Sak", "latitude": 45.0275834, "longitude": -93.03098229999999, "subtypes": "Neurologist"}, {"name": "Dr. Brittani Conway", "address": "909 Fulton St SE, Minneapolis, MN 55455", "city": "Minneapolis", "state": "Minnesota", "state_code": "MN", "phone": "+1 612-273-8383", "website": "https://providers.mhealthfairview.org/provider/brittani-conway/2304674", "rating": 5, "reviews": 3, "place_id": "ChIJ____fiEts1IRrMckCqvMkZs", "latitude": 44.9707762, "longitude": -93.2248323, "subtypes": "Neurologist"}, {"name": "Dr. Zohreh Mahdavi, MD", "address": "1650 Beam Ave # 200, St Paul, MN 55109", "city": "St Paul", "state": "Minnesota", "state_code": "MN", "phone": "+1 651-221-9051", "website": "", "rating": "", "reviews": "", "place_id": "ChIJAcvoNgTUslIRv1lHaxvkxlc", "latitude": 45.0275834, "longitude": -93.03098229999999, "subtypes": "Neurologist"}, {"name": "Jon I. McIver, MD", "address": "401 Phalen Blvd, St Paul, MN 55130", "city": "St Paul", "state": "Minnesota", "state_code": "MN", "phone": "+1 651-254-3490", "website": "", "rating": 4.2, "reviews": 5, "place_id": "ChIJbd2r3U7VslIRcIDDi-WO884", "latitude": 44.964907, "longitude": -93.0844065, "subtypes": "Neurologist"}, {"name": "Capitol Neurology, Pa", "address": "1675 Beam Ave, Maplewood, MN 55109", "city": "Maplewood", "state": "Minnesota", "state_code": "MN", "phone": "+1 651-291-1559", "website": "", "rating": "", "reviews": "", "place_id": "ChIJdxk-QgTUslIRI7-ZAKO-jQU", "latitude": 45.0286373, "longitude": -93.0314708, "subtypes": "Neurologist"}, {"name": "Laura Li, MD", "address": "1650 Beam Ave # 200, Maplewood, MN 55109", "city": "Maplewood", "state": "Minnesota", "state_code": "MN", "phone": "+1 651-221-9051", "website": "https://www.healthpartners.com/care/find/doctor/28023/", "rating": 2.1, "reviews": 7, "place_id": "ChIJAcvoNgTUslIRlzVPj1csOd4", "latitude": 45.0275864, "longitude": -93.0310028, "subtypes": "Neurologist"}, {"name": "Nitin Agarwal, MD", "address": "2720 Fairview Ave N, Roseville, MN 55113", "city": "Roseville", "state": "Minnesota", "state_code": "MN", "phone": "+1 651-241-5290", "website": "https://mnepilepsy.org/our-team/nitin-agarwal-md-new/", "rating": "", "reviews": "", "place_id": "ChIJ64Aiw_ors1IR7-R0SCiIlv8", "latitude": 45.0229575, "longitude": -93.17640039999999, "subtypes": "Neurologist"}, {"name": "William Schmalstieg, MD", "address": "909 Fulton St SE, Minneapolis, MN 55455", "city": "Minneapolis", "state": "Minnesota", "state_code": "MN", "phone": "+1 612-626-6688", "website": "https://providers.mhealthfairview.org/provider/william-schmalstieg/2238804", "rating": 2, "reviews": 1, "place_id": "ChIJkaxjQ8sts1IRxIl0K5s6BQc", "latitude": 44.9708385, "longitude": -93.22497949999999, "subtypes": "Neurologist"}, {"name": "Johnson David N MD", "address": "1650 Beam Ave # 200, St Paul, MN 55109", "city": "St Paul", "state": "Minnesota", "state_code": "MN", "phone": "+1 651-221-9051", "website": "https://www.healthpartners.com/care/find/doctor/93917/", "rating": "", "reviews": "", "place_id": "ChIJAcvoNgTUslIRojJ9WWAS5Ug", "latitude": 45.0275834, "longitude": -93.03098229999999, "subtypes": "Neurologist"}, {"name": "Dr. Adam F. Carpenter, MD", "address": "420 Delaware St SE, Minneapolis, MN 55455", "city": "Minneapolis", "state": "Minnesota", "state_code": "MN", "phone": "+1 612-626-3000", "website": "", "rating": 5, "reviews": 1, "place_id": "ChIJV_yFeT0ts1IR9zySHwsKt6A", "latitude": 44.972078, "longitude": -93.2329403, "subtypes": "Neurologist"}, {"name": "Dr. Anuradha K. Tummala, MD", "address": "1575 Beam Ave, Maplewood, MN 55109", "city": "Maplewood", "state": "Minnesota", "state_code": "MN", "phone": "+1 651-232-7000", "website": "", "rating": "", "reviews": "", "place_id": "ChIJcwigrQbUslIR_CIEQxBkr_M", "latitude": 45.0290116, "longitude": -93.0338687, "subtypes": "Neurologist"}, {"name": "Dr. Jawad A. Bajwa, MD", "address": "1650 Beam Ave # 200, St Paul, MN 55109", "city": "St Paul", "state": "Minnesota", "state_code": "MN", "phone": "+1 651-221-9051", "website": "", "rating": "", "reviews": "", "place_id": "ChIJAcvoNgTUslIRbpZDpnt0gMA", "latitude": 45.0275834, "longitude": -93.03098229999999, "subtypes": "Neurologist"}, {"name": "Dr. Michael S. Rosenberg, MD", "address": "1575 Beam Ave, Maplewood, MN 55109", "city": "Maplewood", "state": "Minnesota", "state_code": "MN", "phone": "+1 651-232-7000", "website": "", "rating": "", "reviews": "", "place_id": "ChIJcwigrQbUslIRQpFk6amsgHg", "latitude": 45.0290116, "longitude": -93.0338687, "subtypes": "Neurologist"}, {"name": "Lyla Veen, MD", "address": "3833 Coon Rapids Blvd NW, Coon Rapids, MN 55433", "city": "Coon Rapids", "state": "Minnesota", "state_code": "MN", "phone": "", "website": "https://www.fairview.org/providers/VeenLyla-470724673", "rating": 3.7, "reviews": 3, "place_id": "ChIJg1QB7cY9s1IRN33gglCb_GA", "latitude": 45.1829554, "longitude": -93.3643489, "subtypes": "Neurologist"}, {"name": "Natalia Dorland, MD", "address": "9645 Grove Cir N Ste 200, Maple Grove, MN 55369", "city": "Maple Grove", "state": "Minnesota", "state_code": "MN", "phone": "", "website": "https://fairview.org/providers/DorlandNatalia-1723825611", "rating": 5, "reviews": 1, "place_id": "ChIJzXBALotHs1IRV0iaKTQGlTk", "latitude": 45.1300012, "longitude": -93.48402759999999, "subtypes": "Neurologist"}, {"name": "Dr. Yu Zhao", "address": "9645 Grove Cir N #100, Maple Grove, MN 55369", "city": "Maple Grove", "state": "Minnesota", "state_code": "MN", "phone": "+1 763-302-4114", "website": "https://minneapolisclinic.com/providers/yu-zhao-m-d-o-d/", "rating": 2.4, "reviews": 5, "place_id": "ChIJyx1JiVRGs1IRR4eybYSn8-8", "latitude": 45.1300201, "longitude": -93.4843063, "subtypes": "Neurologist"}, {"name": "Dr. Daniel C. Randa, MD", "address": "3833 Coon Rapids Blvd NW # 100, Coon Rapids, MN 55433", "city": "Coon Rapids", "state": "Minnesota", "state_code": "MN", "phone": "+1 763-427-8320", "website": "", "rating": 5, "reviews": 1, "place_id": "ChIJTS9S8AI8s1IRhQ4wY2xtl3g", "latitude": 45.1830753, "longitude": -93.3645324, "subtypes": "Neurologist"}, {"name": "Metropolitan Neurosurgery, P.A.", "address": "9645 Grove Cir N Ste 200, Maple Grove, MN 55369", "city": "Maple Grove", "state": "Minnesota", "state_code": "MN", "phone": "+1 763-427-1137", "website": "https://metropolitan-neurosurgery.com/", "rating": 2.3, "reviews": 3, "place_id": "ChIJC_F4gKtHs1IRIyftjlyPj9Q", "latitude": 45.1299934, "longitude": -93.4840399, "subtypes": "Neurologist"}, {"name": "Elias Bazakos, MD", "address": "3833 Coon Rapids Blvd NW, Coon Rapids, MN 55433", "city": "Coon Rapids", "state": "Minnesota", "state_code": "MN", "phone": "+1 763-427-8320", "website": "https://account.allinahealth.org/providers/162", "rating": 4, "reviews": 4, "place_id": "ChIJTS9S8AI8s1IRHze9apDtoxM", "latitude": 45.1829658, "longitude": -93.3645864, "subtypes": "Neurologist"}, {"name": "Shelly Larson-Peters, MD", "address": "3833 Coon Rapids Blvd, Coon Rapids, MN 55433", "city": "Coon Rapids", "state": "Minnesota", "state_code": "MN", "phone": "", "website": "https://minneapolisclinic.com/", "rating": 5, "reviews": 1, "place_id": "ChIJOVgnVJlLs1IR6dlUm26-n1M", "latitude": 45.1829581, "longitude": -93.36472619999999, "subtypes": "Neurologist"}, {"name": "Aboubakar Sharaf", "address": "9645 Grove Cir N #100, Maple Grove, MN 55369", "city": "Maple Grove", "state": "Minnesota", "state_code": "MN", "phone": "+1 763-302-4114", "website": "https://minneapolisclinic.com/providers/aboubaker-sharaf-m-d/", "rating": 5, "reviews": 2, "place_id": "ChIJyx1JiVRGs1IRMwOJlN2xCN4", "latitude": 45.1300201, "longitude": -93.4843063, "subtypes": "Neurologist"}, {"name": "Dr. Jason R. Cornelius, MD", "address": "9645 Grove Cir N Ste 200, Maple Grove, MN 55369", "city": "Maple Grove", "state": "Minnesota", "state_code": "MN", "phone": "+1 763-302-4114", "website": "", "rating": 3.7, "reviews": 3, "place_id": "ChIJV6pk7KpHs1IRr4C51RQvgHc", "latitude": 45.1300012, "longitude": -93.48402759999999, "subtypes": "Neurologist"}, {"name": "Steven Trobiani, M.D.", "address": "Arbor Lakes Medical Building, 12000 Elm Creek Blvd N # 330, Maple Grove, MN 55369", "city": "Maple Grove", "state": "Minnesota", "state_code": "MN", "phone": "+1 763-416-1400", "website": "http://www.northstarpaincare.com/", "rating": 4, "reviews": 4, "place_id": "ChIJSRzA2P43s1IRsZtn4fzlkRo", "latitude": 45.0957075, "longitude": -93.4332879, "subtypes": "Neurologist"}, {"name": "Moeen Masood, MD", "address": "3833 Coon Rapids Blvd NW, Coon Rapids, MN 55433", "city": "Coon Rapids", "state": "Minnesota", "state_code": "MN", "phone": "+1 763-427-8320", "website": "https://minneapolisclinic.com/providers/moeen-masood-m-d/", "rating": 5, "reviews": 1, "place_id": "ChIJTS9S8AI8s1IRikJKIBOOCT4", "latitude": 45.1829554, "longitude": -93.3643489, "subtypes": "Neurologist"}, {"name": "Kamsheh Lyla M MD", "address": "3833 Coon Rapids Blvd NW # 1, Coon Rapids, MN 55433", "city": "Coon Rapids", "state": "Minnesota", "state_code": "MN", "phone": "+1 763-427-8320", "website": "https://minneapolisclinic.com/physicians-providers/lyla-kamsheh-veen-m-d/", "rating": "", "reviews": "", "place_id": "ChIJTS9S8AI8s1IRYadMoQiyGu8", "latitude": 45.1830753, "longitude": -93.3645324, "subtypes": "Neurologist"}, {"name": "Allan Ingenito, MD", "address": "3833 Coon Rapids Blvd NW, Coon Rapids, MN 55433", "city": "Coon Rapids", "state": "Minnesota", "state_code": "MN", "phone": "+1 855-324-7843", "website": "https://account.allinahealth.org/providers/1269", "rating": 5, "reviews": 1, "place_id": "ChIJ5cWTdbY9s1IRvBABCb360_U", "latitude": 45.1829554, "longitude": -93.3643489, "subtypes": "Neurologist"}, {"name": "Dr. Gareth J. Parry, MD", "address": "14500 99th Ave N, Maple Grove, MN 55369", "city": "Maple Grove", "state": "Minnesota", "state_code": "MN", "phone": "+1 763-898-1000", "website": "http://www.fairview.org/", "rating": "", "reviews": "", "place_id": "ChIJrehW9gpHs1IRNyV_m5KKN-8", "latitude": 45.1360871, "longitude": -93.46477279999999, "subtypes": "Neurologist"}, {"name": "Dustin Harker, MD", "address": "3833 Coon Rapids Blvd NW, Coon Rapids, MN 55433", "city": "Coon Rapids", "state": "Minnesota", "state_code": "MN", "phone": "+1 855-324-7843", "website": "", "rating": "", "reviews": "", "place_id": "ChIJsVGmjpg9s1IRzCXABXn6S6A", "latitude": 45.1830369, "longitude": -93.3643797, "subtypes": "Neurologist"}, {"name": "Dr. Robert M. Roach, MD", "address": "11850 Blackfoot St NW #490, Coon Rapids, MN 55433", "city": "Coon Rapids", "state": "Minnesota", "state_code": "MN", "phone": "+1 763-427-1137", "website": "", "rating": 4, "reviews": 2, "place_id": "ChIJrVArfCkls1IRTQllMByjdGM", "latitude": 45.185112, "longitude": -93.3692382, "subtypes": "Neurosurgeon"}, {"name": "Dr. Ivan L. Brodsky, MD", "address": "9825 Hospital Dr, Maple Grove, MN 55369", "city": "Maple Grove", "state": "Minnesota", "state_code": "MN", "phone": "+1 763-302-4114", "website": "", "rating": "", "reviews": "", "place_id": "ChIJV6pk7KpHs1IRSdMM36b4Ilw", "latitude": 45.132658, "longitude": -93.48073199999999, "subtypes": "Neurologist"}, {"name": "William Qubty, M.D.", "address": "3833 Coon Rapids Blvd NW, Coon Rapids, MN 55433", "city": "Coon Rapids", "state": "Minnesota", "state_code": "MN", "phone": "+1 763-427-8320", "website": "https://minneapolisclinic.com/physicians-providers/william-qubty-m-d/", "rating": 5, "reviews": 4, "place_id": "ChIJ98RZTOrLRIYRNYkdQzW54i8", "latitude": 45.1830753, "longitude": -93.3645324, "subtypes": "Neurologist"}, {"name": "Scott J. Ihde, PA", "address": "3833 Coon Rapids Blvd NW, Coon Rapids, MN 55433", "city": "Coon Rapids", "state": "Minnesota", "state_code": "MN", "phone": "+1 763-427-8320", "website": "", "rating": "", "reviews": "", "place_id": "ChIJTS9S8AI8s1IRikMIu1NJsFI", "latitude": 45.1830753, "longitude": -93.3645324, "subtypes": "Neurologist"}, {"name": "Denise Leighty, PNP", "address": "9550 Upland Ln N #220, Maple Grove, MN 55369", "city": "Maple Grove", "state": "Minnesota", "state_code": "MN", "phone": "+1 763-496-6000", "website": "https://www.gillettechildrens.org/care-team/denise-leighty-pnp-pediatric-nurse-practitioner", "rating": "", "reviews": "", "place_id": "ChIJOckhYSJHs1IRfkixaX1s-LY", "latitude": 45.1284119, "longitude": -93.47906069999999, "subtypes": "Neurologist"}, {"name": "Gail Francis, MD", "address": "3833 Coon Rapids Blvd NW, Coon Rapids, MN 55433", "city": "Coon Rapids", "state": "Minnesota", "state_code": "MN", "phone": "+1 763-427-8320", "website": "https://www.fairview.org/providers/f/r/a/n/c/francisgail-39969950", "rating": "", "reviews": "", "place_id": "ChIJTS9S8AI8s1IRyHd3KlwlYMk", "latitude": 45.1829554, "longitude": -93.3643489, "subtypes": "Neurologist"}, {"name": "Dr. Pushp R. Kapoor, MD", "address": "14500 99th Ave N, Maple Grove, MN 55369", "city": "Maple Grove", "state": "Minnesota", "state_code": "MN", "phone": "+1 763-898-1000", "website": "http://www.fairview.org/", "rating": "", "reviews": "", "place_id": "ChIJrehW9gpHs1IR-zgKzRA8sCI", "latitude": 45.1360871, "longitude": -93.46477279999999, "subtypes": "Neurologist"}, {"name": "Dr. Miles J. Belgrade, MD", "address": "14500 99th Ave N, Maple Grove, MN 55369", "city": "Maple Grove", "state": "Minnesota", "state_code": "MN", "phone": "+1 763-898-1000", "website": "http://www.fairview.org/", "rating": "", "reviews": "", "place_id": "ChIJrehW9gpHs1IRHV-zKW90glQ", "latitude": 45.1360871, "longitude": -93.46477279999999, "subtypes": "Neurologist"}, {"name": "Sailaja Enduri, MD", "address": "3833 Coon Rapids Blvd NW, Coon Rapids, MN 55433", "city": "Coon Rapids", "state": "Minnesota", "state_code": "MN", "phone": "+1 763-427-8320", "website": "https://minneapolisclinic.com/providers/sailaja-enduri-m-d/", "rating": 2, "reviews": 4, "place_id": "ChIJxbVT8AI8s1IRRwHB0QEFLR8", "latitude": 45.1829554, "longitude": -93.3643489, "subtypes": "Neurologist"}, {"name": "Jayasri Alapati", "address": "3833 Coon Rapids Blvd NW # 100, Coon Rapids, MN 55433", "city": "Coon Rapids", "state": "Minnesota", "state_code": "MN", "phone": "", "website": "", "rating": "", "reviews": "", "place_id": "ChIJAQBA6gI8s1IRLDAdd_g3Vzo", "latitude": 45.1830753, "longitude": -93.3645324, "subtypes": "Neurologist"}, {"name": "Dr. David Walk, MD", "address": "14500 99th Ave N, Maple Grove, MN 55369", "city": "Maple Grove", "state": "Minnesota", "state_code": "MN", "phone": "+1 763-898-1000", "website": "", "rating": "", "reviews": "", "place_id": "ChIJrehW9gpHs1IRXCxza4l4IX4", "latitude": 45.1360871, "longitude": -93.46477279999999, "subtypes": "Neurologist"}, {"name": "Dr. Bryan Mendes, MD", "address": "9550 Upland Ln N #220, Maple Grove, MN 55369", "city": "Maple Grove", "state": "Minnesota", "state_code": "MN", "phone": "+1 763-496-6000", "website": "https://www.gillettechildrens.org/locations/maple-grove-clinic", "rating": "", "reviews": "", "place_id": "ChIJ19zyFaZHs1IRVNz8NksaLpc", "latitude": 45.1284278, "longitude": -93.4790522, "subtypes": "Neurologist"}, {"name": "Nicole Williams-Doonan, MD", "address": "9550 Upland Ln N, Maple Grove, MN 55369", "city": "Maple Grove", "state": "Minnesota", "state_code": "MN", "phone": "+1 763-496-6000", "website": "https://www.gillettechildrens.org/care-team/nicole-williams-md-pediatric-neurologist", "rating": 5, "reviews": 1, "place_id": "ChIJWdalYaxHs1IRMI44__OmqoI", "latitude": 45.1284119, "longitude": -93.47906069999999, "subtypes": "Neurologist"}, {"name": "Jaehoon Cho, MD", "address": "3833 Coon Rapids Blvd NW, Coon Rapids, MN 55433", "city": "Coon Rapids", "state": "Minnesota", "state_code": "MN", "phone": "", "website": "", "rating": "", "reviews": "", "place_id": "ChIJkbMeuJo9s1IRxxic-Pnomho", "latitude": 45.1829554, "longitude": -93.3643489, "subtypes": "Neurologist"}, {"name": "Dr. Richard E. Golden", "address": "2828 Chicago Ave #310, Minneapolis, MN 55407", "city": "Minneapolis", "state": "Minnesota", "state_code": "MN", "phone": "+1 612-879-1000", "website": "http://www.noranclinic.com/", "rating": 5, "reviews": 1, "place_id": "ChIJZd-4J_8n9ocRTSqgeTxRtYI", "latitude": 44.95096789999999, "longitude": -93.2629989, "subtypes": "Neurologist"}, {"name": "Byungkwan Hwang, MD", "address": "800 E 28th St #1750, Minneapolis, MN 55407", "city": "Minneapolis", "state": "Minnesota", "state_code": "MN", "phone": "+1 612-262-3464", "website": "https://account.allinahealth.org/providers/20402", "rating": 5, "reviews": 4, "place_id": "ChIJVQ_9vkVV2ocR7m-9N_CQoeM", "latitude": 44.9528826, "longitude": -93.2620324, "subtypes": "Neurologist"}, {"name": "Park Nicollet Neurology/Neurosurgery St. Louis Park", "address": "3931 Louisiana Ave S Floor 5, St Louis Park, MN 55426", "city": "St Louis Park", "state": "Minnesota", "state_code": "MN", "phone": "+1 952-993-3200", "website": "https://www.healthpartners.com/care/specialty/neuroscience/%3Futm_campaign%3Dneuro_locallistings_20m1_care_pn%26utm_source%3Dgooglemybusiness_%26utm_medium%3Dorganic%26utm_content%3Dpark-nicollet-neurology-st-louis-park_localpack_conversion%26utm_term%3D_v1__", "rating": 2.1, "reviews": 15, "place_id": "ChIJbehUqS4h9ocRU-ZFzlX52GU", "latitude": 44.93149349999999, "longitude": -93.36248599999999, "subtypes": "Neurologist"}, {"name": "Dr. Erica Youn", "address": "2828 Chicago Ave, Minneapolis, MN 55407", "city": "Minneapolis", "state": "Minnesota", "state_code": "MN", "phone": "+1 612-879-1000", "website": "", "rating": 3, "reviews": 2, "place_id": "ChIJVVWV1v4n9ocRt_aVu1BDZO8", "latitude": 44.95096789999999, "longitude": -93.2629989, "subtypes": "Neurologist"}, {"name": "Gennadiy V. Shevchenko, MD", "address": "3809 42nd Ave S, Minneapolis, MN 55406", "city": "Minneapolis", "state": "Minnesota", "state_code": "MN", "phone": "+1 855-324-7843", "website": "https://www.fairview.org/providers/s/h/e/v/c/shevchenkogennadiy-1869739571", "rating": 5, "reviews": 2, "place_id": "ChIJw4ocDVsp9ocRe74vBtvLg6U", "latitude": 44.9340753, "longitude": -93.2124149, "subtypes": "Neurologist"}, {"name": "Dr. Neil Dahlquist", "address": "420 Delaware St SE, Minneapolis, MN 55455", "city": "Minneapolis", "state": "Minnesota", "state_code": "MN", "phone": "+1 612-672-6000", "website": "", "rating": 5, "reviews": 1, "place_id": "ChIJLSCIjj0ts1IRJDJTJMg_gWQ", "latitude": 44.9725684, "longitude": -93.2336608, "subtypes": "Neurologist"}, {"name": "Dr. Zhiyi Sha", "address": "420 Delaware St SE, Minneapolis, MN 55455", "city": "Minneapolis", "state": "Minnesota", "state_code": "MN", "phone": "+1 612-624-9025", "website": "https://mphysicians.org/providers/zhiyi-sha", "rating": 5, "reviews": 1, "place_id": "ChIJq6rqnj0ts1IRMrFIcpvNxhc", "latitude": 44.972078, "longitude": -93.2329403, "subtypes": "Neurologist"}, {"name": "Meekins Gregg D MD", "address": "2450 Riverside Ave, Minneapolis, MN 55454", "city": "Minneapolis", "state": "Minnesota", "state_code": "MN", "phone": "+1 612-672-6000", "website": "", "rating": "", "reviews": "", "place_id": "ChIJE2GgHzkts1IRAHpaazYtyxE", "latitude": 44.9672104, "longitude": -93.23706, "subtypes": "Neurologist"}, {"name": "Jessica Stulc, MD", "address": "4225 Golden Valley Rd, Golden Valley, MN 55422", "city": "Golden Valley", "state": "Minnesota", "state_code": "MN", "phone": "+1 763-588-0661", "website": "https://minneapolisclinic.com/providers/jessica-l-stulc-m-d/", "rating": 5, "reviews": 2, "place_id": "ChIJ29Uw0X4zs1IRT0vTTlNos70", "latitude": 44.999007, "longitude": -93.3324482, "subtypes": "Neurologist"}, {"name": "Dr Meysam A Kebriaei, MD", "address": "2530 Chicago Ave, Minneapolis, MN 55404", "city": "Minneapolis", "state": "Minnesota", "state_code": "MN", "phone": "+1 651-220-5230", "website": "https://www.childrensmn.org/applications/findadoctor/profile/291639777/meysam-a-kebriaei-md/", "rating": 5, "reviews": 25, "place_id": "ChIJ2fh71rAq9ocRITRAVN_MAq0", "latitude": 44.9566908, "longitude": -93.2630015, "subtypes": "Neurosurgeon"}, {"name": "Adam Loavenbruck, MD, MS", "address": "715 S 8th St, Minneapolis, MN 55404", "city": "Minneapolis", "state": "Minnesota", "state_code": "MN", "phone": "+1 612-873-6963", "website": "https://www.hennepinhealthcare.org/provider/adam-loavenbruck-md-ms/", "rating": 5, "reviews": 2, "place_id": "ChIJxYEk8F4zs1IRHcZoD7OpkhM", "latitude": 44.9710105, "longitude": -93.2632258, "subtypes": "Neurologist"}, {"name": "Dr. Kevin N. Brown, DO", "address": "701 Park Ave, Minneapolis, MN 55415", "city": "Minneapolis", "state": "Minnesota", "state_code": "MN", "phone": "+1 612-873-2515", "website": "", "rating": "", "reviews": "", "place_id": "ChIJa3puKKAys1IR3dFhxPEJ4fI", "latitude": 44.9720866, "longitude": -93.26223689999999, "subtypes": "Neurologist"}, {"name": "Dr. Bruce D. Snyder, MD", "address": "2220 Riverside Ave, Minneapolis, MN 55454", "city": "Minneapolis", "state": "Minnesota", "state_code": "MN", "phone": "", "website": "", "rating": 5, "reviews": 1, "place_id": "ChIJrYRYREcts1IRLURPRGADy9s", "latitude": 44.9680541, "longitude": -93.2400899, "subtypes": "Neurologist"}, {"name": "Dr. Steven S. Lebow, MD", "address": "2828 Chicago Ave #300, Minneapolis, MN 55407", "city": "Minneapolis", "state": "Minnesota", "state_code": "MN", "phone": "+1 612-871-7639", "website": "", "rating": "", "reviews": "", "place_id": "ChIJZd-4J_8n9ocRqO5z0dx9E6s", "latitude": 44.9509621, "longitude": -93.2630188, "subtypes": "Neurologist"}, {"name": "Michael McCue MD", "address": "913 E 26th St, Minneapolis, MN 55404", "city": "Minneapolis", "state": "Minnesota", "state_code": "MN", "phone": "+1 612-871-7278", "website": "http://www.neurosurgicalassocs.com/", "rating": 5, "reviews": 9, "place_id": "ChIJz24ca_8n9ocRx48wOyy33gg", "latitude": 44.9550944, "longitude": -93.26095219999999, "subtypes": "Neurologist"}, {"name": "Dr. Paula M. Cotruta, MD", "address": "2220 Riverside Ave, Minneapolis, MN 55454", "city": "Minneapolis", "state": "Minnesota", "state_code": "MN", "phone": "+1 952-967-7175", "website": "http://www.healthpartners.com/", "rating": 3.7, "reviews": 3, "place_id": "ChIJrYRYREcts1IRynjP53_QSvM", "latitude": 44.9680541, "longitude": -93.2400899, "subtypes": "Neurologist"}, {"name": "Dr. Drahomira Sencakova, MD", "address": "3931 Louisiana Cir, St Louis Park, MN 55426", "city": "St Louis Park", "state": "Minnesota", "state_code": "MN", "phone": "+1 952-993-3123", "website": "http://www.parknicollet.com/", "rating": 3.7, "reviews": 6, "place_id": "ChIJ68Ol0Owg9ocRAiBVAou1G-g", "latitude": 44.9309439, "longitude": -93.3659014, "subtypes": "Neurologist"}, {"name": "Nathan Sit, MD", "address": "715 S 8th St, Minneapolis, MN 55404", "city": "Minneapolis", "state": "Minnesota", "state_code": "MN", "phone": "+1 612-873-6963", "website": "", "rating": 5, "reviews": 1, "place_id": "ChIJZ0J5yaEys1IRUoI9JCNeuKA", "latitude": 44.9711612, "longitude": -93.26322119999999, "subtypes": "Neurologist"}, {"name": "Dr. Praful M. Kelkar, MD", "address": "701 Park Ave, Minneapolis, MN 55415", "city": "Minneapolis", "state": "Minnesota", "state_code": "MN", "phone": "+1 612-873-3001", "website": "http://www.hcmc.org/", "rating": 2.3, "reviews": 3, "place_id": "ChIJa3puKKAys1IRtmfvvb91u6A", "latitude": 44.9720866, "longitude": -93.26223689999999, "subtypes": "Neurologist"}, {"name": "Dr. Bret C. Haake, MD", "address": "2220 Riverside Ave, Minneapolis, MN 55454", "city": "Minneapolis", "state": "Minnesota", "state_code": "MN", "phone": "+1 952-967-7175", "website": "http://www.healthpartners.com/", "rating": 5, "reviews": 1, "place_id": "ChIJrYRYREcts1IRmPR4xR5LUhc", "latitude": 44.9680541, "longitude": -93.2400899, "subtypes": "Neurologist"}, {"name": "Patel Sima I MD", "address": "5775 Wayzata Blvd #200, Minneapolis, MN 55416", "city": "Minneapolis", "state": "Minnesota", "state_code": "MN", "phone": "+1 952-525-2400", "website": "", "rating": 2.7, "reviews": 3, "place_id": "ChIJhe7Jnb00s1IRrNn3iS2OxI4", "latitude": 44.9687778, "longitude": -93.35370499999999, "subtypes": "Neurologist"}, {"name": "Tulloch John W MD", "address": "420 Delaware St SE, Minneapolis, MN 55455", "city": "Minneapolis", "state": "Minnesota", "state_code": "MN", "phone": "+1 612-625-5152", "website": "http://www.neurology.umn.edu/profile_tulloch.html", "rating": 5, "reviews": 1, "place_id": "ChIJT4OQZz0ts1IRYShimTQSk70", "latitude": 44.971973, "longitude": -93.2328352, "subtypes": "Neurologist"}, {"name": "Henry Thomas R MD", "address": "516 Delaware St SE, Minneapolis, MN 55455", "city": "Minneapolis", "state": "Minnesota", "state_code": "MN", "phone": "+1 612-626-6688", "website": "http://www.mhealth.org/", "rating": 3, "reviews": 2, "place_id": "ChIJT4OQZz0ts1IRhRpHMGNp5LM", "latitude": 44.9723426, "longitude": -93.23131479999999, "subtypes": "Neurologist"}, {"name": "Dr. Vivian K. Fink, MD", "address": "2220 Riverside Ave, Minneapolis, MN 55454", "city": "Minneapolis", "state": "Minnesota", "state_code": "MN", "phone": "+1 952-967-7175", "website": "http://www.healthpartners.com/", "rating": 1.5, "reviews": 2, "place_id": "ChIJrYRYREcts1IRiYFSP5ZWn_8", "latitude": 44.9680541, "longitude": -93.2400899, "subtypes": "Neurologist"}, {"name": "Dr. James Ashe, MD", "address": "1 Veterans Dr, Minneapolis, MN 55417", "city": "Minneapolis", "state": "Minnesota", "state_code": "MN", "phone": "+1 612-725-2000", "website": "https://www.minneapolis.va.gov/", "rating": "", "reviews": "", "place_id": "ChIJTbNHjhYp9ocRthlpCI1IxQM", "latitude": 44.90161459999999, "longitude": -93.2046635, "subtypes": "Neurologist"}, {"name": "Dr. Thomas A. Bergman, MD", "address": "715 S 8th St, Minneapolis, MN 55404", "city": "Minneapolis", "state": "Minnesota", "state_code": "MN", "phone": "+1 612-873-7505", "website": "https://www.hennepinhealthcare.org/provider/thomas-a-bergman-md/", "rating": 3.9, "reviews": 7, "place_id": "ChIJz24ca_8n9ocROeNDbqJnGls", "latitude": 44.9711612, "longitude": -93.26322119999999, "subtypes": "Neurosurgeon"}, {"name": "Dr. Ciro Vasquez", "address": "913 E 26th St, Minneapolis, MN 55404", "city": "Minneapolis", "state": "Minnesota", "state_code": "MN", "phone": "+1 612-871-7278", "website": "https://account.allinahealth.org/providers/18147", "rating": 5, "reviews": 1, "place_id": "ChIJAQAA46oys1IRiexURRxn9Fs", "latitude": 44.9551805, "longitude": -93.260902, "subtypes": "Neurosurgeon"}, {"name": "Kyle Gregory Halvorson, MD", "address": "2530 Chicago Ave, Minneapolis, MN 55404", "city": "Minneapolis", "state": "Minnesota", "state_code": "MN", "phone": "+1 651-220-5230", "website": "https://www.childrensmn.org/applications/findadoctor/profile/501701994/kyle-gregory-halvorson-md/", "rating": 5, "reviews": 3, "place_id": "ChIJ8aBVC6wr9ocR_dAMn9P5JHk", "latitude": 44.9566908, "longitude": -93.2630015, "subtypes": "Neurosurgeon"}, {"name": "Dr. Oliver Ni", "address": "701 Park Ave, Minneapolis, MN 55415", "city": "Minneapolis", "state": "Minnesota", "state_code": "MN", "phone": "+1 612-873-3000", "website": "", "rating": "", "reviews": "", "place_id": "ChIJ6127IaAys1IRDBkjCJUUMEc", "latitude": 44.9720069, "longitude": -93.2618292, "subtypes": "Neurologist"}, {"name": "Manousakis Georgios MD", "address": "420 Delaware St SE, Minneapolis, MN 55455", "city": "Minneapolis", "state": "Minnesota", "state_code": "MN", "phone": "+1 612-626-3000", "website": "", "rating": 3, "reviews": 2, "place_id": "ChIJ7dqpjT0ts1IR3JxT8QVQeFc", "latitude": 44.972078, "longitude": -93.2329403, "subtypes": "Neurologist"}, {"name": "Dr. Khalafalla O. Bushara, MD", "address": "516 Delaware St SE, Minneapolis, MN 55455", "city": "Minneapolis", "state": "Minnesota", "state_code": "MN", "phone": "+1 612-626-6688", "website": "http://www.mhealth.org/", "rating": 1, "reviews": 7, "place_id": "ChIJT4OQZz0ts1IRKenNbZZ0eHE", "latitude": 44.9723426, "longitude": -93.23131479999999, "subtypes": "Neurologist"}, {"name": "Dr. Jae Hong Kim", "address": "420 Delaware St SE, Minneapolis, MN 55455", "city": "Minneapolis", "state": "Minnesota", "state_code": "MN", "phone": "+1 612-626-6688", "website": "", "rating": "", "reviews": "", "place_id": "ChIJRwrmZz0ts1IRPHuJik-WTZo", "latitude": 44.972078, "longitude": -93.2329403, "subtypes": "Neurologist"}, {"name": "Ramachandra Tummala MD", "address": "420 Delaware St SE, Minneapolis, MN 55455", "city": "Minneapolis", "state": "Minnesota", "state_code": "MN", "phone": "+1 612-624-6666", "website": "https://med.umn.edu/bio/ramachandra-tummala", "rating": 5, "reviews": 9, "place_id": "ChIJT4OQZz0ts1IRa5un9g_0Q2M", "latitude": 44.972078, "longitude": -93.2329403, "subtypes": "Neurosurgeon"}, {"name": "Kennedy William MD", "address": "420 Delaware St SE, Minneapolis, MN 55455", "city": "Minneapolis", "state": "Minnesota", "state_code": "MN", "phone": "+1 612-625-1431", "website": "", "rating": "", "reviews": "", "place_id": "ChIJV_yFeT0ts1IRT18fn0ovuoE", "latitude": 44.972078, "longitude": -93.2329403, "subtypes": "Neurologist"}, {"name": "Dr. Charlotte L. Roehr, MD", "address": "701 Park Ave, Minneapolis, MN 55415", "city": "Minneapolis", "state": "Minnesota", "state_code": "MN", "phone": "+1 612-873-2515", "website": "", "rating": "", "reviews": "", "place_id": "ChIJa3puKKAys1IRL5PwreAVpJo", "latitude": 44.972084, "longitude": -93.2622337, "subtypes": "Neurologist"}, {"name": "Dr. Mario R. Quinones, MD", "address": "2220 Riverside Ave, Minneapolis, MN 55454", "city": "Minneapolis", "state": "Minnesota", "state_code": "MN", "phone": "+1 952-967-7175", "website": "http://www.healthpartners.com/", "rating": "", "reviews": "", "place_id": "ChIJrYRYREcts1IRHuiQCHNbPLU", "latitude": 44.9680541, "longitude": -93.2400899, "subtypes": "Neurologist"}, {"name": "Tapan Thacker", "address": "701 Park Ave, Minneapolis, MN 55415", "city": "Minneapolis", "state": "Minnesota", "state_code": "MN", "phone": "+1 612-873-3000", "website": "https://account.allinahealth.org/providers/19454", "rating": "", "reviews": "", "place_id": "ChIJ6127IaAys1IRoTTfdf3S-ug", "latitude": 44.9720069, "longitude": -93.2618292, "subtypes": "Neurologist"}, {"name": "Tuite Paul Joseph MD", "address": "516 Delaware St SE, Minneapolis, MN 55455", "city": "Minneapolis", "state": "Minnesota", "state_code": "MN", "phone": "+1 612-625-5000", "website": "http://www.mhealth.org/", "rating": "", "reviews": "", "place_id": "ChIJT4OQZz0ts1IRnjNjTPyoS_0", "latitude": 44.9723426, "longitude": -93.23131479999999, "subtypes": "Neurologist"}, {"name": "Muna Irfan, MD", "address": "715 S 8th St, Minneapolis, MN 55404", "city": "Minneapolis", "state": "Minnesota", "state_code": "MN", "phone": "+1 612-873-6963", "website": "https://med.umn.edu/bio/muna-irfan", "rating": "", "reviews": "", "place_id": "ChIJMfBkknwzs1IRrP7G635n3_8", "latitude": 44.9712373, "longitude": -93.26281999999999, "subtypes": "Neurologist"}, {"name": "Dr. Craig N. Qualey, MD", "address": "701 Park Ave, Minneapolis, MN 55415", "city": "Minneapolis", "state": "Minnesota", "state_code": "MN", "phone": "+1 612-347-2218", "website": "http://www.hcmc.org/", "rating": "", "reviews": "", "place_id": "ChIJa3puKKAys1IRa0TzcPQ0YXM", "latitude": 44.972084, "longitude": -93.2622337, "subtypes": "Neurologist"}, {"name": "Dr. Ezgi Tiryaki, MD", "address": "701 Park Ave, Minneapolis, MN 55415", "city": "Minneapolis", "state": "Minnesota", "state_code": "MN", "phone": "+1 612-873-2515", "website": "", "rating": "", "reviews": "", "place_id": "ChIJa3puKKAys1IRu0EjngLNgOY", "latitude": 44.9720866, "longitude": -93.26223689999999, "subtypes": "Neurologist"}, {"name": "Lauren E. Schrock, MD", "address": "909 Fulton St SE, Minneapolis, MN 55455", "city": "Minneapolis", "state": "Minnesota", "state_code": "MN", "phone": "+1 612-626-6688", "website": "", "rating": "", "reviews": "", "place_id": "ChIJy9gzM5Uts1IRSnrwh2_7xiA", "latitude": 44.9708385, "longitude": -93.22497949999999, "subtypes": "Neurologist"}, {"name": "Karachunski Peter I MD", "address": "420 Delaware St SE, Minneapolis, MN 55455", "city": "Minneapolis", "state": "Minnesota", "state_code": "MN", "phone": "+1 612-873-2515", "website": "", "rating": 5, "reviews": 1, "place_id": "ChIJW0mynz0ts1IRj667f5ZwBZQ", "latitude": 44.972078, "longitude": -93.2329402, "subtypes": "Pediatric neurologist"}, {"name": "Janardhan Vallabh MD", "address": "420 Delaware St SE, Minneapolis, MN 55455", "city": "Minneapolis", "state": "Minnesota", "state_code": "MN", "phone": "+1 612-625-4159", "website": "", "rating": "", "reviews": "", "place_id": "ChIJV_yFeT0ts1IRs1BVPsRP3rA", "latitude": 44.972078, "longitude": -93.2329403, "subtypes": "Neurologist"}, {"name": "Ivan Matos Diaz", "address": "701 Park Ave # P7, Minneapolis, MN 55415", "city": "Minneapolis", "state": "Minnesota", "state_code": "MN", "phone": "+1 612-873-3000", "website": "", "rating": "", "reviews": "", "place_id": "ChIJtfavJ6Ays1IRP1hMVUvP5i4", "latitude": 44.972084, "longitude": -93.2622337, "subtypes": "Neurologist"}, {"name": "Dr. Lawrence R. Charnas, MD", "address": "420 Delaware St SE, Minneapolis, MN 55455", "city": "Minneapolis", "state": "Minnesota", "state_code": "MN", "phone": "+1 612-625-7466", "website": "", "rating": "", "reviews": "", "place_id": "ChIJV_yFeT0ts1IR9f1LKEI856k", "latitude": 44.972078, "longitude": -93.2329403, "subtypes": "Neurologist"}, {"name": "Dr. Sheetal R. Patel, MD", "address": "701 Park Ave, Minneapolis, MN 55415", "city": "Minneapolis", "state": "Minnesota", "state_code": "MN", "phone": "+1 612-873-2515", "website": "", "rating": "", "reviews": "", "place_id": "ChIJa3puKKAys1IRPO6DpEZJYP4", "latitude": 44.9720866, "longitude": -93.26223689999999, "subtypes": "Neurologist"}, {"name": "Vitek Jerrold L MD", "address": "420 Delaware St SE, Minneapolis, MN 55455", "city": "Minneapolis", "state": "Minnesota", "state_code": "MN", "phone": "+1 612-624-1903", "website": "", "rating": "", "reviews": "", "place_id": "ChIJV_yFeT0ts1IRXiZoqjJ5Xyw", "latitude": 44.972078, "longitude": -93.2329403, "subtypes": "Neurologist"}, {"name": "Dr. Edward Labin", "address": "715 S 8th St, Minneapolis, MN 55404", "city": "Minneapolis", "state": "Minnesota", "state_code": "MN", "phone": "+1 612-873-6963", "website": "https://www.hennepinhealthcare.org/provider/edward-labin-md/", "rating": "", "reviews": "", "place_id": "ChIJZ0J5yaEys1IRsQ8MY9lwuyU", "latitude": 44.9711612, "longitude": -93.26322119999999, "subtypes": "Neurologist"}, {"name": "Dr. David C. Anderson, MD", "address": "701 Park Ave, Minneapolis, MN 55415", "city": "Minneapolis", "state": "Minnesota", "state_code": "MN", "phone": "+1 612-347-6450", "website": "http://www.hcmc.org/", "rating": "", "reviews": "", "place_id": "ChIJw-E7aaAys1IRJac1X1eYRss", "latitude": 44.9720866, "longitude": -93.26223689999999, "subtypes": "Neurologist"}, {"name": "Armantina Espinosa, MD", "address": "715 S 8th St, Minneapolis, MN 55404", "city": "Minneapolis", "state": "Minnesota", "state_code": "MN", "phone": "+1 612-873-6963", "website": "https://www.hennepinhealthcare.org/provider/armantina-espinosa-md/", "rating": "", "reviews": "", "place_id": "ChIJBZ-AVI8zs1IRq4WI_8pC5O4", "latitude": 44.9710105, "longitude": -93.2632258, "subtypes": "Neurologist"}, {"name": "Harpinderjit Rana", "address": "715 S 8th St, Minneapolis, MN 55404", "city": "Minneapolis", "state": "Minnesota", "state_code": "MN", "phone": "+1 612-873-6963", "website": "https://www.hennepinhealthcare.org/provider/harpinderjit-rana-rn-fnp-bc/", "rating": "", "reviews": "", "place_id": "ChIJZ0J5yaEys1IRGYu6YM1L6W0", "latitude": 44.9711612, "longitude": -93.26322119999999, "subtypes": "Neurologist"}, {"name": "Dr. Mark G. Warnken, MD", "address": "2220 Riverside Ave, Minneapolis, MN 55454", "city": "Minneapolis", "state": "Minnesota", "state_code": "MN", "phone": "+1 952-853-8800", "website": "http://www.healthpartners.com/", "rating": "", "reviews": "", "place_id": "ChIJrYRYREcts1IR6kp_Ww--XOU", "latitude": 44.9680541, "longitude": -93.2400899, "subtypes": "Neurologist"}, {"name": "Dr. Tenbit Emiru, MD", "address": "420 Delaware St SE, Minneapolis, MN 55455", "city": "Minneapolis", "state": "Minnesota", "state_code": "MN", "phone": "+1 612-626-6688", "website": "http://www.mhealth.org/", "rating": "", "reviews": "", "place_id": "ChIJV_yFeT0ts1IRFE2vcwXcV78", "latitude": 44.972078, "longitude": -93.2329403, "subtypes": "Neurologist"}, {"name": "Langendorf Frederick MD", "address": "825 S 8th St, Minneapolis, MN 55404", "city": "Minneapolis", "state": "Minnesota", "state_code": "MN", "phone": "+1 612-347-6450", "website": "http://www.hcmc.org/", "rating": "", "reviews": "", "place_id": "ChIJw-E7aaAys1IRsCX6-k8qGis", "latitude": 44.970561, "longitude": -93.2612961, "subtypes": "Neurologist"}, {"name": "Erin Golden, MD", "address": "715 S 8th St, Minneapolis, MN 55404", "city": "Minneapolis", "state": "Minnesota", "state_code": "MN", "phone": "+1 612-873-6963", "website": "https://www.hennepinhealthcare.org/provider/erin-golden-md/", "rating": "", "reviews": "", "place_id": "ChIJsc4W1wkzs1IRRYqj5dSj_bY", "latitude": 44.9710105, "longitude": -93.2632258, "subtypes": "Neurologist"}, {"name": "Hennepin County Medical Center: Langendorf Frederick G MD", "address": "701 Park Ave, Minneapolis, MN 55415", "city": "Minneapolis", "state": "Minnesota", "state_code": "MN", "phone": "+1 612-873-2515", "website": "http://www.hcmc.org/", "rating": "", "reviews": "", "place_id": "ChIJa3puKKAys1IRAsmRNx5F13o", "latitude": 44.972084, "longitude": -93.2622337, "subtypes": "Neurologist"}, {"name": "Robert G. Jacoby, MD", "address": "2828 Chicago Ave #310, Minneapolis, MN 55407", "city": "Minneapolis", "state": "Minnesota", "state_code": "MN", "phone": "+1 612-879-1000", "website": "http://www.noranclinic.com/our-providers/neurologist-biographies/adult-neurologists/robert-jacoby", "rating": "", "reviews": "", "place_id": "ChIJwePwPrsn9ocRg4BIvdXeEp4", "latitude": 44.95096789999999, "longitude": -93.2629989, "subtypes": "Neurologist"}, {"name": "Tapan Thacker", "address": "715 S 8th St, Minneapolis, MN 55404", "city": "Minneapolis", "state": "Minnesota", "state_code": "MN", "phone": "+1 612-873-6963", "website": "", "rating": "", "reviews": "", "place_id": "ChIJZ0J5yaEys1IREy6YPovem9c", "latitude": 44.9711612, "longitude": -93.26322119999999, "subtypes": "Neurologist"}, {"name": "Dr. Michael J. Howell, MD", "address": "Riverside Professional Building, 606 24th Ave S, Minneapolis, MN 55454", "city": "Minneapolis", "state": "Minnesota", "state_code": "MN", "phone": "+1 612-273-5000", "website": "", "rating": "", "reviews": "", "place_id": "ChIJHUKL5zgts1IRSTt-mlWUjHY", "latitude": 44.9672687, "longitude": -93.2380724, "subtypes": "Neurologist"}, {"name": "Mustapha Ezzeddine, MD", "address": "420 Delaware St SE, Minneapolis, MN 55455", "city": "Minneapolis", "state": "Minnesota", "state_code": "MN", "phone": "+1 612-626-3000", "website": "https://www.mhealth.org/providers/ezzeddinemustapha-1880291638", "rating": "", "reviews": "", "place_id": "ChIJT4OQZz0ts1IRSDuQ_aoIVQs", "latitude": 44.9725684, "longitude": -93.2336608, "subtypes": "Neurologist"}, {"name": "Dr. Christopher Janson, MD", "address": "420 Delaware St SE, Minneapolis, MN 55455", "city": "Minneapolis", "state": "Minnesota", "state_code": "MN", "phone": "+1 612-624-6666", "website": "http://www.mhealth.org/", "rating": "", "reviews": "", "place_id": "ChIJV_yFeT0ts1IRKx0HJffsNFA", "latitude": 44.972078, "longitude": -93.2329403, "subtypes": "Neurologist"}, {"name": "Thuy An Hoang-Tienor", "address": "701 Park Ave, Minneapolis, MN 554151623", "city": "Minneapolis", "state": "Minnesota", "state_code": "MN", "phone": "+1 612-873-3000", "website": "https://www.hennepinhealthcare.org/provider/ann-hoang-tienor-md/", "rating": "", "reviews": "", "place_id": "ChIJGfHSIaAys1IRKUMcKxWtvoQ", "latitude": 44.9720547, "longitude": -93.2617538, "subtypes": "Neurologist"}, {"name": "Dr. Raluca F. Banica-Wolters, MD", "address": "2220 Riverside Ave, Minneapolis, MN 55454", "city": "Minneapolis", "state": "Minnesota", "state_code": "MN", "phone": "+1 952-967-7175", "website": "http://www.healthpartners.com/", "rating": "", "reviews": "", "place_id": "ChIJrYRYREcts1IRcp32g5mFA_s", "latitude": 44.9680541, "longitude": -93.2400899, "subtypes": "Neurologist"}, {"name": "Mahmoud G. Nagib, MD", "address": "Piper Building, 913 E 26th St suite 305, Minneapolis, MN 55404", "city": "Minneapolis", "state": "Minnesota", "state_code": "MN", "phone": "+1 612-871-7278", "website": "https://account.allinahealth.org/providers/2663", "rating": "", "reviews": "", "place_id": "ChIJuc0-4qoys1IRQ341H2Pil1g", "latitude": 44.9551805, "longitude": -93.260902, "subtypes": "Neurologist"}, {"name": "Tenbit Emiru, MD, PhD", "address": "730 S 8th St, Minneapolis, MN 55415", "city": "Minneapolis", "state": "Minnesota", "state_code": "MN", "phone": "+1 612-873-3000", "website": "", "rating": "", "reviews": "", "place_id": "ChIJtfavJ6Ays1IRT_gGmwMDUvA", "latitude": 44.9717774, "longitude": -93.2622336, "subtypes": "Neurologist"}, {"name": "Mccabe James S MD", "address": "420 Delaware St SE, Minneapolis, MN 55455", "city": "Minneapolis", "state": "Minnesota", "state_code": "MN", "phone": "+1 612-626-3000", "website": "", "rating": "", "reviews": "", "place_id": "ChIJ7dqpjT0ts1IROH5AJ_e-b0Y", "latitude": 44.972078, "longitude": -93.2329403, "subtypes": "Neurologist"}, {"name": "Dr. Karen Wills, PhD, LP", "address": "2545 Chicago Ave, Minneapolis, MN 55404", "city": "Minneapolis", "state": "Minnesota", "state_code": "MN", "phone": "+1 612-813-6224", "website": "", "rating": "", "reviews": "", "place_id": "ChIJqQmUl6sys1IRspZAMSVXIEY", "latitude": 44.9557844, "longitude": -93.2619411, "subtypes": "Neurologist"}, {"name": "Ann Hoang-Tienor, MD", "address": "715 S 8th St, Minneapolis, MN 55404", "city": "Minneapolis", "state": "Minnesota", "state_code": "MN", "phone": "+1 612-873-6963", "website": "https://www.hennepinhealthcare.org/provider/ann-hoang-tienor-md/", "rating": "", "reviews": "", "place_id": "ChIJWcXlNBMzs1IRnyzwTFvJLRM", "latitude": 44.9710105, "longitude": -93.2632258, "subtypes": "Neurologist"}, {"name": "Laura C. Speltz, MD", "address": "420 Delaware St SE, Minneapolis, MN 55455", "city": "Minneapolis", "state": "Minnesota", "state_code": "MN", "phone": "+1 612-626-6688", "website": "https://med.umn.edu/bio/neurology-faculty/laura-speltz", "rating": "", "reviews": "", "place_id": "ChIJR6fHa9Its1IRYZxusVlf9Aw", "latitude": 44.972078, "longitude": -93.2329403, "subtypes": "Neurologist"}, {"name": "Dr. John T. Macdonald, MD", "address": "2450 Riverside Ave, Minneapolis, MN 55454", "city": "Minneapolis", "state": "Minnesota", "state_code": "MN", "phone": "+1 612-273-3000", "website": "", "rating": "", "reviews": "", "place_id": "ChIJT4OQZz0ts1IRvcIRfiYuaF4", "latitude": 44.9669782, "longitude": -93.23701729999999, "subtypes": "Pediatric neurologist"}, {"name": "Mary B. Koolmo, APRN, CNP", "address": "2525 Chicago Ave, Minneapolis, MN 55404", "city": "Minneapolis", "state": "Minnesota", "state_code": "MN", "phone": "+1 651-220-6000", "website": "http://www.childrensmn.org/", "rating": "", "reviews": "", "place_id": "ChIJiRNXyLkq9ocRBD6p6GiGVyg", "latitude": 44.956335, "longitude": -93.26214499999999, "subtypes": "Neurologist"}, {"name": "Dr. Scott R. Bundlie, MD", "address": "701 Park Ave, Minneapolis, MN 55415", "city": "Minneapolis", "state": "Minnesota", "state_code": "MN", "phone": "+1 612-873-2515", "website": "", "rating": "", "reviews": "", "place_id": "ChIJa3puKKAys1IRbtPdn6x24eY", "latitude": 44.972084, "longitude": -93.2622337, "subtypes": "Neurologist"}, {"name": "Ivan Matos, MD", "address": "715 S 8th St, Minneapolis, MN 55404", "city": "Minneapolis", "state": "Minnesota", "state_code": "MN", "phone": "+1 612-873-6963", "website": "https://baptisthealth.net/", "rating": "", "reviews": "", "place_id": "ChIJZ0J5yaEys1IRzIgQpFi3y-s", "latitude": 44.9711612, "longitude": -93.26322119999999, "subtypes": "Neurologist"}, {"name": "Jeffrey Wozniak, PhD, LP", "address": "2312 S 6th St, Minneapolis, MN 55454", "city": "Minneapolis", "state": "Minnesota", "state_code": "MN", "phone": "+1 612-273-9800", "website": "", "rating": "", "reviews": "", "place_id": "ChIJBfZPHyEts1IRsp_8ydj1QL4", "latitude": 44.967932, "longitude": -93.2383437, "subtypes": "Pediatric neurologist"}, {"name": "Neurological Associates of St. Paul, P.A.", "address": "17 W Exchange St #850, St Paul, MN 55102", "city": "St Paul", "state": "Minnesota", "state_code": "MN", "phone": "+1 651-221-9051", "website": "", "rating": 2.3, "reviews": 8, "place_id": "ChIJdVDmM7cq9ocR2fhFhd639cI", "latitude": 44.9488099, "longitude": -93.0988848, "subtypes": "Neurologist"}, {"name": "HealthPartners Neuroscience Center Building", "address": "295 Phalen Blvd, St Paul, MN 55130", "city": "St Paul", "state": "Minnesota", "state_code": "MN", "phone": "+1 651-495-6300", "website": "https://www.healthpartners.com/care/find/location/centers/neuroscience-center/st-paul/%3Futm_campaign%3Dneuro_locallistings_20m1_care_hp%26utm_source%3Dgooglemybusiness_%26utm_medium%3Dorganic%26utm_content%3Dhealthpartners-neuroscience-center-building_localpack_conversion%26utm_term%3D_v1__/", "rating": 4.3, "reviews": 6, "place_id": "ChIJc8VMPBnVslIRRVrIrB__lOw", "latitude": 44.96197979999999, "longitude": -93.0882726, "subtypes": "Neurologist"}, {"name": "Dr. Joseph Petronio, MD", "address": "347 Smith Ave N, St Paul, MN 55102", "city": "St Paul", "state": "Minnesota", "state_code": "MN", "phone": "+1 651-220-5230", "website": "https://findadoctor.spectrumhealth.org/physician/profile/7713", "rating": 5, "reviews": 12, "place_id": "ChIJETtaurkq9ocRotmbhdYmcjg", "latitude": 44.94267, "longitude": -93.10822499999999, "subtypes": "Neurologist"}, {"name": "Dr. Julia C. Johnson", "address": "401 Phalen Blvd, St Paul, MN 55130", "city": "St Paul", "state": "Minnesota", "state_code": "MN", "phone": "+1 651-254-7900", "website": "https://www.healthpartners.com/care/find/doctor/96210/", "rating": 5, "reviews": 2, "place_id": "ChIJbd2r3U7VslIR7QWBm0t1Xm0", "latitude": 44.9650379, "longitude": -93.0844869, "subtypes": "Neurologist"}, {"name": "Dr. David W. Johnson, MD", "address": "401 Phalen Blvd, St Paul, MN 55130", "city": "St Paul", "state": "Minnesota", "state_code": "MN", "phone": "+1 651-254-7400", "website": "", "rating": 5, "reviews": 3, "place_id": "ChIJeQ83507VslIR19ltmMDOznw", "latitude": 44.9649544, "longitude": -93.0843819, "subtypes": "Neurologist"}, {"name": "Dr. Haitham Hussein, MD", "address": "401 Phalen Blvd, St Paul, MN 55130", "city": "St Paul", "state": "Minnesota", "state_code": "MN", "phone": "+1 651-254-7900", "website": "https://www.healthpartners.com/", "rating": 5, "reviews": 1, "place_id": "ChIJbd2r3U7VslIRetAchYpDFrE", "latitude": 44.9650379, "longitude": -93.0844869, "subtypes": "Neurologist"}, {"name": "Dr. Marcel Hungs", "address": "401 Phalen Blvd, St Paul, MN 55130", "city": "St Paul", "state": "Minnesota", "state_code": "MN", "phone": "+1 651-254-7400", "website": "https://www.healthpartners.com/care/find/doctor/78027/", "rating": 3.5, "reviews": 4, "place_id": "ChIJAQDA3E7VslIRz2uQdjJ5Cdw", "latitude": 44.9649544, "longitude": -93.0843819, "subtypes": "Neurologist"}, {"name": "Dr. Nitin Agarwal, MD", "address": "225 Smith Ave N #201, St Paul, MN 55102", "city": "St Paul", "state": "Minnesota", "state_code": "MN", "phone": "+1 651-241-5290", "website": "https://www.childrensmn.org/applications/findadoctor/profile/302836697/nitin-agarwal-md/", "rating": 5, "reviews": 3, "place_id": "ChIJ2ZYN2Lkq9ocRHgcF8hr_xWo", "latitude": 44.9421404, "longitude": -93.1077416, "subtypes": "Neurologist"}, {"name": "Callaghan Scott MD", "address": "255 Smith Ave N # 201, St Paul, MN 55102", "city": "St Paul", "state": "Minnesota", "state_code": "MN", "phone": "+1 651-221-9051", "website": "", "rating": 5, "reviews": 1, "place_id": "ChIJkaSESrcq9ocRIkdva_u-5T0", "latitude": 44.9437186, "longitude": -93.10661569999999, "subtypes": "Neurologist"}, {"name": "Dr. Frank J. Ritter, MD", "address": "225 Smith Ave N #201, St Paul, MN 55102", "city": "St Paul", "state": "Minnesota", "state_code": "MN", "phone": "+1 651-241-5290", "website": "", "rating": 5, "reviews": 1, "place_id": "ChIJzZ0ozLAq9ocRSNLRdYL-EXg", "latitude": 44.9441827, "longitude": -93.10608289999999, "subtypes": "Neurologist"}, {"name": "Neurosurgery Associates Ltd: Wallenfriedman Margaret PHD", "address": "225 Smith Ave N, St Paul, MN 55102", "city": "St Paul", "state": "Minnesota", "state_code": "MN", "phone": "+1 651-232-3900", "website": "", "rating": 5, "reviews": 1, "place_id": "ChIJzZ0ozLAq9ocReKmv43LPPTo", "latitude": 44.9441114, "longitude": -93.1060827, "subtypes": "Neurosurgeon"}, {"name": "Dr. Geoffrey J. Arlt, MD", "address": "401 Phalen Blvd, St Paul, MN 55130", "city": "St Paul", "state": "Minnesota", "state_code": "MN", "phone": "+1 651-254-7400", "website": "http://www.healthpartners.com/", "rating": 5, "reviews": 4, "place_id": "ChIJeQ83507VslIRW8SqedwBYHs", "latitude": 44.9649544, "longitude": -93.0843819, "subtypes": "Neurologist"}, {"name": "Dr. Elizabeth Ellen Gilles, MD", "address": "347 Smith Ave N, St Paul, MN 55102", "city": "St Paul", "state": "Minnesota", "state_code": "MN", "phone": "+1 651-220-6705", "website": "", "rating": 5, "reviews": 1, "place_id": "ChIJq6qqqsYq9ocRg0RZ7L1iMI8", "latitude": 44.9427568, "longitude": -93.10746449999999, "subtypes": "Neurologist"}, {"name": "Dr. Paul M. Schanfield, MD", "address": "255 Smith Ave N # 201, St Paul, MN 55102", "city": "St Paul", "state": "Minnesota", "state_code": "MN", "phone": "+1 651-221-9051", "website": "", "rating": "", "reviews": "", "place_id": "ChIJkaSESrcq9ocRDueYLIWR-0s", "latitude": 44.9437186, "longitude": -93.1066158, "subtypes": "Neurologist"}, {"name": "Gilles Elizabeth E MD", "address": "360 Sherman St #399, St Paul, MN 55102", "city": "St Paul", "state": "Minnesota", "state_code": "MN", "phone": "+1 651-356-6080", "website": "http://childneurologysolutions.com/", "rating": 3.5, "reviews": 2, "place_id": "ChIJl9M3KLEq9ocRv6mGcgM5lrM", "latitude": 44.9421443, "longitude": -93.10874609999999, "subtypes": "Neurologist"}, {"name": "Dr. Mary E. Dunn", "address": "17 W Exchange St, St Paul, MN 55102", "city": "St Paul", "state": "Minnesota", "state_code": "MN", "phone": "+1 651-232-3900", "website": "https://www.healtheast.org/", "rating": 5, "reviews": 3, "place_id": "ChIJmXdZXK0q9ocRFgHLXRGlHxo", "latitude": 44.949141, "longitude": -93.098686, "subtypes": "Neurologist"}, {"name": "Larkins Mark V MD", "address": "640 Jackson St # 2118, St Paul, MN 55101", "city": "St Paul", "state": "Minnesota", "state_code": "MN", "phone": "+1 651-254-3456", "website": "http://www.regionshospital.com/", "rating": "", "reviews": "", "place_id": "ChIJWUg0-VTV94cRm965BxN5n-M", "latitude": 44.9564464, "longitude": -93.0945694, "subtypes": "Neurologist"}, {"name": "Dr. Deanna L. Dickens, MD", "address": "225 Smith Ave N #201, St Paul, MN 55102", "city": "St Paul", "state": "Minnesota", "state_code": "MN", "phone": "+1 651-241-5290", "website": "", "rating": 5, "reviews": 1, "place_id": "ChIJzZ0ozLAq9ocRRbyheGF68Ik", "latitude": 44.9441827, "longitude": -93.10608289999999, "subtypes": "Neurologist"}, {"name": "Dr. Patricia E. Penovich, MD", "address": "225 Smith Ave N #201, St Paul, MN 55102", "city": "St Paul", "state": "Minnesota", "state_code": "MN", "phone": "+1 651-241-5290", "website": "", "rating": "", "reviews": "", "place_id": "ChIJzZ0ozLAq9ocRCAz-Cx3JlZE", "latitude": 44.9441827, "longitude": -93.10608289999999, "subtypes": "Neurologist"}, {"name": "Galen Breningstall, MD", "address": "435 Phalen Blvd, St Paul, MN 55130", "city": "St Paul", "state": "Minnesota", "state_code": "MN", "phone": "+1 651-636-9443", "website": "https://www.gillettechildrens.org/care-team/galen-breningstall-md-pediatric-neurologist", "rating": 5, "reviews": 3, "place_id": "ChIJ1RiwbbHVslIRxvDe3DACE14", "latitude": 44.9655905, "longitude": -93.08240839999999, "subtypes": "Neurologist"}, {"name": "Galen Breningstall, MD", "address": "200 University Ave E, St Paul, MN 55101", "city": "St Paul", "state": "Minnesota", "state_code": "MN", "phone": "+1 651-291-2848", "website": "https://www.gillettechildrens.org/care-team/galen-breningstall-md-pediatric-neurologist", "rating": 4, "reviews": 4, "place_id": "ChIJsYwCJ1XV94cRVhTP-eST3Jk", "latitude": 44.9570807, "longitude": -93.0954062, "subtypes": "Neurologist"}, {"name": "Dr. John W. Floberg, MD", "address": "360 Sherman St, St Paul, MN 55102", "city": "St Paul", "state": "Minnesota", "state_code": "MN", "phone": "+1 651-291-1559", "website": "", "rating": 3.4, "reviews": 5, "place_id": "ChIJF8dtDLcq9ocRHkpewsoC1NE", "latitude": 44.9420985, "longitude": -93.106326, "subtypes": "Neurologist"}, {"name": "Dr. Shani K. Norberg, MD", "address": "200 University Ave E, St Paul, MN 55101", "city": "St Paul", "state": "Minnesota", "state_code": "MN", "phone": "+1 651-229-3928", "website": "", "rating": "", "reviews": "", "place_id": "ChIJsYwCJ1XV94cRfnj3Z1gkkx0", "latitude": 44.956391, "longitude": -93.0955644, "subtypes": "Neurologist"}, {"name": "Dr. Sandra K. Hanson, MD", "address": "45 W 10th St, St Paul, MN 55102", "city": "St Paul", "state": "Minnesota", "state_code": "MN", "phone": "+1 651-232-3000", "website": "", "rating": "", "reviews": "", "place_id": "ChIJn36mb60q9ocRcKHzLWU1YMs", "latitude": 44.94909879999999, "longitude": -93.1000226, "subtypes": "Neurologist"}, {"name": "Dr. Betty Y. Ong, MD", "address": "200 University Ave E, St Paul, MN 55101", "city": "St Paul", "state": "Minnesota", "state_code": "MN", "phone": "+1 651-291-2848", "website": "http://www.gillettechildrens.org/", "rating": 5, "reviews": 1, "place_id": "ChIJsYwCJ1XV94cRkK-53Vtinbg", "latitude": 44.9567202, "longitude": -93.0965664, "subtypes": "Neurologist"}, {"name": "Dr. Mark V. Larkins, MD", "address": "889 W Grand Ave #102, St Paul, MN 55105", "city": "St Paul", "state": "Minnesota", "state_code": "MN", "phone": "+1 651-254-7400", "website": "http://www.healthpartners.com/", "rating": 5, "reviews": 1, "place_id": "ChIJeQ83507VslIR099Tg8tCEfI", "latitude": 44.9402269, "longitude": -93.1376215, "subtypes": "Neurosurgeon"}, {"name": "Dr. Zohreh Mahdavi, MD", "address": "255 Smith Ave N # 201, St Paul, MN 55102", "city": "St Paul", "state": "Minnesota", "state_code": "MN", "phone": "+1 651-221-9051", "website": "", "rating": 2, "reviews": 4, "place_id": "ChIJkaSESrcq9ocRiJG8zIHp6QE", "latitude": 44.9437186, "longitude": -93.1066158, "subtypes": "Neurologist"}, {"name": "Dr. Karen G. Porth, MD", "address": "1700 University Ave W, St Paul, MN 55104", "city": "St Paul", "state": "Minnesota", "state_code": "MN", "phone": "+1 208-367-2121", "website": "http://www.saintalphonsus.org/neurology%23providers", "rating": "", "reviews": "", "place_id": "ChIJO0WW4QYq9ocRAYKPxJU1dj0", "latitude": 44.9539119, "longitude": -93.17154649999999, "subtypes": "Neurologist"}, {"name": "Li Laura MD", "address": "255 Smith Ave N # 201, St Paul, MN 55102", "city": "St Paul", "state": "Minnesota", "state_code": "MN", "phone": "+1 651-221-9051", "website": "", "rating": "", "reviews": "", "place_id": "ChIJkaSESrcq9ocR3KWmn3xEVcQ", "latitude": 44.9437186, "longitude": -93.1066158, "subtypes": "Neurologist"}, {"name": "Dr. Michael D. Frost, MD", "address": "225 Smith Ave N #201, St Paul, MN 55102", "city": "St Paul", "state": "Minnesota", "state_code": "MN", "phone": "+1 651-241-5290", "website": "", "rating": "", "reviews": "", "place_id": "ChIJzZ0ozLAq9ocRFjebHLgsi7A", "latitude": 44.9441827, "longitude": -93.10608289999999, "subtypes": "Neurologist"}, {"name": "Hanna Julie E MD", "address": "225 Smith Ave N, St Paul, MN 55102", "city": "St Paul", "state": "Minnesota", "state_code": "MN", "phone": "+1 651-241-5290", "website": "", "rating": 4, "reviews": 4, "place_id": "ChIJzZ0ozLAq9ocR7YXUFLIKf-M", "latitude": 44.9441114, "longitude": -93.1060827, "subtypes": "Neurologist"}, {"name": "Kinshuk Sahaya", "address": "225 Smith Ave N #201, St Paul, MN 55102", "city": "St Paul", "state": "Minnesota", "state_code": "MN", "phone": "+1 651-220-5290", "website": "http://mnepilepsy.org/", "rating": "", "reviews": "", "place_id": "ChIJkxowzLAq9ocRXVoki8HP5hU", "latitude": 44.944147, "longitude": -93.1060407, "subtypes": "Neurologist"}, {"name": "Espeland L Michael MD", "address": "1700 University Ave W, St Paul, MN 55104", "city": "St Paul", "state": "Minnesota", "state_code": "MN", "phone": "+1 651-232-5348", "website": "", "rating": "", "reviews": "", "place_id": "ChIJO0WW4QYq9ocRPZ9Z2F5GDk4", "latitude": 44.9539119, "longitude": -93.17154649999999, "subtypes": "Neurologist"}, {"name": "Dr. Wangcai Gao", "address": "310 Smith Ave N #440, St Paul, MN 55102", "city": "St Paul", "state": "Minnesota", "state_code": "MN", "phone": "+1 651-241-6550", "website": "https://account.allinahealth.org/providers/19209", "rating": "", "reviews": "", "place_id": "ChIJKxzB07kq9ocR-1BNsZrvws8", "latitude": 44.9417334, "longitude": -93.10813279999999, "subtypes": "Neurologist"}, {"name": "Dr. Michael H. Rosenbloom, MD", "address": "401 Phalen Blvd, St Paul, MN 55130", "city": "St Paul", "state": "Minnesota", "state_code": "MN", "phone": "+1 651-254-7400", "website": "http://www.healthpartners.com/", "rating": 3.5, "reviews": 2, "place_id": "ChIJeQ83507VslIRsMPwqRTN-4o", "latitude": 44.9649544, "longitude": -93.0843819, "subtypes": "Neurologist"}, {"name": "Adam J. Todd, MD", "address": "3601 Minnesota Dr #200, Edina, MN 55435", "city": "Edina", "state": "Minnesota", "state_code": "MN", "phone": "+1 612-879-1000", "website": "http://www.noranclinic.com/our-providers/neurologist-biographies/adult-neurologists/adam-todd", "rating": 4.6, "reviews": 11, "place_id": "ChIJ72mspR4n9ocRTeOLKlDcos4", "latitude": 44.8611468, "longitude": -93.3266544, "subtypes": "Neurologist"}, {"name": "Fred A. Lux, MD", "address": "3601 Minnesota Dr #200, Bloomington, MN 55435", "city": "Bloomington", "state": "Minnesota", "state_code": "MN", "phone": "+1 612-879-1000", "website": "http://www.noranclinic.com/our-providers/neurologist-biographies/adult-neurologists/fred-lux", "rating": 4.6, "reviews": 11, "place_id": "ChIJZd-4J_8n9ocRq7bbrh5D34A", "latitude": 44.8611468, "longitude": -93.3266544, "subtypes": "Neurologist"}, {"name": "Eleanor K. Orehek, MD", "address": "3601 Minnesota Dr #200, Bloomington, MN 55435", "city": "Bloomington", "state": "Minnesota", "state_code": "MN", "phone": "+1 612-879-1000", "website": "http://www.noranclinic.com/our-providers/neurologist-biographies/adult-neurologists/eleanor-orehek", "rating": 4.3, "reviews": 6, "place_id": "ChIJHxKoIe4n9ocROZMMz4Gnyzc", "latitude": 44.861125, "longitude": -93.3268619, "subtypes": "Neurologist"}, {"name": "Tacjana K. E. Friday, MD", "address": "3601 Minnesota Dr #200, Bloomington, MN 55435", "city": "Bloomington", "state": "Minnesota", "state_code": "MN", "phone": "+1 612-879-1000", "website": "http://www.noranclinic.com/our-providers/neurologist-biographies/adult-neurologists/tacjana-friday", "rating": 4.5, "reviews": 16, "place_id": "ChIJeR2Z1v4n9ocRscX8YLgEMC0", "latitude": 44.8611468, "longitude": -93.3266544, "subtypes": "Neurologist"}, {"name": "Asuta Health - Edina", "address": "7300 France Ave S #302, Edina, MN 55435", "city": "Edina", "state": "Minnesota", "state_code": "MN", "phone": "+1 952-500-8090", "website": "https://asutahealth.org/", "rating": 4.9, "reviews": 96, "place_id": "ChIJJZxB2wQk9ocR-T5rX11BMkQ", "latitude": 44.8704551, "longitude": -93.329706, "subtypes": "Neurologist"}, {"name": "Oliver K. Ni, MD", "address": "3601 Minnesota Dr #200, Bloomington, MN 55435", "city": "Bloomington", "state": "Minnesota", "state_code": "MN", "phone": "+1 612-879-1000", "website": "http://www.noranclinic.com/our-providers/neurologist-biographies/adult-neurologists/oliver-k-ni-md", "rating": 4.2, "reviews": 5, "place_id": "ChIJD9q7RbYn9ocRmoE1ajIRIzg", "latitude": 44.8611468, "longitude": -93.3266544, "subtypes": "Neurologist"}, {"name": "Bruce Idelkope, MD", "address": "3400 W 66th St, Edina, MN 55435", "city": "Edina", "state": "Minnesota", "state_code": "MN", "phone": "+1 855-324-7843", "website": "", "rating": 5, "reviews": 2, "place_id": "ChIJMetvV6wn9ocRhp1BniPvHt4", "latitude": 44.8840233, "longitude": -93.32418229999999, "subtypes": "Neurologist"}, {"name": "Steven T. Janousek, MD", "address": "3601 Minnesota Dr #200, Bloomington, MN 55435", "city": "Bloomington", "state": "Minnesota", "state_code": "MN", "phone": "+1 612-879-1000", "website": "http://www.noranclinic.com/our-providers/neurologist-biographies/pediatric-neurologists/steven-t-janousek", "rating": 4.8, "reviews": 10, "place_id": "ChIJZd-4J_8n9ocRsKBvUV4R6C0", "latitude": 44.8611468, "longitude": -93.3266544, "subtypes": "Pediatric neurologist"}, {"name": "Ashfaq A. Sharif, MD", "address": "3601 Minnesota Dr Ste 200, Edina, MN 55435", "city": "Edina", "state": "Minnesota", "state_code": "MN", "phone": "+1 612-879-1000", "website": "https://www.noranclinic.com/our-providers/neurologist-biographies/adult-neurologists/ashfaq-sharif", "rating": 5, "reviews": 4, "place_id": "ChIJSVX9qbgn9ocRG4PwGUFQPm8", "latitude": 44.861138, "longitude": -93.32684619999999, "subtypes": "Neurologist"}, {"name": "Fred Lux, MD", "address": "7373 France Ave S, Edina, MN 55435", "city": "Edina", "state": "Minnesota", "state_code": "MN", "phone": "+1 612-879-1000", "website": "", "rating": 5, "reviews": 1, "place_id": "ChIJvWdHwBok9ocRqRsY51Wz6Tg", "latitude": 44.8690509, "longitude": -93.32745849999999, "subtypes": "Neurologist"}, {"name": "Amee Chandrabalan, DO", "address": "3601 Minnesota Dr #200, Edina, MN 55435", "city": "Edina", "state": "Minnesota", "state_code": "MN", "phone": "+1 612-879-1000", "website": "https://www.noranclinic.com/our-providers/neurologist-biographies/adult-neurologists/amee-chandrabalan", "rating": 3.7, "reviews": 6, "place_id": "ChIJqdKPElgn9ocRk2B9xr4narQ", "latitude": 44.8611468, "longitude": -93.3266544, "subtypes": "Neurologist"}, {"name": "Sunhee Kim", "address": "3400 W 66th St, Edina, MN 55435", "city": "Edina", "state": "Minnesota", "state_code": "MN", "phone": "+1 952-920-7200", "website": "", "rating": 5, "reviews": 1, "place_id": "ChIJAQDAYqQm9ocReTCqODTceWs", "latitude": 44.8840161, "longitude": -93.3244905, "subtypes": "Neurologist"}, {"name": "Alexander Zubkov, MD, PhD, FAHA", "address": "3400 W 66th St, Edina, MN 55435", "city": "Edina", "state": "Minnesota", "state_code": "MN", "phone": "+1 855-324-7843", "website": "https://www.fairview.org/providers/z/u/b/k/o/zubkovalexander-1356300536", "rating": 3.4, "reviews": 19, "place_id": "ChIJcabre2In9ocRlhwXSCgySoY", "latitude": 44.8840233, "longitude": -93.32418229999999, "subtypes": "Neurologist"}, {"name": "John A. Damergis, MD", "address": "3601 Minnesota Dr Ste 200, Bloomington, MN 55435", "city": "Bloomington", "state": "Minnesota", "state_code": "MN", "phone": "+1 612-879-1000", "website": "http://www.noranclinic.com/our-providers/neurologist-biographies/adult-neurologists/john-damergis", "rating": 3.9, "reviews": 15, "place_id": "ChIJZd-4J_8n9ocR3hSzUmjzRXw", "latitude": 44.8610886, "longitude": -93.32689979999999, "subtypes": "Neurologist"}, {"name": "Janiece Aldinger, MD", "address": "3400 W 66th St, Edina, MN 55435", "city": "Edina", "state": "Minnesota", "state_code": "MN", "phone": "+1 952-920-7200", "website": "https://www.fairview.org/providers/AldingerJaniece-1696178004", "rating": 4.3, "reviews": 6, "place_id": "ChIJpfKghaQm9ocRadjOWmm9I80", "latitude": 44.8840233, "longitude": -93.32418229999999, "subtypes": "Neurologist"}, {"name": "Susan E. Minette, DO", "address": "3601 Minnesota Dr #200, Bloomington, MN 55435", "city": "Bloomington", "state": "Minnesota", "state_code": "MN", "phone": "+1 612-879-1000", "website": "http://www.noranclinic.com/our-providers/neurologist-biographies/adult-neurologists/susan-minette", "rating": 4.3, "reviews": 6, "place_id": "ChIJZd-4J_8n9ocRU_sRt7-MM04", "latitude": 44.8611468, "longitude": -93.3266544, "subtypes": "Neurologist"}, {"name": "Soren A. Ryberg, MD", "address": "7373 France Ave S, Edina, MN 55435", "city": "Edina", "state": "Minnesota", "state_code": "MN", "phone": "+1 612-879-1000", "website": "https://fairview.org/providers/RybergSoren-1490074243", "rating": 1, "reviews": 2, "place_id": "ChIJvWdHwBok9ocRgaXPdec2W4U", "latitude": 44.8690509, "longitude": -93.32745849999999, "subtypes": "Neurologist"}, {"name": "Ernest T. Hanes, DO", "address": "3601 Minnesota Dr #200, Edina, MN 55435", "city": "Edina", "state": "Minnesota", "state_code": "MN", "phone": "+1 612-879-1000", "website": "https://www.noranclinic.com/our-providers/neurologist-biographies/adult-neurologists/ernest-hanes", "rating": "", "reviews": "", "place_id": "ChIJK9cQ3dol9ocRZtNM_dVCBkc", "latitude": 44.8611468, "longitude": -93.3266544, "subtypes": "Neurologist"}, {"name": "Yelena Usmanova, MD", "address": "3400 W 66th St, Edina, MN 55435", "city": "Edina", "state": "Minnesota", "state_code": "MN", "phone": "+1 952-920-7200", "website": "", "rating": 2.8, "reviews": 5, "place_id": "ChIJpfKghaQm9ocR3_gSOvQeUoo", "latitude": 44.8840233, "longitude": -93.32418229999999, "subtypes": "Neurologist"}, {"name": "Steven Stein, MD", "address": "3400 W 66th St, Edina, MN 55435", "city": "Edina", "state": "Minnesota", "state_code": "MN", "phone": "+1 952-920-7200", "website": "", "rating": 5, "reviews": 1, "place_id": "ChIJpfKghaQm9ocRa7LEF30yNMs", "latitude": 44.8840233, "longitude": -93.32418229999999, "subtypes": "Neurologist"}, {"name": "Erika L. Wexler, MD", "address": "3601 Minnesota Dr #200, Edina, MN 55435", "city": "Edina", "state": "Minnesota", "state_code": "MN", "phone": "+1 612-879-1000", "website": "http://www.noranclinic.com/our-providers/neurologist-biographies/pediatric-neurologists/erika-wexler-md", "rating": 4.4, "reviews": 7, "place_id": "ChIJq3UqSvIn9ocR2WwhyEP8k-4", "latitude": 44.8611468, "longitude": -93.3266544, "subtypes": "Pediatric neurologist"}, {"name": "Dr. Joel I. Gedan, MD", "address": "6545 France Ave S # 670, Edina, MN 55435", "city": "Edina", "state": "Minnesota", "state_code": "MN", "phone": "+1 952-926-8887", "website": "", "rating": 1, "reviews": 1, "place_id": "ChIJB5kUDqUm9ocRVDGzfAht_lw", "latitude": 44.884579, "longitude": -93.32737, "subtypes": "Neurologist"}, {"name": "Conor S. Ryan, MD", "address": "3601 Minnesota Dr #200, Bloomington, MN 55435", "city": "Bloomington", "state": "Minnesota", "state_code": "MN", "phone": "+1 612-879-1000", "website": "https://www.noranclinic.com/our-providers/neurologist-biographies/pediatric-neurologists/conor-s-ryan-md", "rating": 5, "reviews": 1, "place_id": "ChIJVVWV1v4n9ocRnkhDMlDkBN0", "latitude": 44.8611544, "longitude": -93.3266759, "subtypes": "Pediatric neurologist"}, {"name": "Vanda R. Niemi, MD", "address": "3601 Minnesota Dr #200, Edina, MN 55435", "city": "Edina", "state": "Minnesota", "state_code": "MN", "phone": "+1 612-879-1000", "website": "http://www.noranclinic.com/our-providers/neurologist-biographies/adult-neurologists/vanda-niemi", "rating": "", "reviews": "", "place_id": "ChIJZ93YC3sks1IRJXIlii0Igm4", "latitude": 44.8611468, "longitude": -93.3266544, "subtypes": "Neurologist"}, {"name": "Amy E. Catalfamo, MD", "address": "3601 Minnesota Dr #200, Bloomington, MN 55435", "city": "Bloomington", "state": "Minnesota", "state_code": "MN", "phone": "+1 612-879-1000", "website": "https://www.noranclinic.com/our-providers/neurologist-biographies/pediatric-neurologists/amy-catalfamo", "rating": 5, "reviews": 1, "place_id": "ChIJH4jmw9sn9ocRntjpLwrRC40", "latitude": 44.8611468, "longitude": -93.3266544, "subtypes": "Pediatric neurologist"}, {"name": "Rohan Lall, MD", "address": "6545 France Ave S, Edina, MN 55435", "city": "Edina", "state": "Minnesota", "state_code": "MN", "phone": "+1 855-324-7843", "website": "https://fairview.org/providers/LallRohan-1496729694", "rating": 4.6, "reviews": 9, "place_id": "ChIJPcB4Txsn9ocRJOX8ZDUUbZE", "latitude": 44.88462579999999, "longitude": -93.3275073, "subtypes": "Neurosurgeon"}, {"name": "Dunlay Ryan P MD", "address": "8100 Northland Dr, Minneapolis, MN 55431", "city": "Minneapolis", "state": "Minnesota", "state_code": "MN", "phone": "+1 952-831-8742", "website": "http://tria.com/", "rating": "", "reviews": "", "place_id": "ChIJBcd9SG0k9ocRJSBfyt3VQJo", "latitude": 44.857836, "longitude": -93.3279227, "subtypes": "Neurologist"}, {"name": "Dr. Sabrina M. Walski-Easton, MD", "address": "6545 France Ave S, Edina, MN 55435", "city": "Edina", "state": "Minnesota", "state_code": "MN", "phone": "+1 952-926-2711", "website": "", "rating": 5, "reviews": 1, "place_id": "ChIJB5kUDqUm9ocRVn8jahiv0HM", "latitude": 44.8846588, "longitude": -93.3274806, "subtypes": "Neurosurgeon"}, {"name": "Sotirios Parashos, MD, PhD", "address": "3400 W 66th St, Edina, MN 55435", "city": "Edina", "state": "Minnesota", "state_code": "MN", "phone": "+1 952-920-7200", "website": "", "rating": "", "reviews": "", "place_id": "ChIJpfKghaQm9ocRTTrGt_xpFVI", "latitude": 44.8840233, "longitude": -93.32418229999999, "subtypes": "Neurologist"}, {"name": "John E. Trusheim, MD", "address": "3601 Minnesota Dr #200, Edina, MN 55435", "city": "Edina", "state": "Minnesota", "state_code": "MN", "phone": "+1 612-879-1000", "website": "https://www.noranclinic.com/our-providers/neurologist-biographies/adult-neurologists/john-trusheim", "rating": "", "reviews": "", "place_id": "ChIJyayVQ8Il9ocRcjSkzkbY3Qg", "latitude": 44.8611468, "longitude": -93.3266544, "subtypes": "Neurologist"}, {"name": "Dr. Susan L. Evans, MD", "address": "7373 France Ave S, Edina, MN 55435", "city": "Edina", "state": "Minnesota", "state_code": "MN", "phone": "+1 612-879-1000", "website": "http://www.noranclinic.com/", "rating": "", "reviews": "", "place_id": "ChIJvWdHwBok9ocRIluozRnNS30", "latitude": 44.8689448, "longitude": -93.32763969999999, "subtypes": "Neurologist"}, {"name": "Dr. Felix Zwiebel, MD", "address": "3400 W 66th St #150, Minneapolis, MN 55435", "city": "Minneapolis", "state": "Minnesota", "state_code": "MN", "phone": "+1 952-920-7200", "website": "", "rating": "", "reviews": "", "place_id": "ChIJpfKghaQm9ocR9mLiO0H8sfE", "latitude": 44.8840008, "longitude": -93.3243504, "subtypes": "Neurologist"}, {"name": "Timothy J. Feyma, MD", "address": "3601 Minnesota Dr #200, Edina, MN 55435", "city": "Edina", "state": "Minnesota", "state_code": "MN", "phone": "+1 612-879-1000", "website": "https://www.noranclinic.com/", "rating": "", "reviews": "", "place_id": "ChIJS1tORIgl9ocRKMpnDix6FXA", "latitude": 44.8611468, "longitude": -93.3266544, "subtypes": "Neurologist"}, {"name": "Dr. David A. Rottenberg, MD", "address": "1 Veterans Dr, Minneapolis, MN 55417", "city": "Minneapolis", "state": "Minnesota", "state_code": "MN", "phone": "+1 612-725-2000", "website": "", "rating": "", "reviews": "", "place_id": "ChIJTbNHjhYp9ocR-zOTWK94VxU", "latitude": 44.9016295, "longitude": -93.20435189999999, "subtypes": "Neurologist"}, {"name": "Kristen M. Kelly-Williams, MD", "address": "3400 W 66th St, Edina, MN 55435", "city": "Edina", "state": "Minnesota", "state_code": "MN", "phone": "", "website": "https://www.fairview.org/providers/KellyWilliamsKristen-1293839078", "rating": "", "reviews": "", "place_id": "ChIJyeOODEgn9ocR637Uq2elVps", "latitude": 44.8840233, "longitude": -93.32418229999999, "subtypes": "Neurologist"}, {"name": "Michael P. Sethna, MD, PhD", "address": "8515 Eagle Point Blvd STE 100, Lake Elmo, MN 55042", "city": "Lake Elmo", "state": "Minnesota", "state_code": "MN", "phone": "+1 612-879-1000", "website": "http://www.noranclinic.com/our-providers/neurologist-biographies/adult-neurologists/michael-p-sethna", "rating": 4.1, "reviews": 13, "place_id": "ChIJZd-4J_8n9ocRtDBr5hZHB9Q", "latitude": 44.9543573, "longitude": -92.9331248, "subtypes": "Neurologist"}, {"name": "Syed Shahkhan", "address": "8515 Eagle Point Blvd STE 100, Lake Elmo, MN 55042", "city": "Lake Elmo", "state": "Minnesota", "state_code": "MN", "phone": "+1 612-879-1000", "website": "https://www.noranclinic.com/our-providers/neurologist-biographies/adult-neurologists/syed-shahkhan", "rating": 5, "reviews": 5, "place_id": "ChIJVVWVZwPY94cRii0f4IlXOA0", "latitude": 44.9543573, "longitude": -92.9331248, "subtypes": "Neurologist"}, {"name": "Capitol Neurology, Pa", "address": "1210 1st St W, Hastings, MN 55033", "city": "Hastings", "state": "Minnesota", "state_code": "MN", "phone": "+1 651-438-1800", "website": "http://www.allinahealth.org/", "rating": "", "reviews": "", "place_id": "ChIJL0D7ABnE94cR53FP-wZ8rwI", "latitude": 44.7465345, "longitude": -92.87431169999999, "subtypes": "Neurologist"}, {"name": "Syed M. Shahkhan, MD", "address": "8515 Eagle Point Blvd STE 100, Lake Elmo, MN 55042", "city": "Lake Elmo", "state": "Minnesota", "state_code": "MN", "phone": "+1 612-879-1000", "website": "https://www.noranclinic.com/our-providers/neurologist-biographies/adult-neurologists/syed-shahkhan", "rating": 5, "reviews": 1, "place_id": "ChIJVVWVZwPY94cRvsm_GzP6OAg", "latitude": 44.9543573, "longitude": -92.9331248, "subtypes": "Neurologist"}, {"name": "Katlyn Arndt", "address": "8515 Eagle Point Blvd STE 100, Lake Elmo, MN 55042", "city": "Lake Elmo", "state": "Minnesota", "state_code": "MN", "phone": "+1 612-879-1000", "website": "https://www.noranclinic.com/our-providers/advanced-practice-providers-biographies/katlyn-arndt", "rating": 5, "reviews": 1, "place_id": "ChIJVVWVZwPY94cRoBxetp4y-O8", "latitude": 44.9542048, "longitude": -92.93298779999999, "subtypes": "Neurologist"}, {"name": "Christine A. Ebbers-Furmanek, DO", "address": "8515 Eagle Point Blvd STE 100, Lake Elmo, MN 55042", "city": "Lake Elmo", "state": "Minnesota", "state_code": "MN", "phone": "+1 612-879-1000", "website": "http://www.noranclinic.com/our-providers/neurologist-biographies/adult-neurologists/christine-ebbers", "rating": 5, "reviews": 12, "place_id": "ChIJuz5tkvIls1IRjr4g5gfLKZk", "latitude": 44.9543573, "longitude": -92.9331248, "subtypes": "Neurologist"}, {"name": "Chadwick Donald MD", "address": "1825 Woodwinds Dr. # 400, Woodbury, MN 55125", "city": "Woodbury", "state": "Minnesota", "state_code": "MN", "phone": "+1 651-232-6800", "website": "", "rating": "", "reviews": "", "place_id": "ChIJebxiuf_W94cRAc9GC1UeOnE", "latitude": 44.9223784, "longitude": -92.9790517, "subtypes": "Neurologist"}, {"name": "Amee N. Chandrabalan, DO", "address": "8515 Eagle Point Blvd STE 100, Lake Elmo, MN 55042", "city": "Lake Elmo", "state": "Minnesota", "state_code": "MN", "phone": "+1 612-879-1000", "website": "https://www.noranclinic.com/our-providers/neurologist-biographies/adult-neurologists/amee-chandrabalan", "rating": 3.9, "reviews": 7, "place_id": "ChIJVVWVZwPY94cR8_6k9vbEwg4", "latitude": 44.9543573, "longitude": -92.9331248, "subtypes": "Neurologist"}, {"name": "Dr. Peter J. Boardman, MD", "address": "255 Smith Ave N # 201, St Paul, MN 55102", "city": "St Paul", "state": "Minnesota", "state_code": "MN", "phone": "+1 651-221-9051", "website": "", "rating": 2.5, "reviews": 6, "place_id": "ChIJkaSESrcq9ocRS5y1ghHbblI", "latitude": 44.9437186, "longitude": -93.1066158, "subtypes": "Neurologist"}, {"name": "Rupert E. Exconde, MD", "address": "8515 Eagle Point Blvd STE 100, Lake Elmo, MN 55042", "city": "Lake Elmo", "state": "Minnesota", "state_code": "MN", "phone": "+1 612-879-1000", "website": "https://account.allinahealth.org/providers/703", "rating": 5, "reviews": 3, "place_id": "ChIJZd-4J_8n9ocRQ19dH6vNa94", "latitude": 44.954308, "longitude": -92.9330765, "subtypes": "Neurologist"}, {"name": "Dr. Craig L. Hyser, MD", "address": "1210 1st St W, Hastings, MN 55033", "city": "Hastings", "state": "Minnesota", "state_code": "MN", "phone": "+1 651-438-1800", "website": "http://www.allinahealth.org/", "rating": "", "reviews": "", "place_id": "ChIJL0D7ABnE94cRl89eUdCpKI0", "latitude": 44.7464761, "longitude": -92.8748148, "subtypes": "Neurologist"}, {"name": "Park Nicollet Neurology Burnsville", "address": "14000 Fairview Dr, Burnsville, MN 55337", "city": "Burnsville", "state": "Minnesota", "state_code": "MN", "phone": "+1 952-993-3200", "website": "https://www.healthpartners.com/care/find/location/primary-care-clinics/park-nicollet/burnsville/%3Futm_campaign%3Dneuro_locallistings_20m1_care_pn%26utm_source%3Dgooglemybusiness_%26utm_medium%3Dorganic%26utm_content%3Dpark-nicollet-neurology-burnsville_localpack_conversion%26utm_term%3D_v1__", "rating": 5, "reviews": 1, "place_id": "ChIJNXxqOJ079ocRJJ16ePC0q4Q", "latitude": 44.7490864, "longitude": -93.2752596, "subtypes": "Neurologist"}, {"name": "Dr. John M. Worley, DO", "address": "3931 Louisiana Cir, St Louis Park, MN 55426", "city": "St Louis Park", "state": "Minnesota", "state_code": "MN", "phone": "+1 952-993-3123", "website": "http://www.parknicollet.com/", "rating": 5, "reviews": 1, "place_id": "ChIJ68Ol0Owg9ocRXZiaMqux4j4", "latitude": 44.9309439, "longitude": -93.3659014, "subtypes": "Neurologist"}, {"name": "Dr. Leanore M. Simon, MD", "address": "3931 Louisiana Cir, St Louis Park, MN 55426", "city": "St Louis Park", "state": "Minnesota", "state_code": "MN", "phone": "+1 952-993-3123", "website": "http://www.parknicollet.com/", "rating": 5, "reviews": 1, "place_id": "ChIJ68Ol0Owg9ocRaz-Qo9Ox-fM", "latitude": 44.9309439, "longitude": -93.3659014, "subtypes": "Neurologist"}, {"name": "Ana P. Groeschel, MD", "address": "3601 Minnesota Dr #200, Bloomington, MN 55435", "city": "Bloomington", "state": "Minnesota", "state_code": "MN", "phone": "+1 612-879-1000", "website": "https://www.noranclinic.com/our-providers/neurologist-biographies/adult-neurologists/ana-patricia-groeschel", "rating": "", "reviews": "", "place_id": "ChIJXSbFDdAn9ocR24MMExhlQH4", "latitude": 44.8611468, "longitude": -93.3266544, "subtypes": "Neurologist"}, {"name": "Marshall John F MD", "address": "7675 Madison St NE, Fridley, MN 55432", "city": "Fridley", "state": "Minnesota", "state_code": "MN", "phone": "+1 763-785-4500", "website": "", "rating": "", "reviews": "", "place_id": "ChIJ6yx0pWAls1IRlYWQ2DnUkI4", "latitude": 45.1063751, "longitude": -93.25698489999999, "subtypes": "Neurologist"}, {"name": "Mayo Clinic Neurosurgery", "address": "200 1st St SW, Rochester, MN 55905", "city": "Rochester", "state": "Minnesota", "state_code": "MN", "phone": "+1 507-284-8008", "website": "https://www.mayoclinic.org/departments-centers/neurosurgery/home/orc-20117096", "rating": 3.7, "reviews": 3, "place_id": "ChIJi4_TsYhf94cR1sB2BFJoYwY", "latitude": 44.022136, "longitude": -92.466635, "subtypes": "Neurosurgeon"}, {"name": "Nathan P. Young, DO", "address": "200 1st St SW, Rochester, MN 55905", "city": "Rochester", "state": "Minnesota", "state_code": "MN", "phone": "+1 507-284-2511", "website": "https://www.mayoclinic.org/biographies/young-nathan-p-d-o/bio-20055108%23!", "rating": 5, "reviews": 1, "place_id": "ChIJB9eVNXtf94cRJYbNPnrWhGE", "latitude": 44.02218149999999, "longitude": -92.4666893, "subtypes": "Neurologist"}, {"name": "Dr. Bryan T. Klassen, MD", "address": "200 1st St SW, Rochester, MN 55902", "city": "Rochester", "state": "Minnesota", "state_code": "MN", "phone": "+1 507-284-2511", "website": "https://www.mayoclinic.org/biographies/klassen-bryan-t-m-d/bio-20055332", "rating": 5, "reviews": 2, "place_id": "ChIJB9eVNXtf94cRYCz4mJnRYK4", "latitude": 44.02218149999999, "longitude": -92.4666893, "subtypes": "Neurologist"}, {"name": "Kate W. Hocquard, MD", "address": "210 9th St SE, Rochester, MN 55904", "city": "Rochester", "state": "Minnesota", "state_code": "MN", "phone": "+1 507-292-7155", "website": "https://www.olmmed.org/find-a-provider/profile/%3Fid%3D405%26utm_source%3DOMC_Hocquard%26utm_campaign%3DLocal-Listings%26utm_medium%3DGoogle-My-Business", "rating": 5, "reviews": 2, "place_id": "ChIJCZvlPLrh-YcReAlv2aaYy6o", "latitude": 44.0121818, "longitude": -92.46018269999999, "subtypes": "Neurologist"}, {"name": "Dr. John D. Bartleson Jr, MD", "address": "200 1st Ave SW, Rochester, MN 55902", "city": "Rochester", "state": "Minnesota", "state_code": "MN", "phone": "+1 507-284-2511", "website": "", "rating": 5, "reviews": 2, "place_id": "ChIJB9eVNXtf94cRxmt8qDUBaQ0", "latitude": 44.0225485, "longitude": -92.46666019999999, "subtypes": "Neurologist"}, {"name": "Mayo Clinic Epilepsy Center", "address": "200 1st St SW, Rochester, MN 55905", "city": "Rochester", "state": "Minnesota", "state_code": "MN", "phone": "+1 507-284-1588", "website": "https://www.mayoclinic.org/diseases-conditions/epilepsy/care-at-mayo-clinic/mac-20350102%3Fmc_id%3Dus%26utm_source%3Dyext%26utm_medium%3Dl%26utm_content%3Ddepartmentneuro%26utm_campaign%3Dmayoclinic%26geo%3Dnational%26placementsite%3Denterprise%26invsrc%3Dneuro%26cauid%3D105144%26y_source%3D1_ODcxODc5NS03MTUtbG9jYXRpb24ud2Vic2l0ZQ%253D%253D", "rating": "", "reviews": "", "place_id": "ChIJ0Q3WcIRf94cRKs_bZNvj1j0", "latitude": 44.0226729, "longitude": -92.4667508, "subtypes": "Neurologist"}, {"name": "Neeraj Kumar, MD", "address": "200 1st St SW, Rochester, MN 55905", "city": "Rochester", "state": "Minnesota", "state_code": "MN", "phone": "+1 507-284-2511", "website": "https://www.mayoclinic.org/biographies/kumar-neeraj-m-d/bio-20054428", "rating": 5, "reviews": 1, "place_id": "ChIJB9eVNXtf94cROEtM0hDrFn8", "latitude": 44.0225485, "longitude": -92.46666019999999, "subtypes": "Neurologist"}, {"name": "Andrew Mckeon, MD", "address": "200 1st St SW, Rochester, MN 55905", "city": "Rochester", "state": "Minnesota", "state_code": "MN", "phone": "+1 507-284-2511", "website": "https://www.mayoclinic.org/biographies/mckeon-andrew-m-b-b-ch-m-d/bio-20055240", "rating": 5, "reviews": 3, "place_id": "ChIJB9eVNXtf94cRzq7rgaKKCNY", "latitude": 44.02218149999999, "longitude": -92.4666893, "subtypes": "Neurologist"}, {"name": "Mayo Clinic Spine Center", "address": "200 First St. SW Mayo, Building W15, Rochester, MN 55905", "city": "Rochester", "state": "Minnesota", "state_code": "MN", "phone": "+1 507-284-2263", "website": "https://www.mayoclinic.org/departments-centers/spine-care/sections/overview/ovc-20426369%3Fmc_id%3Dus%26utm_source%3Dyext%26utm_medium%3Dl%26utm_content%3Ddepartmentneuro%26utm_campaign%3Dmayoclinic%26geo%3Dnational%26placementsite%3Denterprise%26invsrc%3Dneuro%26cauid%3D105144%26y_source%3D1_ODcxODc5Ny03MTUtbG9jYXRpb24ud2Vic2l0ZQ%253D%253D", "rating": 1.6, "reviews": 13, "place_id": "ChIJ41nti8pf94cR2_1MNXQug0o", "latitude": 44.0226729, "longitude": -92.4667508, "subtypes": "Neurologist"}, {"name": "Truitt Karen DO", "address": "200 1st St SW, Rochester, MN 55905", "city": "Rochester", "state": "Minnesota", "state_code": "MN", "phone": "+1 507-284-2511", "website": "http://www.mayoclinic.org/", "rating": 2, "reviews": 1, "place_id": "ChIJvU2ONXtf94cRaDaP40jp8Pg", "latitude": 44.02218149999999, "longitude": -92.4666893, "subtypes": "Neurologist"}, {"name": "Dr. Chia-Chun Chiang", "address": "200 1st St SW, Rochester, MN 55905", "city": "Rochester", "state": "Minnesota", "state_code": "MN", "phone": "+1 507-284-2511", "website": "", "rating": 5, "reviews": 1, "place_id": "ChIJAQAAOXtf94cRzXx64DVMf6c", "latitude": 44.0226729, "longitude": -92.4667508, "subtypes": "Neurologist"}, {"name": "Mayo Clinic Cerebrovascular Disease Program", "address": "200 1st St SW, Rochester, MN 55905", "city": "Rochester", "state": "Minnesota", "state_code": "MN", "phone": "+1 507-284-1588", "website": "https://www.mayoclinic.org/diseases-conditions/stroke/care-at-mayo-clinic/mac-20350122%3Fmc_id%3Dus%26utm_source%3Dyext%26utm_medium%3Dl%26utm_content%3Ddepartmentneuro%26utm_campaign%3Dmayoclinic%26geo%3Dnational%26placementsite%3Denterprise%26invsrc%3Dneuro%26cauid%3D105144%26y_source%3D1_OTQzNDQ3OC03MTUtbG9jYXRpb24ud2Vic2l0ZQ%253D%253D", "rating": 5, "reviews": 1, "place_id": "ChIJx_4NvoNf94cRPlV235VtMyw", "latitude": 44.0225847, "longitude": -92.4666597, "subtypes": "Neurologist"}, {"name": "Paola Sandroni, MD, PhD", "address": "200 1st St SW, Rochester, MN 55905", "city": "Rochester", "state": "Minnesota", "state_code": "MN", "phone": "+1 507-284-2511", "website": "https://www.mayoclinic.org/biographies/sandroni-paola-m-d-ph-d/bio-20053993", "rating": 4.3, "reviews": 6, "place_id": "ChIJB9eVNXtf94cRKI3EXy0rBLU", "latitude": 44.02218149999999, "longitude": -92.4666893, "subtypes": "Neurologist"}, {"name": "Mayo Clinic Multiple Sclerosis Program", "address": "200 1st St SW, Rochester, MN 55905", "city": "Rochester", "state": "Minnesota", "state_code": "MN", "phone": "+1 507-284-1588", "website": "https://mayocl.in/2HBuoiN%3Fy_source%3D1_OTQzNDQ4MS03MTUtbG9jYXRpb24ud2Vic2l0ZQ%253D%253D", "rating": 5, "reviews": 2, "place_id": "ChIJdYJsb5tf94cRdAfqVMwf2s4", "latitude": 44.022597, "longitude": -92.4667633, "subtypes": "Neurologist"}, {"name": "Dr. Jerry M. Winkler, MD", "address": "200 1st St SW, Rochester, MN 55902", "city": "Rochester", "state": "Minnesota", "state_code": "MN", "phone": "+1 507-284-2511", "website": "http://www.mayoclinic.org/", "rating": "", "reviews": "", "place_id": "ChIJB9eVNXtf94cRHmRIRDoxOOU", "latitude": 44.0225794, "longitude": -92.46689839999999, "subtypes": "Neurologist"}, {"name": "Marcus Vinicius Pinto", "address": "200 1st St SW, Rochester, MN 55905", "city": "Rochester", "state": "Minnesota", "state_code": "MN", "phone": "+1 507-284-5443", "website": "https://www.mayoclinic.org/biographies/pinto-marcus-vinicius-r-m-d-m-s/bio-20552828", "rating": 5, "reviews": 1, "place_id": "ChIJAQAAOXtf94cRyrtjDesudyg", "latitude": 44.0226729, "longitude": -92.4667508, "subtypes": "Neurologist"}, {"name": "Dr. Terrence L. Cascino, MD", "address": "200 1st Ave SW, Rochester, MN 55902", "city": "Rochester", "state": "Minnesota", "state_code": "MN", "phone": "+1 507-284-2511", "website": "http://www.mayoclinic.com/", "rating": "", "reviews": "", "place_id": "ChIJB9eVNXtf94cRUY5LBz5raEE", "latitude": 44.0225485, "longitude": -92.46666019999999, "subtypes": "Neurologist"}, {"name": "Ivan Garza, MD", "address": "200 1st St SW, Rochester, MN 55905", "city": "Rochester", "state": "Minnesota", "state_code": "MN", "phone": "+1 507-284-2511", "website": "http://www.mayoclinic.org/biographies/garza-ivan-m-d/bio-20054886", "rating": 3.4, "reviews": 5, "place_id": "ChIJB9eVNXtf94cReUONHt-c_rQ", "latitude": 44.02218149999999, "longitude": -92.4666893, "subtypes": "Neurologist"}, {"name": "Eduardo E. Benarroch, MD", "address": "200 1st St SW, Rochester, MN 55905", "city": "Rochester", "state": "Minnesota", "state_code": "MN", "phone": "+1 507-284-2511", "website": "https://www.mayo.edu/research/faculty/benarroch-eduardo-e-m-d/bio-00077636", "rating": 5, "reviews": 1, "place_id": "ChIJB9eVNXtf94cRwwjWqDOG6ms", "latitude": 44.02218149999999, "longitude": -92.4666893, "subtypes": "Neurologist"}, {"name": "Joon H. Uhm, M.D.", "address": "200 1st St SW, Rochester, MN 55905", "city": "Rochester", "state": "Minnesota", "state_code": "MN", "phone": "+1 507-284-1588", "website": "http://www.mayoclinic.org/biographies/uhm-joon-h-m-d/bio-20054176%3Fmc_id%3Dus%26utm_source%3Dyext%26utm_medium%3Dl%26utm_content%3Ddrjuhmmn%26utm_campaign%3Dmayoclinic%26geo%3Dminnesota%26placementsite%3Denterprise%26invsrc%3Dneuro%26cauid%3D188203%26y_source%3D1_MzkzMTA3Ni03MTUtbG9jYXRpb24ud2Vic2l0ZQ%253D%253D", "rating": 5, "reviews": 4, "place_id": "ChIJB9eVNXtf94cRBJwTwysxfoM", "latitude": 44.0226086, "longitude": -92.4668169, "subtypes": "Neurologist"}, {"name": "Allen J. Aksamit, Jr., MD", "address": "200 1st St SW, Rochester, MN 55905", "city": "Rochester", "state": "Minnesota", "state_code": "MN", "phone": "+1 507-284-2511", "website": "https://www.mayoclinic.org/biographies/aksamit-allen-j-jr-m-d/bio-20053042", "rating": 2.6, "reviews": 10, "place_id": "ChIJB9eVNXtf94cReH0MMatL_XY", "latitude": 44.02218149999999, "longitude": -92.4666893, "subtypes": "Neurologist"}, {"name": "Dr. Michael H. Silber, MD", "address": "200 1st Ave SW, Rochester, MN 55902", "city": "Rochester", "state": "Minnesota", "state_code": "MN", "phone": "+1 507-284-2511", "website": "https://www.mayoclinic.org/biographies/silber-michael-h-m-b-ch-b/bio-20054068", "rating": "", "reviews": "", "place_id": "ChIJB9eVNXtf94cR9xvnx6bmI-w", "latitude": 44.0225485, "longitude": -92.46666019999999, "subtypes": "Neurologist"}, {"name": "Irene Meissner, MD", "address": "200 1st St SW, Rochester, MN 55905", "city": "Rochester", "state": "Minnesota", "state_code": "MN", "phone": "+1 507-284-2511", "website": "https://www.mayoclinic.org/biographies/meissner-irene-m-d/bio-20053158", "rating": 5, "reviews": 1, "place_id": "ChIJB9eVNXtf94cRpqt-4SyJF94", "latitude": 44.0225485, "longitude": -92.46666019999999, "subtypes": "Neurologist"}, {"name": "Jeffrey W. Britton, MD", "address": "200 1st St SW, Rochester, MN 55905", "city": "Rochester", "state": "Minnesota", "state_code": "MN", "phone": "+1 507-284-2511", "website": "https://www.mayoclinic.org/biographies/britton-jeffrey-w-m-d/bio-20053196%23!", "rating": 5, "reviews": 3, "place_id": "ChIJB9eVNXtf94cRjs2wqaqL-GQ", "latitude": 44.0225759, "longitude": -92.4667968, "subtypes": "Neurologist"}, {"name": "Margherita Milone, MD, PhD", "address": "200 1st St SW, Rochester, MN 55905", "city": "Rochester", "state": "Minnesota", "state_code": "MN", "phone": "+1 507-284-2511", "website": "https://www.mayoclinic.org/biographies/milone-margherita-m-d-ph-d/bio-20054604", "rating": 5, "reviews": 1, "place_id": "ChIJB9eVNXtf94cRsIkW1gPaM8w", "latitude": 44.02218149999999, "longitude": -92.4666893, "subtypes": "Neurologist"},