[{"name": "Poplar Bluff Neurology Specialists", "address": "2210 Barron Rd # 112, Poplar Bluff, MO 63901", "city": "Poplar Bluff", "state": "Missouri", "state_code": "MO", "phone": "+1 573-785-0889", "website": "https://www.sfmc.net/group/poplar-bluff-neurology-specialists/%3Futm_source%3Dextnet%26utm_medium%3Dyext", "rating": 4.8, "reviews": 30, "place_id": "ChIJ6Z9RRJu614cR14l3uUtcdo0", "latitude": 36.7876071, "longitude": -90.4256523, "subtypes": "Neurologist"}, {"name": "Freeman NeuroSpine", "address": "3401 McIntosh Cir Dr suite 100, Joplin, MO 64804", "city": "Joplin", "state": "Missouri", "state_code": "MO", "phone": "+1 417-347-7200", "website": "https://www.freemanhealth.com/location/freeman-neurospine", "rating": 4.3, "reviews": 16, "place_id": "ChIJl3C8LMF6yIcRAti3Jr9NlOs", "latitude": 37.0512779, "longitude": -94.5238497, "subtypes": "Neurologist"}, {"name": "Gulshan Uppal, MD, FAAN", "address": "1020 McIntosh Cir Dr suite 200, Joplin, MO 64804", "city": "Joplin", "state": "Missouri", "state_code": "MO", "phone": "+1 417-347-8093", "website": "https://www.freemanhealth.com/staff/gulshan-uppal", "rating": 4.3, "reviews": 54, "place_id": "ChIJP7qpe7m33IcRqH8uT96fZYU", "latitude": 37.0503489, "longitude": -94.5257322, "subtypes": "Neurologist"}, {"name": "Anna Wojcicka-Mitchell, MD, FAAN", "address": "1002 McIntosh Cir Dr Suite 6, Joplin, MO 64804", "city": "Joplin", "state": "Missouri", "state_code": "MO", "phone": "+1 417-347-7300", "website": "https://www.freemanhealth.com/staff/anna-wojcicka-mitchell", "rating": 4.1, "reviews": 30, "place_id": "ChIJl3C8LMF6yIcRg84puS0XY7U", "latitude": 37.0504995, "longitude": -94.52479679999999, "subtypes": "Neurologist"}, {"name": "Brian Curtis, MD", "address": "3401 McIntosh Cir Dr suite 100, Joplin, MO 64804", "city": "Joplin", "state": "Missouri", "state_code": "MO", "phone": "+1 417-347-7200", "website": "https://www.freemanhealth.com/staff/brian-curtis", "rating": 5, "reviews": 14, "place_id": "ChIJl9bbyd16yIcRmpx9Kiw61Xk", "latitude": 37.0512779, "longitude": -94.5238497, "subtypes": "Neurologist"}, {"name": "Joshua C. Sweaney, DO", "address": "3401 McIntosh Cir Dr suite 100, Joplin, MO 64804", "city": "Joplin", "state": "Missouri", "state_code": "MO", "phone": "+1 417-782-5500", "website": "https://www.freemanhealth.com/staff/joshua-sweaney", "rating": 4.5, "reviews": 23, "place_id": "ChIJv3i8LMF6yIcRAqnDCpnKqbI", "latitude": 37.0512779, "longitude": -94.5238497, "subtypes": "Neurologist"}, {"name": "Gulshan J Uppal", "address": "1905 W 32nd St #403, Joplin, MO 648041529", "city": "Joplin", "state": "Missouri", "state_code": "MO", "phone": "", "website": "", "rating": 5, "reviews": 1, "place_id": "ChIJHTxhQ8F6yIcR8N8Kh3Qgs3I", "latitude": 37.0564338, "longitude": -94.53739709999999, "subtypes": "Neurologist"}, {"name": "Margaret Ellen Nichols, MD", "address": "3401 McIntosh Cir Dr suite 100, Joplin, MO 64804", "city": "Joplin", "state": "Missouri", "state_code": "MO", "phone": "+1 417-347-7200", "website": "https://www.freemanhealth.com/staff/margaret-nichols", "rating": 3.6, "reviews": 14, "place_id": "ChIJl3C8LMF6yIcRj3TvE5GdmFc", "latitude": 37.0512779, "longitude": -94.5238497, "subtypes": "Neurosurgeon"}, {"name": "Rene Lomibao Mosada, MD", "address": "100 Mercy Way Suite 460, Joplin, MO 64804", "city": "Joplin", "state": "Missouri", "state_code": "MO", "phone": "+1 417-556-6876", "website": "https://www.mercy.net/doctor/rene-lomibao-mosada-md%3Futm_source%3Dgoogle%26utm_medium%3Dorganic_search%26utm_campaign%3Dyext%26utm_term%3D%26utm_content%3Dwebsite%26y_source%3D1_MTAwNzc0MzQ3My03MTUtbG9jYXRpb24ud2Vic2l0ZQ%253D%253D", "rating": 2.2, "reviews": 6, "place_id": "ChIJp5bTkstlyIcR8WxmHnrFibg", "latitude": 37.036357, "longitude": -94.50933359999999, "subtypes": "Neurologist"}, {"name": "Cherylon Yarosh, MD", "address": "3401 McIntosh Cir Dr suite 100, Joplin, MO 64804", "city": "Joplin", "state": "Missouri", "state_code": "MO", "phone": "+1 417-782-5500", "website": "", "rating": 3.4, "reviews": 16, "place_id": "ChIJl3C8LMF6yIcR4oxQIBKCzDQ", "latitude": 37.0512779, "longitude": -94.5238497, "subtypes": "Neurologist"}, {"name": "Laurie Behm MD", "address": "Medical Building, 1905 W 32nd St #403, Joplin, MO 64804", "city": "Joplin", "state": "Missouri", "state_code": "MO", "phone": "+1 417-782-5500", "website": "https://www.freemanhealth.com/location/freeman-neurospine-neurosurgery", "rating": 5, "reviews": 1, "place_id": "ChIJl3C8LMF6yIcRCOGIzAKRx8Y", "latitude": 37.0563416, "longitude": -94.5373535, "subtypes": "Neurosurgeon"}, {"name": "Susama Verma, MD", "address": "100 Mercy Way Suite 460, Joplin, MO 64804", "city": "Joplin", "state": "Missouri", "state_code": "MO", "phone": "+1 417-556-6876", "website": "https://www.mercy.net/doctor/susama-verma-md%3Futm_source%3Dgoogle%26utm_medium%3Dorganic_search%26utm_campaign%3Dyext%26utm_term%3D%26utm_content%3Dwebsite%26y_source%3D1_MjAwNjQ1OTU5MS03MTUtbG9jYXRpb24ud2Vic2l0ZQ%253D%253D", "rating": "", "reviews": "", "place_id": "ChIJUeW2uERlyIcRkG07xO29rQI", "latitude": 37.0363859, "longitude": -94.5095979, "subtypes": "Neurologist"}, {"name": "Maegan Elise Burr, CNP", "address": "100 Mercy Way #410, Joplin, MO 64804", "city": "Joplin", "state": "Missouri", "state_code": "MO", "phone": "+1 417-556-6875", "website": "https://www.mercy.net/doctor/maegan-elise-burr-cnp%3Futm_source%3Dgoogle%26utm_medium%3Dorganic_search%26utm_campaign%3Dyext%26utm_term%3DCentral%26utm_content%3Dwebsite%26y_source%3D1_MTI5OTkwNjAtNzE1LWxvY2F0aW9uLndlYnNpdGU%253D", "rating": 4, "reviews": 2, "place_id": "ChIJp32QXZVlyIcR3_dgXUyGeo8", "latitude": 37.03652, "longitude": -94.50975799999999, "subtypes": "Neurosurgeon"}, {"name": "Barry Irving Katz, MD", "address": "100 Mercy Way #410, Joplin, MO 64804", "city": "Joplin", "state": "Missouri", "state_code": "MO", "phone": "+1 417-556-6875", "website": "https://www.mercy.net/doctor/barry-irving-katz-md%3Futm_source%3Dgoogle%26utm_medium%3Dorganic_search%26utm_campaign%3Dyext%26utm_term%3DCentral%26utm_content%3Dwebsite%26y_source%3D1_MTMwMDAyNjAtNzE1LWxvY2F0aW9uLndlYnNpdGU%253D", "rating": 2.6, "reviews": 21, "place_id": "ChIJNxFEjgVlyIcRVViX3O31uFA", "latitude": 37.03652, "longitude": -94.50975799999999, "subtypes": "Neurosurgeon"}, {"name": "Ahmed Robbie, MD", "address": "Medical Building, 1905 W 32nd St #403, Joplin, MO 64804", "city": "Joplin", "state": "Missouri", "state_code": "MO", "phone": "+1 417-782-5500", "website": "http://www.freemanhealth.com/", "rating": 2.8, "reviews": 5, "place_id": "ChIJl3C8LMF6yIcRt4tk_TWAstM", "latitude": 37.0565025, "longitude": -94.53744069999999, "subtypes": "Neurologist"}, {"name": "Pediatric Neurology", "address": "DAVID A. BALI, MD MEDICAL BUILDING, 1111 McIntosh Cir Dr # 300, Joplin, MO 64804", "city": "Joplin", "state": "Missouri", "state_code": "MO", "phone": "+1 417-347-1040", "website": "", "rating": "", "reviews": "", "place_id": "ChIJy4yba9p6yIcRhoRDhLk7-_k", "latitude": 37.0514844, "longitude": -94.52781949999999, "subtypes": "Pediatric neurologist"}, {"name": "Dr. Shari M. Desilva, MD", "address": "1905 W 32nd St, Joplin, MO 64804", "city": "Joplin", "state": "Missouri", "state_code": "MO", "phone": "+1 417-782-5500", "website": "http://www.freemanhealth.com/", "rating": 2.3, "reviews": 3, "place_id": "ChIJl3C8LMF6yIcRWlQ5pXZ7wmo", "latitude": 37.0565012, "longitude": -94.5373833, "subtypes": "Neurologist"}, {"name": "Dr. Taylor Bear", "address": "3020 St Johns Blvd, Joplin, MO 64804", "city": "Joplin", "state": "Missouri", "state_code": "MO", "phone": "+1 417-659-6876", "website": "http://www.mercy.net/doctor/taylor-c-bear-md", "rating": "", "reviews": "", "place_id": "ChIJl9bbyd16yIcR2GQtPORLIXo", "latitude": 37.0579491, "longitude": -94.53013349999999, "subtypes": "Neurologist"}, {"name": "Gomes Andrew MD", "address": "1102 W 32nd St, Joplin, MO 64804", "city": "Joplin", "state": "Missouri", "state_code": "MO", "phone": "+1 417-347-1111", "website": "http://www.freemanhealth.com/", "rating": "", "reviews": "", "place_id": "ChIJW3ksK9p6yIcR17dKSw9od6c", "latitude": 37.0531376, "longitude": -94.52653029999999, "subtypes": "Neurologist"}, {"name": "Taylor Denise MD", "address": "Joplin, MO 64801", "city": "Joplin", "state": "Missouri", "state_code": "MO", "phone": "+1 417-659-6876", "website": "http://www.mercy.net/", "rating": "", "reviews": "", "place_id": "ChIJgR5aNKh7yIcRhoAVoxYy2dc", "latitude": 37.0842334, "longitude": -94.5131949, "subtypes": "Neurologist"}, {"name": "Dr. Rosalyn Miles", "address": "100 Mercy Way Suite 540, Joplin, MO 64804", "city": "Joplin", "state": "Missouri", "state_code": "MO", "phone": "+1 417-556-6875", "website": "", "rating": "", "reviews": "", "place_id": "ChIJBRY3lc1kyIcRP6i04cQ7owc", "latitude": 37.0364174, "longitude": -94.50969339999999, "subtypes": "Neurologist"}, {"name": "Laxmi Kokatnur", "address": "100 Mercy Way, Joplin, MO 64804", "city": "Joplin", "state": "Missouri", "state_code": "MO", "phone": "+1 417-556-6876", "website": "", "rating": "", "reviews": "", "place_id": "ChIJVVVVlM1kyIcRVZzkOgQ6bX8", "latitude": 37.0365472, "longitude": -94.509759, "subtypes": "Neurologist"}, {"name": "Pediatric Neurology: Tenorio Gene MD", "address": "DAVID A. BALI, MD MEDICAL BUILDING, 1111 McIntosh Cir Dr # 300, Joplin, MO 64804", "city": "Joplin", "state": "Missouri", "state_code": "MO", "phone": "+1 417-347-1040", "website": "", "rating": "", "reviews": "", "place_id": "ChIJy4yba9p6yIcR1hXl7rG4yeI", "latitude": 37.0514844, "longitude": -94.52781949999999, "subtypes": "Pediatric neurologist"}, {"name": "Jenifer Zhai", "address": "100 Mercy Way, Joplin, MO 648044524", "city": "Joplin", "state": "Missouri", "state_code": "MO", "phone": "", "website": "https://www.mercy.net/doctor/jenifer-huifang-zhai-md/", "rating": "", "reviews": "", "place_id": "ChIJVVVVlM1kyIcR-K5fsilWYcg", "latitude": 37.0365472, "longitude": -94.509759, "subtypes": "Neurologist"}, {"name": "Steven C. Kosa, M.D.", "address": "2790 Clay Edwards Dr #1235, North Kansas City, MO 64116", "city": "North Kansas City", "state": "Missouri", "state_code": "MO", "phone": "+1 816-472-5157", "website": "https://www.nkchealth.org/provider/steven-c-kosa-neurology", "rating": 4.9, "reviews": 160, "place_id": "ChIJ86kp247lwIcRE16dlRz0iHw", "latitude": 39.1495655, "longitude": -94.5514297, "subtypes": "Neurologist"}, {"name": "Rola Abdelrahman Mostafa Mahmoud, MD", "address": "4440 Broadway St, Kansas City, MO 64111", "city": "Kansas City", "state": "Missouri", "state_code": "MO", "phone": "+1 913-661-9990", "website": "http://kcphysicianpartners.com/", "rating": 4.8, "reviews": 29, "place_id": "ChIJ_bglQsbvwIcRfJ7hs6WjHtQ", "latitude": 39.0462197, "longitude": -94.5916663, "subtypes": "Neurologist"}, {"name": "Kansas City Neurology Clinic - Independence", "address": "19550 East 39th St S Ste 200, Independence, MO 64057", "city": "Independence", "state": "Missouri", "state_code": "MO", "phone": "+1 913-934-4000", "website": "https://mymidwestphysician.com/locations/kansas-city-neurology-clinic/%3Futm_campaign%3Dcorp_listings_mgmt%26utm_source%3Dgoogle%26utm_medium%3Dbusiness_listing", "rating": 4.5, "reviews": 86, "place_id": "ChIJIXI79uYcwYcRfqXuplH1OH8", "latitude": 39.049484, "longitude": -94.3500957, "subtypes": "Neurologist"}, {"name": "Ashley M. Brewster, A.P.R.N.", "address": "2790 Clay Edwards Dr #1235, North Kansas City, MO 64116", "city": "North Kansas City", "state": "Missouri", "state_code": "MO", "phone": "+1 816-472-5157", "website": "https://checkin.nkch.org/previsit/app/%3F_gl%3D1*13ijzea*_gcl_au*MjEwNjM4NzU4Ni4xNzQ5Njg0NjEy%23/schedule/mh-neurology-nkc-scheduling%3FproviderId%3D2938b9ee-8bee-4673-abda-cea665591a23%26page%3D1", "rating": 4.9, "reviews": 177, "place_id": "ChIJA42R8X_5wIcRmsWvyvJlG4c", "latitude": 39.1493524, "longitude": -94.5510951, "subtypes": "Neurologist"}, {"name": "Research Neuroscience Institute - Kansas City", "address": "2330 E Meyer Blvd Entrance, D, Suite T411, Kansas City, MO 64132", "city": "Kansas City", "state": "Missouri", "state_code": "MO", "phone": "+1 816-363-2500", "website": "https://midwestneurosurgery.net/%3Futm_campaign%3Dcorp_listings_mgmt%26utm_source%3Dgoogle%26utm_medium%3Dbusiness_listing", "rating": 4.8, "reviews": 185, "place_id": "ChIJEUTuJo_lwIcRqdsHUb8Ymps", "latitude": 39.0095945, "longitude": -94.55792269999999, "subtypes": "Neurosurgeon"}, {"name": "Larry C. Hollenbeck, M.D., FAAN", "address": "2790 Clay Edwards Dr #1235, North Kansas City, MO 64116", "city": "North Kansas City", "state": "Missouri", "state_code": "MO", "phone": "+1 816-472-5157", "website": "https://checkin.nkch.org/previsit/app/%3F_gl%3D1*ftsztw*_gcl_au*MjEwNjM4NzU4Ni4xNzQ5Njg0NjEy%23/schedule/mh-neurology-nkc-scheduling%3FproviderId%3Dd9c32cd0-736a-4511-b0cf-25077543c410%26page%3D1", "rating": 4.8, "reviews": 107, "place_id": "ChIJVXrJ0Pf5wIcRS9TaXm3kgpg", "latitude": 39.1492559, "longitude": -94.5505869, "subtypes": "Neurologist"}, {"name": "Jay G. Robinson, M.D.", "address": "2790 Clay Edwards Dr #1235, North Kansas City, MO 64116", "city": "North Kansas City", "state": "Missouri", "state_code": "MO", "phone": "+1 816-472-5157", "website": "https://www.nkch.org/find-a-provider/profile/jay-g-robinson-neurology", "rating": 4.8, "reviews": 66, "place_id": "ChIJq6qqqqkCwYcRSeKHEjhfPrg", "latitude": 39.1490954, "longitude": -94.55153539999999, "subtypes": "Neurologist"}, {"name": "Paul A. Guidos, M.D.", "address": "2790 Clay Edwards Dr #1235, North Kansas City, MO 64116", "city": "North Kansas City", "state": "Missouri", "state_code": "MO", "phone": "+1 816-472-5157", "website": "https://www.nkch.org/find-a-provider/profile/paul-a-guidos-neurology", "rating": 4.8, "reviews": 67, "place_id": "ChIJRf7aX1L5wIcRtbApT-qH3lA", "latitude": 39.1493524, "longitude": -94.5510951, "subtypes": "Neurologist"}, {"name": "Dr. Kazi E. Syed, MD", "address": "2301 Holmes St, Kansas City, MO 64108", "city": "Kansas City", "state": "Missouri", "state_code": "MO", "phone": "+1 816-404-1000", "website": "", "rating": "", "reviews": "", "place_id": "ChIJV-k51hLwwIcRANij6jCNmHo", "latitude": 39.0844879, "longitude": -94.5752976, "subtypes": "Neurologist"}, {"name": "Iftekhar Ahmed, MD", "address": "2330 E Meyer Blvd Suite 205, Kansas City, MO 64132", "city": "Kansas City", "state": "Missouri", "state_code": "MO", "phone": "+1 816-756-2651", "website": "https://mymidwestphysician.com/physicians/profile/Iftekhar-Ahmed-MD%3Futm_campaign%3Dcorp_listings_mgmt%26utm_source%3Dgoogle%26utm_medium%3Dbusiness_listing", "rating": 4.4, "reviews": 62, "place_id": "ChIJ86kp247lwIcROju-0NZPXMI", "latitude": 39.0095377, "longitude": -94.55782409999999, "subtypes": "Neurologist"}, {"name": "John J. Sand, MD", "address": "7900 Lee's Summit Rd, Kansas City, MO 64139", "city": "Kansas City", "state": "Missouri", "state_code": "MO", "phone": "+1 816-404-7000", "website": "", "rating": 5, "reviews": 2, "place_id": "ChIJYxdykwMfwYcR4E23Lr9W_j4", "latitude": 38.9748425, "longitude": -94.3941277, "subtypes": "Neurologist"}, {"name": "Carma E. Ball, APRN, MSN, FNP-C", "address": "2790 Clay Edwards Dr #1235, North Kansas City, MO 64116", "city": "North Kansas City", "state": "Missouri", "state_code": "MO", "phone": "+1 816-472-5157", "website": "http://www.nkchealth.org/provider/carma-e-ball-neurology", "rating": 5, "reviews": 11, "place_id": "ChIJW8HQ7Cr5wIcRge5ANT92rMw", "latitude": 39.1493524, "longitude": -94.5510951, "subtypes": "Neurologist"}, {"name": "Martin Coleman MD", "address": "4401 Wornall Rd, Kansas City, MO 64111", "city": "Kansas City", "state": "Missouri", "state_code": "MO", "phone": "+1 816-932-2000", "website": "", "rating": 4.8, "reviews": 6, "place_id": "ChIJJembMcTvwIcRIEke6zk7IAc", "latitude": 39.0460972, "longitude": -94.5899294, "subtypes": "Neurologist"}, {"name": "Midwest Neurosurgery Associates", "address": "2330 E Meyer Blvd Ste 411, Kansas City, MO 64132", "city": "Kansas City", "state": "Missouri", "state_code": "MO", "phone": "+1 816-363-2500", "website": "http://www.midwestneurosurgery.net/", "rating": 3, "reviews": 4, "place_id": "ChIJ86kp247lwIcR-MwmB4qqxeY", "latitude": 39.0099016, "longitude": -94.5579076, "subtypes": "Neurosurgeon"}, {"name": "Sean M. Gratton, MD", "address": "Parking lot, 2301 Holmes Street Main Hospital 5th Floor, 2301 Holmes St, Kansas City, MO 64108", "city": "Kansas City", "state": "Missouri", "state_code": "MO", "phone": "+1 816-404-5271", "website": "", "rating": 5, "reviews": 2, "place_id": "ChIJk4wIcd3xwIcRM8-FRn2pDJU", "latitude": 39.08495569999999, "longitude": -94.5738705, "subtypes": "Neurologist"}, {"name": "Jonathan Breshears, MD", "address": "4320 Wornall Rd ste 710, Kansas City, MO 64111", "city": "Kansas City", "state": "Missouri", "state_code": "MO", "phone": "+1 816-932-2700", "website": "http://www.saintlukeskc.org/provider/jonathan-breshears-1982960928%3Futm_source%3Dyext%26utm_medium%3Dlocal_listing%26utm_campaign%3Dyext_listing", "rating": 4.8, "reviews": 10, "place_id": "ChIJ4ff_y8_vwIcRdUlHr-RbQ8s", "latitude": 39.0486092, "longitude": -94.590559, "subtypes": "Neurologist"}, {"name": "Binod Wagle, MD", "address": "2301 Holmes Street Main Hospital 5th Floor, Kansas City, MO 64108", "city": "Kansas City", "state": "Missouri", "state_code": "MO", "phone": "+1 816-404-5271", "website": "https://www.universityhealthkc.org/services/neurology/", "rating": 5, "reviews": 2, "place_id": "ChIJ70mb3xLwwIcR8EqASNt5Ny4", "latitude": 39.0844879, "longitude": -94.5752976, "subtypes": "Neurologist"}, {"name": "Gurpreet Gandhoke, MD", "address": "4320 Wornall Rd ste 710, Kansas City, MO 64111", "city": "Kansas City", "state": "Missouri", "state_code": "MO", "phone": "+1 816-932-2700", "website": "http://www.saintlukeskc.org/provider/gurpreet-gandhoke-1639459233%3Futm_source%3Dyext%26utm_medium%3Dlocal_listing%26utm_campaign%3Dyext_listing", "rating": 4.8, "reviews": 16, "place_id": "ChIJYZwuoALvwIcRtCEmO4_2SoU", "latitude": 39.0486092, "longitude": -94.590559, "subtypes": "Neurosurgeon"}, {"name": "Dr. John H. Stanley, MD", "address": "3914 Washington St, Kansas City, MO 64111", "city": "Kansas City", "state": "Missouri", "state_code": "MO", "phone": "+1 816-561-2533", "website": "", "rating": 3.8, "reviews": 4, "place_id": "ChIJTRzP8NTuwIcRV40PFn0Vwog", "latitude": 39.0561961, "longitude": -94.5917772, "subtypes": "Neurologist"}, {"name": "Nathan K. McGraw, MD", "address": "4400 Broadway St Ste 520, Kansas City, MO 64111", "city": "Kansas City", "state": "Missouri", "state_code": "MO", "phone": "+1 816-960-7600", "website": "http://www.saintlukeskc.org/provider/nathan-mcgraw-1083068530%3Futm_source%3Dyext%26utm_medium%3Dlocal_listing%26utm_campaign%3Dyext_listing", "rating": 5, "reviews": 4, "place_id": "ChIJhSKbU6XvwIcRBdRD5aNjPTU", "latitude": 39.0470488, "longitude": -94.59158649999999, "subtypes": "Neurologist"}, {"name": "Carlos Bagley, MD", "address": "4320 Wornall Rd ste 710, Kansas City, MO 64111", "city": "Kansas City", "state": "Missouri", "state_code": "MO", "phone": "+1 816-932-2700", "website": "http://www.saintlukeskc.org/provider/carlos-bagley-1801939947%3Futm_source%3Dyext%26utm_medium%3Dlocal_listing%26utm_campaign%3Dyext_listing", "rating": 4.5, "reviews": 15, "place_id": "ChIJfUrLIIvvwIcR0r6_A617vBY", "latitude": 39.0486092, "longitude": -94.590559, "subtypes": "Neurosurgeon"}, {"name": "Michael M Vesali, MD", "address": "4400 Broadway St Ste 520, Kansas City, MO 64111", "city": "Kansas City", "state": "Missouri", "state_code": "MO", "phone": "+1 316-264-7707", "website": "http://www.saintlukeskc.org/provider/michael-vesali-1942205703%3Futm_source%3Dyext%26utm_medium%3Dlocal_listing%26utm_campaign%3Dyext_listing", "rating": 2.8, "reviews": 9, "place_id": "ChIJCS4-QsbvwIcRQH9mzxIYc7s", "latitude": 39.0472249, "longitude": -94.59177489999999, "subtypes": "Neurologist"}, {"name": "Michael J Schwartzman, DO", "address": "4400 Broadway St Ste 520, Kansas City, MO 64111", "city": "Kansas City", "state": "Missouri", "state_code": "MO", "phone": "+1 816-960-7620", "website": "http://www.saintlukeskc.org/provider/michael-schwartzman-1245278712%3Futm_source%3Dyext%26utm_medium%3Dlocal_listing%26utm_campaign%3Dyext_listing", "rating": 2.9, "reviews": 7, "place_id": "ChIJ5XUrQsbvwIcRT4r4zKbue6g", "latitude": 39.0472249, "longitude": -94.59177489999999, "subtypes": "Neurologist"}, {"name": "Cynthia L. Costa, M.D.", "address": "2790 Clay Edwards Dr #1235, North Kansas City, MO 64116", "city": "North Kansas City", "state": "Missouri", "state_code": "MO", "phone": "+1 816-472-5157", "website": "http://www.nkch.org/provider/cynthia-l-costa-neurology", "rating": "", "reviews": "", "place_id": "ChIJEUxEOh_5wIcRT_xiOrZDrjY", "latitude": 39.1493524, "longitude": -94.5510951, "subtypes": "Neurologist"}, {"name": "Yifei Duan, MD", "address": "4320 Wornall Rd ste 710, Kansas City, MO 64111", "city": "Kansas City", "state": "Missouri", "state_code": "MO", "phone": "+1 816-932-2700", "website": "http://www.saintlukeskc.org/provider/yifei-duan-1982090973%3Futm_source%3Dyext%26utm_medium%3Dlocal_listing%26utm_campaign%3Dyext_listing", "rating": 5, "reviews": 2, "place_id": "ChIJFaJEVL_vwIcRXWBRhGfOnj0", "latitude": 39.0486092, "longitude": -94.590559, "subtypes": "Neurosurgeon"}, {"name": "Kshama Ojha MBBS", "address": "2401 Gillham Rd, Kansas City, MO 64108", "city": "Kansas City", "state": "Missouri", "state_code": "MO", "phone": "+1 816-234-3490", "website": "https://www.childrensmercy.org/profiles/kshama-ojha/", "rating": "", "reviews": "", "place_id": "ChIJR_faP6HxwIcRTg5Lg3Vv-mM", "latitude": 39.0834675, "longitude": -94.57711289999999, "subtypes": "Neurologist"}, {"name": "Parashar Koirala, MBBS, MD", "address": "Parking lot, 2301 Holmes Street Main Hospital 5th Floor, 2301 Holmes St, Kansas City, MO 64108", "city": "Kansas City", "state": "Missouri", "state_code": "MO", "phone": "+1 816-404-5271", "website": "", "rating": "", "reviews": "", "place_id": "ChIJ-ywxOjLxwIcR39ARBY8oGqc", "latitude": 39.08495569999999, "longitude": -94.5738705, "subtypes": "Neurologist"}, {"name": "Karin E Olds, MD", "address": "4400 Broadway St Ste 520, Kansas City, MO 64111", "city": "Kansas City", "state": "Missouri", "state_code": "MO", "phone": "+1 816-960-7660", "website": "http://www.saintlukeskc.org/provider/karin-olds-1245285154%3Futm_source%3Dyext%26utm_medium%3Dlocal_listing%26utm_campaign%3Dyext_listing", "rating": 5, "reviews": 1, "place_id": "ChIJWbXojLXiw4cRQrjBRjJuqY0", "latitude": 39.0470488, "longitude": -94.59158649999999, "subtypes": "Neurologist"}, {"name": "Dr. Maria Lourdes I. Donato, MD", "address": "5811 E Truman Rd, Kansas City, MO 64126", "city": "Kansas City", "state": "Missouri", "state_code": "MO", "phone": "+1 816-600-1816", "website": "", "rating": 4.6, "reviews": 16, "place_id": "ChIJM24i0Rv7wIcReDYUkB7N9ck", "latitude": 39.0936725, "longitude": -94.51414729999999, "subtypes": "Neurologist"}, {"name": "Dr. Marilyn M. Rymer, MD", "address": "4400 Broadway Blvd # 520, Kansas City, MO 64111", "city": "Kansas City", "state": "Missouri", "state_code": "MO", "phone": "+1 816-531-4080", "website": "", "rating": "", "reviews": "", "place_id": "ChIJ5XUrQsbvwIcRTIB5tRUcTB0", "latitude": 39.0470488, "longitude": -94.59158649999999, "subtypes": "Neurologist"}, {"name": "Karl N Knights, MD", "address": "4400 Broadway St Ste 520, Kansas City, MO 64111", "city": "Kansas City", "state": "Missouri", "state_code": "MO", "phone": "+1 816-960-7600", "website": "http://saintlukeskc.org/provider/karl-knights-1962817130%3Futm_source%3Dlocal-listing%26utm_medium%3Dorganic%26utm_campaign%3Dwebsite-link", "rating": 2.3, "reviews": 3, "place_id": "ChIJKf3UghXvwIcR6lF4mN9RAM0", "latitude": 39.0472249, "longitude": -94.59177489999999, "subtypes": "Neurologist"}, {"name": "Charles D Donohoe, MD", "address": "2301 Holmes St, Kansas City, MO 64108", "city": "Kansas City", "state": "Missouri", "state_code": "MO", "phone": "+1 816-404-5271", "website": "https://providerdirectory.universityhealthkc.org/provider/charles-d-donohoe/2238403", "rating": 1, "reviews": 1, "place_id": "ChIJ70mb3xLwwIcRE5C4GHh7AuI", "latitude": 39.0844879, "longitude": -94.5752976, "subtypes": "Neurologist"}, {"name": "Shannon E. Kohake, M.D.", "address": "2790 Clay Edwards Dr #1235, North Kansas City, MO 64116", "city": "North Kansas City", "state": "Missouri", "state_code": "MO", "phone": "+1 816-472-5157", "website": "http://www.nkch.org/provider/shannon-e-kohake-neurology", "rating": "", "reviews": "", "place_id": "ChIJZz-U5vf5wIcR8E41rEUMUtM", "latitude": 39.1493524, "longitude": -94.5510951, "subtypes": "Neurologist"}, {"name": "Dr. Barry W. Festoff, MD", "address": "4801 Linwood Blvd, Kansas City, MO 64128", "city": "Kansas City", "state": "Missouri", "state_code": "MO", "phone": "+1 816-861-4700", "website": "http://www.kansascity.va.gov/", "rating": "", "reviews": "", "place_id": "ChIJKZG7XSzlwIcR7eGHNPYFS0U", "latitude": 39.0636768, "longitude": -94.5277411, "subtypes": "Neurologist"}, {"name": "Mirza Waseem Baig", "address": "2401 Gillham Rd, Kansas City, MO 64108", "city": "Kansas City", "state": "Missouri", "state_code": "MO", "phone": "+1 816-234-3000", "website": "", "rating": "", "reviews": "", "place_id": "ChIJq6qqcRPwwIcRI1JtsGpJwJk", "latitude": 39.0834675, "longitude": -94.57711289999999, "subtypes": "Neurologist"}, {"name": "John W. Gianino, MD, MBA", "address": "2301 Holmes Street Main Hospital 5th Floor, Kansas City, MO 64108", "city": "Kansas City", "state": "Missouri", "state_code": "MO", "phone": "+1 816-404-5271", "website": "", "rating": 5, "reviews": 5, "place_id": "ChIJV-k51hLwwIcRyTVAs9nDtT8", "latitude": 39.0844879, "longitude": -94.5752976, "subtypes": "Neurosurgeon"}, {"name": "Legarda Maria M MD", "address": "601 E 12th St #149, Kansas City, MO 64106", "city": "Kansas City", "state": "Missouri", "state_code": "MO", "phone": "+1 816-426-3895", "website": "", "rating": "", "reviews": "", "place_id": "ChIJh16PQ2TwwIcRH7HKHCK41EI", "latitude": 39.0990301, "longitude": -94.5760918, "subtypes": "Neurologist"}, {"name": "Morris III Harold H MD", "address": "4400 Broadway Blvd, Kansas City, MO 64111", "city": "Kansas City", "state": "Missouri", "state_code": "MO", "phone": "+1 816-931-9344", "website": "", "rating": "", "reviews": "", "place_id": "ChIJ5XUrQsbvwIcRMXABUkNwuGM", "latitude": 39.0472249, "longitude": -94.59177489999999, "subtypes": "Neurologist"}, {"name": "Ian M. Bakk, M.D.", "address": "2790 Clay Edwards Dr #1235, North Kansas City, MO 64116", "city": "North Kansas City", "state": "Missouri", "state_code": "MO", "phone": "", "website": "http://www.nkch.org/provider/ian-m-bakk-neurology", "rating": "", "reviews": "", "place_id": "ChIJvXmCpDv5wIcRJv4wm1DMYUs", "latitude": 39.1493524, "longitude": -94.5510951, "subtypes": "Neurologist"}, {"name": "Dr. Robert P. Cruse, DO", "address": "2401 Gillham Rd, Kansas City, MO 64108", "city": "Kansas City", "state": "Missouri", "state_code": "MO", "phone": "+1 816-234-3090", "website": "", "rating": "", "reviews": "", "place_id": "ChIJ9zZsZRPwwIcR3cOpkU--ch4", "latitude": 39.0841316, "longitude": -94.57719089999999, "subtypes": "Neurologist"}, {"name": "Dr. Husam Kayyali, MD", "address": "2401 Gillham Rd, Kansas City, MO 64108", "city": "Kansas City", "state": "Missouri", "state_code": "MO", "phone": "+1 816-234-3090", "website": "", "rating": "", "reviews": "", "place_id": "ChIJ9zZsZRPwwIcRmfMlyLWcbrE", "latitude": 39.0834675, "longitude": -94.57711289999999, "subtypes": "Neurologist"}, {"name": "Dr. Irene E. Bettinger, MD", "address": "4400 Broadway Blvd suite 520, Kansas City, MO 64111", "city": "Kansas City", "state": "Missouri", "state_code": "MO", "phone": "+1 816-531-4080", "website": "", "rating": "", "reviews": "", "place_id": "ChIJ5XUrQsbvwIcRrDbUjMfm354", "latitude": 39.0472249, "longitude": -94.59177489999999, "subtypes": "Neurologist"}, {"name": "Daniel Weber, DO", "address": "Door 5, 1225 S Grand Blvd #1L, St. Louis, MO 63104", "city": "St. Louis", "state": "Missouri", "state_code": "MO", "phone": "+1 314-617-2555", "website": "https://www.getcare.ssmhealth.com/find-a-doctor/doctor-details/daniel-weber-do%3Fy_source%3D1_MTAwNTc2OTQ5Ny03MTUtbG9jYXRpb24ud2Vic2l0ZQ%253D%253D", "rating": 4.9, "reviews": 10, "place_id": "ChIJezEb0l212IcRZx1duScdnW0", "latitude": 38.6236158, "longitude": -90.2380213, "subtypes": "Neurologist"}, {"name": "Niranjan Singh, MD, DM, FAHS, FAANEM", "address": "1035 Bellevue Ave #500, Richmond Heights, MO 63117", "city": "Richmond Heights", "state": "Missouri", "state_code": "MO", "phone": "+1 314-925-4773", "website": "https://ssmhealth.com/find-a-doctor/doctor-details/niranjan-n-singh-md%3Futm_id%3Dsys-listings-1%26linksource%3Dsys_listing_links-gmb_listing%26y_source%3D1_MjMyNTg4ODUtNzE1LWxvY2F0aW9uLndlYnNpdGU%253D", "rating": 4.7, "reviews": 217, "place_id": "ChIJY_DgCr3K2IcR8owhNR_R8Q4", "latitude": 38.6329535, "longitude": -90.31284219999999, "subtypes": "Neurologist"}, {"name": "Christopher Laohathai, MD", "address": "1225 S Grand Blvd Level One, St. Louis, MO 63104", "city": "St. Louis", "state": "Missouri", "state_code": "MO", "phone": "+1 314-617-2555", "website": "https://www.getcare.ssmhealth.com/find-a-doctor/doctor-details/christopher-laohathai-md%3Fy_source%3D1_MTAwNTc2OTM1NC03MTUtbG9jYXRpb24ud2Vic2l0ZQ%253D%253D", "rating": 4.6, "reviews": 31, "place_id": "ChIJgZOiYJK02IcRDLYtmWyloWM", "latitude": 38.6236294, "longitude": -90.2379875, "subtypes": "Neurologist"}, {"name": "Dr. Muhammad Taher Al-Lozi, MD", "address": "4921 Parkview Pl #6c, St. Louis, MO 63110", "city": "St. Louis", "state": "Missouri", "state_code": "MO", "phone": "+1 314-362-6981", "website": "https://wuphysicians.wustl.edu/for-patients/find-a-physician/muhammad-taher-al-lozi", "rating": 5, "reviews": 4, "place_id": "ChIJF_W-FSe12IcRjZEIyevxgSA", "latitude": 38.6383805, "longitude": -90.2631818, "subtypes": "Neurologist"}, {"name": "SSM Health Neurosciences", "address": "1035 Bellevue Ave #500, St. Louis, MO 63117", "city": "St. Louis", "state": "Missouri", "state_code": "MO", "phone": "+1 314-925-4773", "website": "https://www.ssmhealth.com/locations/location-details/neurology-1035-bellevue-ave%3Futm_id%3Dsys-listings-2%26linksource%3Dsys_listing_links-extended_network%253Futm_id%253Dsys-listings-1%26linksource%3Dsys_listing_links-gmb_listing%26y_source%3D1_MjMyNTc2ODYtNzE1LWxvY2F0aW9uLndlYnNpdGU%253D", "rating": 2.3, "reviews": 3, "place_id": "ChIJkSsA3b3K2IcRiPhgiBN7gv8", "latitude": 38.6329535, "longitude": -90.31284219999999, "subtypes": "Neurologist"}, {"name": "Vikas Kumar MD, PhD", "address": "1035 Bellevue Ave #500, St. Louis, MO 63117", "city": "St. Louis", "state": "Missouri", "state_code": "MO", "phone": "+1 314-925-4773", "website": "https://www.getcare.ssmhealth.com/find-a-doctor/doctor-details/vikas-kumar-md%3Futm_id%3Dsys-listings-1%26linksource%3Dsys_listing_links-gmb_listing%26y_source%3D1_MjMyNTg4NzgtNzE1LWxvY2F0aW9uLndlYnNpdGU%253D", "rating": 4.9, "reviews": 263, "place_id": "ChIJscHG673K2IcRd8MSv1ckNsU", "latitude": 38.6329535, "longitude": -90.31284219999999, "subtypes": "Neurologist"}, {"name": "Dr. David V. Lardizabal, MD", "address": "660 S Euclid Ave, St. Louis, MO 63110", "city": "St. Louis", "state": "Missouri", "state_code": "MO", "phone": "+1 314-362-7241", "website": "", "rating": 5, "reviews": 5, "place_id": "ChIJrdDHcL633IcRpbXqfrcCLkQ", "latitude": 38.634745, "longitude": -90.262682, "subtypes": "Neurologist"}, {"name": "Dr. Alexandre R. Carter, MD, PhD", "address": "4921 Parkview Pl #6c, St. Louis, MO 63110", "city": "St. Louis", "state": "Missouri", "state_code": "MO", "phone": "+1 314-362-4503", "website": "https://www.ortho.wustl.edu/content/Patient-Care/8392/Find-a-Physician/Physician-Directory/Alexandre-R-Carter-MD-PhD/Bio.aspx", "rating": 4.7, "reviews": 3, "place_id": "ChIJHwuojtu02IcRNLLEnt_JIds", "latitude": 38.6383805, "longitude": -90.2631818, "subtypes": "Neurologist"}, {"name": "Dr. R. Edward Hogan, MD", "address": "4921 Parkview Pl #6c, St. Louis, MO 63110", "city": "St. Louis", "state": "Missouri", "state_code": "MO", "phone": "+1 314-362-7845", "website": "https://wuphysicians.wustl.edu/for-patients/find-a-physician/r-edward-hogan", "rating": 3.4, "reviews": 5, "place_id": "ChIJF_W-FSe12IcRX3AsUelsR1g", "latitude": 38.6383805, "longitude": -90.2631818, "subtypes": "Neurologist"}, {"name": "Dr. Allyson R. Zazulia, MD", "address": "4921 Parkview Pl #6c, St. Louis, MO 63110", "city": "St. Louis", "state": "Missouri", "state_code": "MO", "phone": "+1 314-362-7382", "website": "https://physicians.wustl.edu/people/allyson-r-zazulia-md/", "rating": 5, "reviews": 1, "place_id": "ChIJ24rfECG12IcRXGf-J-S2im0", "latitude": 38.638363, "longitude": -90.263234, "subtypes": "Neurologist"}, {"name": "Asma Moheet, MD", "address": "Door 5, 1225 S Grand Blvd #1L, St. Louis, MO 63104", "city": "St. Louis", "state": "Missouri", "state_code": "MO", "phone": "+1 314-617-2555", "website": "https://www.getcare.ssmhealth.com/find-a-doctor/doctor-details/asma-m-moheet-md%3Futm_id%3Dsys-listings-1%26linksource%3Dsys_listing_links-gmb_listing%26y_source%3D1_MjAyOTkzMTI3NC03MTUtbG9jYXRpb24ud2Vic2l0ZQ%253D%253D", "rating": 5, "reviews": 1, "place_id": "ChIJUWMwPQO12IcRvKmBj36T1EY", "latitude": 38.6236158, "longitude": -90.2380213, "subtypes": "Neurologist"}, {"name": "St. Louis Neurosurgery, LLC", "address": "13621 Big Bend Rd, St. Louis, MO 63122", "city": "St. Louis", "state": "Missouri", "state_code": "MO", "phone": "+1 314-270-3881", "website": "https://www.stl-neurosurgery.com/", "rating": 5, "reviews": 2, "place_id": "ChIJYQG-G4jR2IcR9VLIyWVLpss", "latitude": 38.567956, "longitude": -90.47740619999999, "subtypes": "Neurosurgeon"}, {"name": "Kathryn Elkins, MD", "address": "1465 S Grand Blvd, St. Louis, MO 63104", "city": "St. Louis", "state": "Missouri", "state_code": "MO", "phone": "+1 314-268-4010", "website": "https://www.getcare.ssmhealth.com/find-a-doctor/doctor-details/kathryn-c-elkins-md%3Futm_id%3Dsys-listings-1%26linksource%3Dsys_listing_links-gmb_listing%26y_source%3D1_MTAxMjM0NjU5MC03MTUtbG9jYXRpb24ud2Vic2l0ZQ%253D%253D", "rating": 4.9, "reviews": 50, "place_id": "ChIJQfV26ga12IcRMWe4LsAakEM", "latitude": 38.6205489, "longitude": -90.23952059999999, "subtypes": "Pediatric neurologist"}, {"name": "Bucelli Robert C MD", "address": "660 S Euclid Ave, St. Louis, MO 63110", "city": "St. Louis", "state": "Missouri", "state_code": "MO", "phone": "+1 314-362-6981", "website": "http://wuphysicians.wustl.edu/", "rating": 4.3, "reviews": 6, "place_id": "ChIJjZj6lCC12IcRLJOz6oo9VfU", "latitude": 38.6353509, "longitude": -90.2627749, "subtypes": "Neurologist"}, {"name": "Dr. Renee B. Van Stavern, MD", "address": "4921 Parkview Pl #6c, St. Louis, MO 63110", "city": "St. Louis", "state": "Missouri", "state_code": "MO", "phone": "+1 314-362-7382", "website": "https://physicians.wustl.edu/people/renee-van-stavern-md/", "rating": 4.2, "reviews": 5, "place_id": "ChIJfziQPye12IcROTtd1hAI7T0", "latitude": 38.63836149999999, "longitude": -90.26338439999999, "subtypes": "Neurologist"}, {"name": "Dr. Amer Alshekhlee, MD", "address": "3660 Vista Ave, St. Louis, MO 63110", "city": "St. Louis", "state": "Missouri", "state_code": "MO", "phone": "+1 314-977-6082", "website": "", "rating": 5, "reviews": 1, "place_id": "ChIJtcAfX5K02IcR7UIWRayWJI4", "latitude": 38.6225016, "longitude": -90.2405181, "subtypes": "Neurologist"}, {"name": "Deniz Atilgan, MD", "address": "1225 S Grand Blvd First Level, St. Louis, MO 63104", "city": "St. Louis", "state": "Missouri", "state_code": "MO", "phone": "+1 314-617-2555", "website": "https://www.getcare.ssmhealth.com/find-a-doctor/doctor-details/deniz-atilgan-md%3Futm_id%3Dsys-listings-1%26linksource%3Dsys_listing_links-gmb_listing%26y_source%3D1_MjAxNzQyMjczMy03MTUtbG9jYXRpb24ud2Vic2l0ZQ%253D%253D", "rating": 4.7, "reviews": 6, "place_id": "ChIJrYFWfp212IcRu8pE8XcImtc", "latitude": 38.6225016, "longitude": -90.2405181, "subtypes": "Neurologist"}, {"name": "Dr. Joel S. Perlmutter, MD", "address": "4921 Parkview Pl Floors: 6 and 7, St. Louis, MO 63110", "city": "St. Louis", "state": "Missouri", "state_code": "MO", "phone": "+1 314-362-6908", "website": "https://wuphysicians.wustl.edu/for-patients/find-a-physician/joel-s-perlmutter", "rating": 5, "reviews": 1, "place_id": "ChIJF_W-FSe12IcRhgfxzOjP3sA", "latitude": 38.6383357, "longitude": -90.26337749999999, "subtypes": "Neurologist"}, {"name": "Salim Chahin, MD, MSCE", "address": "Center for Advanced Medicine, 4921 Parkview Pl Floor 7, St. Louis, MO 63110", "city": "St. Louis", "state": "Missouri", "state_code": "MO", "phone": "+1 314-362-3293", "website": "https://wuphysicians.wustl.edu/for-patients/find-a-physician/salim-chahin", "rating": 5, "reviews": 4, "place_id": "ChIJ22cI6yC12IcRXbgrTc2N0tg", "latitude": 38.6383875, "longitude": -90.26330929999999, "subtypes": "Neurologist"}, {"name": "Samantha Kizer, APNP-CNP", "address": "1225 S Grand Blvd First Level, St. Louis, MO 63104", "city": "St. Louis", "state": "Missouri", "state_code": "MO", "phone": "+1 314-617-2555", "website": "https://www.getcare.ssmhealth.com/find-a-doctor/doctor-details/samantha-c-kizer-apnp-cnp%3Futm_id%3Dsys-listings-1%26linksource%3Dsys_listing_links-gmb_listing%26y_source%3D1_MjAxMDYzNTcxNy03MTUtbG9jYXRpb24ud2Vic2l0ZQ%253D%253D", "rating": 5, "reviews": 9, "place_id": "ChIJR3Xxg-a12IcRhjoA_QGxbMg", "latitude": 38.6246744, "longitude": -90.2389828, "subtypes": "Neurologist"}, {"name": "Dr. Scott Norris, MD", "address": "4921 Parkview Pl Suite Floors: 6 and 7, St. Louis, MO 63110", "city": "St. Louis", "state": "Missouri", "state_code": "MO", "phone": "+1 314-362-6908", "website": "https://wuphysicians.wustl.edu/for-patients/find-a-physician/scott-norris", "rating": 5, "reviews": 2, "place_id": "ChIJF_W-FSe12IcR_pO4_R1Rofg", "latitude": 38.6383357, "longitude": -90.26337749999999, "subtypes": "Neurologist"}, {"name": "Maithreyi Chappidi, MD", "address": "1225 S Grand Blvd First Level, St. Louis, MO 63104", "city": "St. Louis", "state": "Missouri", "state_code": "MO", "phone": "+1 314-617-2555", "website": "https://www.getcare.ssmhealth.com/find-a-doctor/doctor-details/maithreyi-chappidi-md%3Futm_id%3Dsys-listings-1%26linksource%3Dsys_listing_links-gmb_listing%26y_source%3D1_MjAxMDYzNTcwOS03MTUtbG9jYXRpb24ud2Vic2l0ZQ%253D%253D", "rating": 4.5, "reviews": 6, "place_id": "ChIJJ4OFwTW12IcR68YpjhIswlI", "latitude": 38.6246744, "longitude": -90.2389828, "subtypes": "Neurologist"}, {"name": "Carlos M Yu, MD", "address": "11155 Dunn Rd #109n, St. Louis, MO 63136", "city": "St. Louis", "state": "Missouri", "state_code": "MO", "phone": "+1 314-953-8799", "website": "https://www.bjc.org/provider/carlos-yu-1417934894%3Futm_source%3Dyext%26utm_medium%3Dlocal_listing%26utm_campaign%3Dyext_listing", "rating": 2.1, "reviews": 18, "place_id": "ChIJFW7nkyBJ34cRZJ_OazudI9o", "latitude": 38.7766189, "longitude": -90.2403049, "subtypes": "Neurologist"}, {"name": "St. Luke's Neurology", "address": "111 St Luke's Center Dr Building B Suite 20B, Chesterfield, MO 63017", "city": "Chesterfield", "state": "Missouri", "state_code": "MO", "phone": "+1 636-685-7745", "website": "https://www.stlukes-stl.com/locations/st-lukes-neurology", "rating": 3.8, "reviews": 16, "place_id": "ChIJDeNmrmjT2IcRfzKXSZkVPas", "latitude": 38.6556401, "longitude": -90.5088644, "subtypes": "Neurologist"}, {"name": "NEI of St Louis / Dr. Daniel Phillips, MD", "address": "14825 N Outer 40 Rd #330, Chesterfield, MO 63017", "city": "Chesterfield", "state": "Missouri", "state_code": "MO", "phone": "+1 636-537-0525", "website": "http://www.neistl.com/", "rating": 3.4, "reviews": 5, "place_id": "ChIJMe0upcrU2IcRbm-UKrbMAqI", "latitude": 38.6506179, "longitude": -90.544975, "subtypes": "Neurologist"}, {"name": "Randall Edgell, MD", "address": "Door 5, 1225 S Grand Blvd #1L, St. Louis, MO 63104", "city": "St. Louis", "state": "Missouri", "state_code": "MO", "phone": "+1 314-617-2555", "website": "https://www.getcare.ssmhealth.com/find-a-doctor/doctor-details/randall-c-edgell-md%3Fy_source%3D1_MTAwNTc2OTI4NS03MTUtbG9jYXRpb24ud2Vic2l0ZQ%253D%253D", "rating": 5, "reviews": 7, "place_id": "ChIJtcAfX5K02IcRhU3Na2GBh0w", "latitude": 38.6236158, "longitude": -90.2380213, "subtypes": "Neurologist"}, {"name": "SSM Health Neurosciences", "address": "12266 De Paul Dr Suite 100, Bridgeton, MO 63044", "city": "Bridgeton", "state": "Missouri", "state_code": "MO", "phone": "+1 314-738-2770", "website": "https://www.ssmhealth.com/locations/location-details/neurosciences-bridgeton%3Futm_id%3Dsys-listings-2%26linksource%3Dsys_listing_links-extended_network%253Futm_id%253Dsys-listings-1%26linksource%3Dsys_listing_links-gmb_listing%26y_source%3D1_MjMyNTc2ODQtNzE1LWxvY2F0aW9uLndlYnNpdGU%253D", "rating": 1.3, "reviews": 8, "place_id": "ChIJOdbd7Owx34cRmhmHkKVvxwA", "latitude": 38.7502236, "longitude": -90.4321057, "subtypes": "Neurologist"}, {"name": "Eric McDade, DO", "address": "Center for Advanced Medicine - Memory Diagnostic Center 4921 Parkview Place St. Louis, MO 63110 Floor: 6, Suite: C, St. Louis, MO 63110", "city": "St. Louis", "state": "Missouri", "state_code": "MO", "phone": "+1 314-286-1967", "website": "https://wuphysicians.wustl.edu/for-patients/find-a-physician/eric-mcdade", "rating": 3, "reviews": 2, "place_id": "ChIJlXhrsEu12IcR3pjF2KOz-FQ", "latitude": 38.638363, "longitude": -90.263234, "subtypes": "Neurologist"}, {"name": "Mary E. Bertrand, MD", "address": "Suites C and D, 1 Children's Pl 2nd floor suite d, St. Louis, MO 63110", "city": "St. Louis", "state": "Missouri", "state_code": "MO", "phone": "+1 314-454-6120", "website": "https://wuphysicians.wustl.edu/for-patients/find-a-physician/mary-e-bertrand", "rating": 5, "reviews": 5, "place_id": "ChIJHd4_sSa12IcRaD-ZcJp--KM", "latitude": 38.637545, "longitude": -90.26487999999999, "subtypes": "Neurologist"}, {"name": "Dr. David B. Clifford, MD", "address": "4921 Parkview Pl #6c, St. Louis, MO 63110", "city": "St. Louis", "state": "Missouri", "state_code": "MO", "phone": "+1 314-747-8423", "website": "https://physicians.wustl.edu/people/david-b-clifford-md/", "rating": 5, "reviews": 3, "place_id": "ChIJfziQPye12IcRSpYQ8wp7nNY", "latitude": 38.6383805, "longitude": -90.2631818, "subtypes": "Neurologist"}, {"name": "Mercy Clinic Neurosurgery - 4590 S. Lindbergh", "address": "4590 S Lindbergh Blvd Suite 101, St. Louis, MO 63127", "city": "St. Louis", "state": "Missouri", "state_code": "MO", "phone": "+1 314-270-9494", "website": "https://www.mercy.net/practice/mercy-clinic-neurosurgery-4590-s-lindbergh%3Futm_source%3Dgoogle%26utm_medium%3Dorganic_search%26utm_campaign%3Dyext%26utm_term%3D%26utm_content%3Dwebsite%26y_source%3D1_MTA0Mzc5NjYxMC03MTUtbG9jYXRpb24ud2Vic2l0ZQ%253D%253D", "rating": 5, "reviews": 5, "place_id": "ChIJMyfG-1LP2IcRHqx-kaUL6to", "latitude": 38.5312995, "longitude": -90.3821742, "subtypes": "Neurosurgeon"}, {"name": "Anne H. Cross, MD", "address": "Center for Advanced Medicine, 4921 Parkview Pl Floor 7, St. Louis, MO 63110", "city": "St. Louis", "state": "Missouri", "state_code": "MO", "phone": "+1 314-362-3293", "website": "https://wuphysicians.wustl.edu/for-patients/find-a-physician/anne-h-cross", "rating": 5, "reviews": 1, "place_id": "ChIJjZj6lCC12IcRdldTjPGdeJ0", "latitude": 38.6383357, "longitude": -90.26337749999999, "subtypes": "Neurologist"}, {"name": "Gregory F. Wu, MD, PhD", "address": "4921 Parkview Pl Floor: 7, St. Louis, MO 63110", "city": "St. Louis", "state": "Missouri", "state_code": "MO", "phone": "+1 314-362-3293", "website": "https://physicians.wustl.edu/people/gregory-f-wu-md-phd/", "rating": 5, "reviews": 1, "place_id": "ChIJfziQPye12IcRgX_Y4o__a-g", "latitude": 38.6383875, "longitude": -90.26330929999999, "subtypes": "Neurologist"}, {"name": "Isabel Alfradique-Dunham, MD", "address": "Center for Advanced Medicine, 4921 Parkview Pl Floor 7, St. Louis, MO 63110", "city": "St. Louis", "state": "Missouri", "state_code": "MO", "phone": "+1 314-362-6908", "website": "https://wuphysicians.wustl.edu/for-patients/find-a-physician/isabel-alfradique-dunham", "rating": 5, "reviews": 1, "place_id": "ChIJh5d-13-12IcRTgRFliT5q9Y", "latitude": 38.6383357, "longitude": -90.26337749999999, "subtypes": "Neurologist"}, {"name": "Ghazala Hayat, MD", "address": "Door 5, 1225 S Grand Blvd #1L, St. Louis, MO 63104", "city": "St. Louis", "state": "Missouri", "state_code": "MO", "phone": "+1 314-617-2555", "website": "https://www.getcare.ssmhealth.com/find-a-doctor/doctor-details/ghazala-s-hayat-md%3Fy_source%3D1_MTAwNTc2OTMxMi03MTUtbG9jYXRpb24ud2Vic2l0ZQ%253D%253D", "rating": 4.7, "reviews": 16, "place_id": "ChIJtcAfX5K02IcRuxudlGxGpiU", "latitude": 38.6236158, "longitude": -90.2380213, "subtypes": "Neurologist"}, {"name": "Gregory P. Van Stavern, MD", "address": "4901 Forest Park Ave Fl 6, St. Louis, MO 63108", "city": "St. Louis", "state": "Missouri", "state_code": "MO", "phone": "+1 314-362-3937", "website": "https://wuphysicians.wustl.edu/for-patients/find-a-physician/gregory-p-van-stavern", "rating": 4.6, "reviews": 5, "place_id": "ChIJfziQPye12IcRqHy03PF5n5I", "latitude": 38.6395066, "longitude": -90.2630641, "subtypes": "Neurologist"}, {"name": "Judith L. Weisenberg, MD", "address": "Children\u2019s Hospital, 1 Children's Pl, St. Louis, MO 63110", "city": "St. Louis", "state": "Missouri", "state_code": "MO", "phone": "+1 314-454-6120", "website": "https://findadoctor.bjc.org/find-doctor/judith-l-weisenberg-md/1932360245", "rating": 5, "reviews": 2, "place_id": "ChIJHd4_sSa12IcR2VE3aEzMAS8", "latitude": 38.637566, "longitude": -90.265423, "subtypes": "Neurologist"}, {"name": "Douglas P. Larsen, MD", "address": "Children\u2019s Hospital, 1 Children's Pl, St. Louis, MO 63110", "city": "St. Louis", "state": "Missouri", "state_code": "MO", "phone": "+1 314-454-6120", "website": "https://wuphysicians.wustl.edu/for-patients/find-a-physician/douglas-p-larsen", "rating": 5, "reviews": 1, "place_id": "ChIJHd4_sSa12IcR7DX7Jcl7kAI", "latitude": 38.637566, "longitude": -90.265423, "subtypes": "Neurologist"}, {"name": "Ali Jamal, MD", "address": "1465 S Grand Blvd, St. Louis, MO 63104", "city": "St. Louis", "state": "Missouri", "state_code": "MO", "phone": "+1 314-577-5338", "website": "https://physicians.slucare.edu/details/1171", "rating": 4, "reviews": 3, "place_id": "ChIJC_8Jq1i12IcRZjgXuHQWKEg", "latitude": 38.6213244, "longitude": -90.2391605, "subtypes": "Neurologist"}, {"name": "Guillermo Linares, MD", "address": "Door 5, 1225 S Grand Blvd #1L, St. Louis, MO 63104", "city": "St. Louis", "state": "Missouri", "state_code": "MO", "phone": "+1 314-617-2555", "website": "https://www.getcare.ssmhealth.com/find-a-doctor/doctor-details/guillermo-linares-md%3Fy_source%3D1_MTAwNTc2OTM2Mi03MTUtbG9jYXRpb24ud2Vic2l0ZQ%253D%253D", "rating": 4.7, "reviews": 3, "place_id": "ChIJD6QCOcm12IcRRN_P_V9XKP8", "latitude": 38.6236158, "longitude": -90.2380213, "subtypes": "Neurologist"}, {"name": "Sean Goretzke, MD", "address": "SSM Health Cardinal Glennon Children's Hospital, S Grand Blvd #1465, St. Louis, MO 63104", "city": "St. Louis", "state": "Missouri", "state_code": "MO", "phone": "+1 314-577-5338", "website": "https://www.getcare.ssmhealth.com/find-a-doctor/doctor-details/sean-e-goretzke-md", "rating": 3.7, "reviews": 6, "place_id": "ChIJOftfDpm12IcR5ufRBXBbO5U", "latitude": 38.6213562, "longitude": -90.2394917, "subtypes": "Neurologist"}, {"name": "Dr. Rachel S. Darken, MD", "address": "4921 Parkview Pl #6c, St. Louis, MO 63110", "city": "St. Louis", "state": "Missouri", "state_code": "MO", "phone": "+1 314-362-3482", "website": "https://wuphysicians.wustl.edu/for-patients/find-a-physician/rachel-darken", "rating": 5, "reviews": 1, "place_id": "ChIJQ3B-4ia12IcROQND7tetmA0", "latitude": 38.638395, "longitude": -90.263341, "subtypes": "Neurologist"}, {"name": "Dr. Brian K. Day, MD", "address": "1 Barnes Jewish Hospital Plaza, St. Louis, MO 63110", "city": "St. Louis", "state": "Missouri", "state_code": "MO", "phone": "+1 314-362-5000", "website": "http://www.barnesjewish.org/", "rating": 3.7, "reviews": 3, "place_id": "ChIJ24rfECG12IcRW7ED4gFWnlk", "latitude": 38.6352337, "longitude": -90.2648651, "subtypes": "Neurologist"}, {"name": "Pratap Chand, MD", "address": "Door 5, 1225 S Grand Blvd #1L, St. Louis, MO 63104", "city": "St. Louis", "state": "Missouri", "state_code": "MO", "phone": "+1 314-617-2555", "website": "https://www.getcare.ssmhealth.com/find-a-doctor/doctor-details/pratap-r-chand-md%3Fy_source%3D1_MTAwNTc2OTI3Mi03MTUtbG9jYXRpb24ud2Vic2l0ZQ%253D%253D", "rating": 4.1, "reviews": 9, "place_id": "ChIJtcAfX5K02IcRwOoCgsE37iM", "latitude": 38.6236158, "longitude": -90.2380213, "subtypes": "Neurologist"}, {"name": "Dr. Brendan Eby", "address": "1 Barnes Jewish Hospital Plaza, St. Louis, MO 63110", "city": "St. Louis", "state": "Missouri", "state_code": "MO", "phone": "+1 314-362-1408", "website": "https://physicians.wustl.edu/people/brendan-eby-md/", "rating": 5, "reviews": 1, "place_id": "ChIJe_JiECG12IcRwLzq0a6qIvk", "latitude": 38.6351456, "longitude": -90.2649821, "subtypes": "Neurologist"}, {"name": "David M. Holtzman, MD", "address": "660 S Euclid Ave # 8111, St. Louis, MO 63110", "city": "St. Louis", "state": "Missouri", "state_code": "MO", "phone": "+1 314-286-1967", "website": "https://holtzmanlab.wustl.edu/people/david-m-holtzman-md/", "rating": 5, "reviews": 1, "place_id": "ChIJjZj6lCC12IcRcYcmwU8iF7o", "latitude": 38.6353509, "longitude": -90.2627749, "subtypes": "Neurologist"}, {"name": "Stuart Tomko, MD", "address": "St. Louis Children's Hospital 1 Children's Place, St. Louis, MO 63110", "city": "St. Louis", "state": "Missouri", "state_code": "MO", "phone": "+1 314-454-6120", "website": "https://wuphysicians.wustl.edu/for-patients/find-a-physician/stuart-tomko", "rating": 5, "reviews": 2, "place_id": "ChIJbfziMzG12IcRTiON2skZCyA", "latitude": 38.637566, "longitude": -90.265423, "subtypes": "Neurologist"}, {"name": "Joshua L. Dowling, MD", "address": "Gary C. Werths Building at Siteman Cancer Center, 4500 Forest Park Ave Suite: 1B, St. Louis, MO 63108", "city": "St. Louis", "state": "Missouri", "state_code": "MO", "phone": "+1 314-362-3577", "website": "https://wuphysicians.wustl.edu/for-patients/find-a-physician/joshua-l-dowling", "rating": 4.4, "reviews": 13, "place_id": "ChIJfziQPye12IcRMQeziDse6z8", "latitude": 38.6381304, "longitude": -90.2602708, "subtypes": "Neurosurgeon"}, {"name": "Barry A Singer, MD", "address": "3009 N Ballas Rd #105 B, St. Louis, MO 63131", "city": "St. Louis", "state": "Missouri", "state_code": "MO", "phone": "+1 314-996-7960", "website": "https://www.bjc.org/provider/barry-singer-1932210671%3Futm_source%3Dyext%26utm_medium%3Dlocal_listing%26utm_campaign%3Dyext_listing", "rating": 4.5, "reviews": 26, "place_id": "ChIJAROaPF_N2IcRcXC1dLkeTTo", "latitude": 38.6350495, "longitude": -90.448978, "subtypes": "Neurologist"}, {"name": "Jeffrey J. Neil, MD, PhD", "address": "1 Children's Pl 2nd floor suite d, St. Louis, MO 63110", "city": "St. Louis", "state": "Missouri", "state_code": "MO", "phone": "+1 314-454-6120", "website": "https://wuphysicians.wustl.edu/for-patients/find-a-physician/jeffrey-j-neil", "rating": 5, "reviews": 2, "place_id": "ChIJHd4_sSa12IcRNvc0cpEaBUs", "latitude": 38.6377169, "longitude": -90.2642791, "subtypes": "Neurologist"}, {"name": "Arun S. Varadhachary, MD, PhD", "address": "4921 Parkview Pl Floor: 6, Suite: C, St. Louis, MO 63110", "city": "St. Louis", "state": "Missouri", "state_code": "MO", "phone": "+1 314-362-6981", "website": "https://wuphysicians.wustl.edu/for-patients/find-a-physician/arun-s-varadhachary", "rating": 3.3, "reviews": 7, "place_id": "ChIJF_W-FSe12IcR6wOHu-7sfC0", "latitude": 38.63836149999999, "longitude": -90.2633845, "subtypes": "Neurologist"}, {"name": "Dr. Craig M. Zaidman, MD", "address": "1 Children's Pl, St. Louis, MO 63110", "city": "St. Louis", "state": "Missouri", "state_code": "MO", "phone": "+1 314-454-6120", "website": "http://wuphysicians.wustl.edu/", "rating": 4.6, "reviews": 5, "place_id": "ChIJHd4_sSa12IcRye6KPrHVoo8", "latitude": 38.6376907, "longitude": -90.2654519, "subtypes": "Pediatric neurologist"}, {"name": "Dr. Luigi Maccotta, MD, PhD", "address": "4921 Parkview Pl #6c, St. Louis, MO 63110", "city": "St. Louis", "state": "Missouri", "state_code": "MO", "phone": "+1 314-362-7845", "website": "https://wuphysicians.wustl.edu/for-patients/find-a-physician/luigi-maccotta", "rating": 3.4, "reviews": 5, "place_id": "ChIJF_W-FSe12IcRqvWIibr2-B0", "latitude": 38.6383805, "longitude": -90.2631818, "subtypes": "Neurologist"}, {"name": "Jafar Kafaie, MD", "address": "1465 S Grand Blvd, St. Louis, MO 63104", "city": "St. Louis", "state": "Missouri", "state_code": "MO", "phone": "+1 314-577-5338", "website": "", "rating": 5, "reviews": 1, "place_id": "ChIJcadpkSu12IcRh6eVDkB8y3s", "latitude": 38.6213562, "longitude": -90.2394917, "subtypes": "Neurologist"}, {"name": "Rawan Tarawneh, MD", "address": "1225 S Grand Blvd First Level, St. Louis, MO 63104", "city": "St. Louis", "state": "Missouri", "state_code": "MO", "phone": "+1 314-617-2555", "website": "https://www.getcare.ssmhealth.com/find-a-doctor/doctor-details/rawan-tarawneh-md%3Futm_id%3Dsys-listings-1%26linksource%3Dsys_listing_links-gmb_listing%26y_source%3D1_MjAyMzEwODEzNC03MTUtbG9jYXRpb24ud2Vic2l0ZQ%253D%253D", "rating": 5, "reviews": 1, "place_id": "ChIJY0hY9ie12IcR5ezJfZXH6K4", "latitude": 38.6243293, "longitude": -90.23848369999999, "subtypes": "Neurologist"}, {"name": "Nupur Ghoshal, MD, PhD", "address": "4921 Parkview Pl Floor: 6, Suite: C, St. Louis, MO 63110", "city": "St. Louis", "state": "Missouri", "state_code": "MO", "phone": "+1 314-286-1967", "website": "https://wuphysicians.wustl.edu/for-patients/find-a-physician/nupur-ghoshal", "rating": 3.7, "reviews": 3, "place_id": "ChIJMflHOtm02IcRpb9-SRnxybc", "latitude": 38.638363, "longitude": -90.263234, "subtypes": "Neurologist"}, {"name": "O'Keefe John MD", "address": "12818 Tesson Ferry Rd # 201, St. Louis, MO 63128", "city": "St. Louis", "state": "Missouri", "state_code": "MO", "phone": "+1 314-849-5665", "website": "https://www.mercy.net/doctor/john-j-okeefe-iii-md/", "rating": 4.6, "reviews": 9, "place_id": "ChIJL3EVRUnP2IcRALelX-hRbiM", "latitude": 38.5005671, "longitude": -90.3802127, "subtypes": "Neurologist"}, {"name": "Mai Dang, MD, PhD", "address": "1 Children's Pl, St. Louis, MO 63110", "city": "St. Louis", "state": "Missouri", "state_code": "MO", "phone": "+1 800-678-5437", "website": "https://physicians.wustl.edu/people/mai-dang-md-phd/", "rating": 5, "reviews": 1, "place_id": "ChIJjRyWJye12IcRxjDBVyIN5Cg", "latitude": 38.6377169, "longitude": -90.2642791, "subtypes": "Neurologist"}, {"name": "Thomas Foutz, MD, PhD", "address": "Children's Hospital, 1 Children's Pl, St. Louis, MO 63110", "city": "St. Louis", "state": "Missouri", "state_code": "MO", "phone": "", "website": "https://wuphysicians.wustl.edu/for-patients/find-a-physician/thomas-j-foutz", "rating": 5, "reviews": 1, "place_id": "ChIJh27xB5S12IcRSjpjVNuxmxA", "latitude": 38.637566, "longitude": -90.265423, "subtypes": "Neurologist"}, {"name": "Dr. Susan R. Criswell, MD", "address": "4921 Parkview Pl #6c, St. Louis, MO 63110", "city": "St. Louis", "state": "Missouri", "state_code": "MO", "phone": "+1 314-362-6908", "website": "", "rating": 5, "reviews": 1, "place_id": "ChIJfziQPye12IcRSXuIfZXiYYE", "latitude": 38.6383805, "longitude": -90.2631818, "subtypes": "Neurologist"}, {"name": "Dr. Soe S. Mar, MD", "address": "660 S Euclid Ave # 8111, St. Louis, MO 63110", "city": "St. Louis", "state": "Missouri", "state_code": "MO", "phone": "+1 314-454-6120", "website": "http://wuphysicians.wustl.edu/", "rating": 5, "reviews": 1, "place_id": "ChIJjZj6lCC12IcRxzFHtM08T5E", "latitude": 38.6354372, "longitude": -90.26300499999999, "subtypes": "Pediatric neurologist"}, {"name": "Metropolitan Neurology, Ltd. (Dr Michele Wood and Dr Min Pan)", "address": "400 1st Capitol Dr STE 407, St Charles, MO 63301", "city": "St Charles", "state": "Missouri", "state_code": "MO", "phone": "+1 636-946-1152", "website": "https://metroneurostl.weebly.com/", "rating": 4.8, "reviews": 144, "place_id": "ChIJp67TSKov34cR2mhAz-xofNI", "latitude": 38.7814547, "longitude": -90.4857919, "subtypes": "Neurologist"}, {"name": "Dr. Barbara Joy Snider, MD, PhD", "address": "4921 Parkview Pl Floor: 6, Suite: C, St. Louis, MO 63110", "city": "St. Louis", "state": "Missouri", "state_code": "MO", "phone": "+1 314-286-1967", "website": "https://wuphysicians.wustl.edu/for-patients/find-a-physician/barbara-joy-snider", "rating": 5, "reviews": 1, "place_id": "ChIJF_W-FSe12IcRuf7S_IGjDiQ", "latitude": 38.63836149999999, "longitude": -90.2633845, "subtypes": "Neurologist"}, {"name": "Mauricio Avila, MD", "address": "1225 S Grand Blvd, St. Louis, MO 63104", "city": "St. Louis", "state": "Missouri", "state_code": "MO", "phone": "+1 314-617-3420", "website": "https://www.ssmhealth.com/find-a-doctor/doctor-details/mauricio-avila-md%3Futm_id%3Dsys-listings-1%26linksource%3Dsys_listing_links-gmb_listing%26y_source%3D1_MTAyNDM3NDQ3MC03MTUtbG9jYXRpb24ud2Vic2l0ZQ%253D%253D", "rating": 5, "reviews": 17, "place_id": "ChIJW5oc03612IcRq4Bp3ZwFmaM", "latitude": 38.6239819, "longitude": -90.2380256, "subtypes": "Neurosurgeon"}, {"name": "Schindler Suzanne MD", "address": "660 S Euclid Ave, St. Louis, MO 63110", "city": "St. Louis", "state": "Missouri", "state_code": "MO", "phone": "+1 314-286-1967", "website": "", "rating": "", "reviews": "", "place_id": "ChIJjZj6lCC12IcRigOcGHaxuik", "latitude": 38.6347453, "longitude": -90.2626816, "subtypes": "Neurologist"}, {"name": "Amy R. Viehoever, MD, PhD", "address": "1 Children's Pl, St. Louis, MO 63110", "city": "St. Louis", "state": "Missouri", "state_code": "MO", "phone": "+1 314-454-6120", "website": "https://wuphysicians.wustl.edu/for-patients/find-a-physician/amy-r-viehoever", "rating": 3.7, "reviews": 3, "place_id": "ChIJHd4_sSa12IcRoCBwNH8imQM", "latitude": 38.6376748, "longitude": -90.2653045, "subtypes": "Neurologist"}, {"name": "Dr. Mwiza Ushe", "address": "517 S Euclid Ave # 8111, St. Louis, MO 63110", "city": "St. Louis", "state": "Missouri", "state_code": "MO", "phone": "+1 314-362-6908", "website": "https://physicians.wustl.edu/people/mwiza-ushe-ma-md/", "rating": "", "reviews": "", "place_id": "ChIJ24rfECG12IcRUV9kN67Vhms", "latitude": 38.6359265, "longitude": -90.2643701, "subtypes": "Neurologist"}, {"name": "Joanna Kemp, MD", "address": "1465 S Grand Blvd, St. Louis, MO 63104", "city": "St. Louis", "state": "Missouri", "state_code": "MO", "phone": "+1 314-577-5306", "website": "https://www.getcare.ssmhealth.com/cardinal-glennon/find-a-doctor/doctor-details/joanna-m-kemp-md%3Futm_id%3Dsys-listings-1%26linksource%3Dsys_listing_links-gmb_listing%26y_source%3D1_MjAwODA5NTY2Ny03MTUtbG9jYXRpb24ud2Vic2l0ZQ%253D%253D", "rating": 5, "reviews": 10, "place_id": "ChIJR1kd-I202IcRqW_yuyrb66Y", "latitude": 38.6213562, "longitude": -90.2394917, "subtypes": "Neurosurgeon"}, {"name": "SSM Health Neurosciences", "address": "1055 Bowles Ave #200, Fenton, MO 63026", "city": "Fenton", "state": "Missouri", "state_code": "MO", "phone": "+1 636-496-3900", "website": "https://www.ssmhealth.com/locations/location-details/neurosciences-fenton%3Futm_id%3Dsys-listings-2%26linksource%3Dsys_listing_links-extended_network%253Futm_id%253Dsys-listings-1%26linksource%3Dsys_listing_links-gmb_listing%26y_source%3D1_MjMyNTc3MTctNzE1LWxvY2F0aW9uLndlYnNpdGU%253D", "rating": 2.8, "reviews": 14, "place_id": "ChIJ87EJkEvQ2IcRnzXoYYgdFm0", "latitude": 38.5282464, "longitude": -90.4762101, "subtypes": "Neurologist"}, {"name": "SSM Health Neurosciences", "address": "400 1st Capitol Dr STE 407, St Charles, MO 63301", "city": "St Charles", "state": "Missouri", "state_code": "MO", "phone": "+1 636-946-1152", "website": "https://www.ssmhealth.com/locations/location-details/neurosciences-first-capitol-st-charles-mo%3Futm_id%3Dsys-listings-1%26linksource%3Dsys_listing_links-gmb_listing%26y_source%3D1_Mjc2OTYxNjItNzE1LWxvY2F0aW9uLndlYnNpdGU%253D", "rating": 1, "reviews": 1, "place_id": "ChIJrX7W3LUv34cRnlMEQQbCM1k", "latitude": 38.7814667, "longitude": -90.48586089999999, "subtypes": "Neurologist"}, {"name": "Dr. Jin-Moo Lee, MD", "address": "4921 Parkview Pl #6c, St. Louis, MO 63110", "city": "St. Louis", "state": "Missouri", "state_code": "MO", "phone": "+1 314-362-7382", "website": "", "rating": "", "reviews": "", "place_id": "ChIJQ3B-4ia12IcRHdOZCAwA4vI", "latitude": 38.638363, "longitude": -90.263234, "subtypes": "Neurologist"}, {"name": "Richard Bucholz, MD", "address": "1225 South Grand Boulevard 2L - Door 1, St. Louis, MO 63104", "city": "St. Louis", "state": "Missouri", "state_code": "MO", "phone": "+1 314-617-3420", "website": "https://www.getcare.ssmhealth.com/find-a-doctor/doctor-details/richard-d-bucholz-md%3Fy_source%3D1_MTAwNTc2OTI2Ny03MTUtbG9jYXRpb24ud2Vic2l0ZQ%253D%253D", "rating": 4.1, "reviews": 9, "place_id": "ChIJT93qmZG02IcR2pSVa-h0lZE", "latitude": 38.6239819, "longitude": -90.2380256, "subtypes": "Neurosurgeon"}, {"name": "Fajun Wang, MD", "address": "Door 5, 1225 S Grand Blvd #1L, St. Louis, MO 63104", "city": "St. Louis", "state": "Missouri", "state_code": "MO", "phone": "+1 314-977-6082", "website": "https://physicians.slucare.com/details/3374/fajun-wang-critical_care_medicine-neurology-st_louis", "rating": "", "reviews": "", "place_id": "ChIJCxZQYty12IcRm40qRqkLP6k", "latitude": 38.6239819, "longitude": -90.2380256, "subtypes": "Neurologist"}, {"name": "Sarah Bauer Huang, MD, PhD", "address": "Children's Hospital, 1 Children's Pl Floor: 2, St. Louis, MO 63110", "city": "St. Louis", "state": "Missouri", "state_code": "MO", "phone": "+1 314-454-6120", "website": "https://wuphysicians.wustl.edu/for-patients/find-a-physician/sarah-bauer-huang", "rating": "", "reviews": "", "place_id": "ChIJe06ckQq12IcRnN5IuV-UQrY", "latitude": 38.637566, "longitude": -90.265423, "subtypes": "Neurologist"}, {"name": "Glen Fenton, MD", "address": "1465 S Grand Blvd, St. Louis, MO 63104", "city": "St. Louis", "state": "Missouri", "state_code": "MO", "phone": "+1 314-577-5600", "website": "https://www.ssmhealth.com/find-a-doctor/doctor-details/glen-a-fenton-md", "rating": "", "reviews": "", "place_id": "ChIJL9Qh_5G02IcR5Up-1nxofUU", "latitude": 38.6212304, "longitude": -90.2391243, "subtypes": "Neurologist"}, {"name": "SLUCare Physician Group", "address": "1225 S Grand Blvd Level 1, Door 5, St. Louis, MO 63104", "city": "St. Louis", "state": "Missouri", "state_code": "MO", "phone": "+1 314-617-2555", "website": "https://www.ssmhealth.com/locations/location-details/neurology-1225-s-grand-blvd.-st-louis%3Fy_source%3D1_MTAwNTU5MjQwMS03MTUtbG9jYXRpb24ud2Vic2l0ZQ%253D%253D", "rating": "", "reviews": "", "place_id": "ChIJh3BnbWa12IcRqSglCfDSZpw", "latitude": 38.623888, "longitude": -90.23797619999999, "subtypes": "Neurosurgeon"}, {"name": "J Mario Alonso Dgm", "address": "2716 Telegraph Rd Suite 105, St. Louis, MO 63125", "city": "St. Louis", "state": "Missouri", "state_code": "MO", "phone": "+1 314-487-3155", "website": "", "rating": 4.5, "reviews": 2, "place_id": "ChIJBb7SZty32IcRrF7M2jlwUhQ", "latitude": 38.5096088, "longitude": -90.2925382, "subtypes": "Neurologist"}, {"name": "David Veloso Lardizabal", "address": "1 Barnes Jewish Hospital Plaza, St. Louis, MO 63110", "city": "St. Louis", "state": "Missouri", "state_code": "MO", "phone": "+1 314-362-7382", "website": "", "rating": "", "reviews": "", "place_id": "ChIJe_JiECG12IcR1mDr5kmWf1k", "latitude": 38.6351456, "longitude": -90.2649821, "subtypes": "Neurologist"}, {"name": "Dr. Victoria Levasseur", "address": "1 Barnes Jewish Hospital Plaza # 1, St. Louis, MO 63110", "city": "St. Louis", "state": "Missouri", "state_code": "MO", "phone": "+1 314-362-1408", "website": "", "rating": "", "reviews": "", "place_id": "ChIJq6pqGiG12IcRHB6hBZmXr_o", "latitude": 38.6352337, "longitude": -90.2648651, "subtypes": "Neurologist"}, {"name": "Dr. Shulamit M. Portnoy, MD", "address": "1465 S Grand Blvd, St. Louis, MO 63104", "city": "St. Louis", "state": "Missouri", "state_code": "MO", "phone": "+1 314-577-5609", "website": "", "rating": "", "reviews": "", "place_id": "ChIJL9Qh_5G02IcRJjdjocoZrXg", "latitude": 38.6212303, "longitude": -90.2391243, "subtypes": "Neurologist"}, {"name": "Dr. Maren Gregersen", "address": "1 Barnes Jewish Hospital Plaza, St. Louis, MO 63110", "city": "St. Louis", "state": "Missouri", "state_code": "MO", "phone": "+1 314-362-5000", "website": "https://neurology.wustl.edu/people/maren-gregersen-md/", "rating": "", "reviews": "", "place_id": "ChIJe_JiECG12IcRMYtUjwP7VTY", "latitude": 38.6351456, "longitude": -90.2649821, "subtypes": "Neurologist"}, {"name": "Lindsay Peglar, MD", "address": "St. Louis Children's Hospital 1 Children's Place St. Louis, MO 63110 Floor: 2, Suite: A,D,C, St. Louis, MO 63110", "city": "St. Louis", "state": "Missouri", "state_code": "MO", "phone": "+1 314-454-6120", "website": "https://wuphysicians.wustl.edu/for-patients/find-a-physician/lindsay-peglar", "rating": 1, "reviews": 2, "place_id": "ChIJgRgLnJe12IcRMeSb6NKj3ko", "latitude": 38.637566, "longitude": -90.265423, "subtypes": "Neurologist"}, {"name": "Rachel Cadmus, PA-C", "address": "Door 5, 1225 S Grand Blvd #1L, St. Louis, MO 63104", "city": "St. Louis", "state": "Missouri", "state_code": "MO", "phone": "+1 314-977-6082", "website": "https://physicians.slucare.com/details/3255/rachel-cadmus-neurology-physician_assistant-st_louis", "rating": "", "reviews": "", "place_id": "ChIJOaKjmxK12IcRwinSLbwPRr8", "latitude": 38.6236526, "longitude": -90.23800949999999, "subtypes": "Neurologist"}, {"name": "Dr. John Younce", "address": "4921 Parkview Pl #6c, St. Louis, MO 63110", "city": "St. Louis", "state": "Missouri", "state_code": "MO", "phone": "+1 314-286-1967", "website": "", "rating": "", "reviews": "", "place_id": "ChIJzyMzFSe12IcRx-n--mz1CQ0", "latitude": 38.6383805, "longitude": -90.2631818, "subtypes": "Neurologist"}, {"name": "Dr. Eli Feen, MD", "address": "3660 Vista Ave, St. Louis, MO 63110", "city": "St. Louis", "state": "Missouri", "state_code": "MO", "phone": "+1 314-977-6082", "website": "", "rating": "", "reviews": "", "place_id": "ChIJtcAfX5K02IcR97W2tHhLA6c", "latitude": 38.6225016, "longitude": -90.2405181, "subtypes": "Neurologist"}, {"name": "Talora Martin", "address": "1 Barnes Jewish Hospital Plaza, St. Louis, MO 63110", "city": "St. Louis", "state": "Missouri", "state_code": "MO", "phone": "+1 314-369-6246", "website": "https://neurology.wustl.edu/people/talora-martin-md/", "rating": "", "reviews": "", "place_id": "ChIJe_JiECG12IcRb-cYtKn3ZVI", "latitude": 38.6351456, "longitude": -90.2649821, "subtypes": "Neurologist"}, {"name": "Aakash Bodhit, MD", "address": "Door 5, 1225 S Grand Blvd #1L, St. Louis, MO 63104", "city": "St. Louis", "state": "Missouri", "state_code": "MO", "phone": "+1 314-977-6082", "website": "", "rating": "", "reviews": "", "place_id": "ChIJr5T0sYy12IcRM2DZmNpINj8", "latitude": 38.6236526, "longitude": -90.23800949999999, "subtypes": "Neurologist"}, {"name": "Rauchway Amy DO", "address": "3660 Vista Ave, St. Louis, MO 63110", "city": "St. Louis", "state": "Missouri", "state_code": "MO", "phone": "+1 314-977-4440", "website": "", "rating": "", "reviews": "", "place_id": "ChIJtcAfX5K02IcREroNtLG2W5w", "latitude": 38.6225722, "longitude": -90.2404524, "subtypes": "Neurologist"}, {"name": "Rachel Overberg, PA-C", "address": "Door 5, 1225 S Grand Blvd #1L, St. Louis, MO 63104", "city": "St. Louis", "state": "Missouri", "state_code": "MO", "phone": "+1 314-617-2555", "website": "https://www.getcare.ssmhealth.com/find-a-doctor/doctor-details/rachel-cadmus-pa-c%3Fy_source%3D1_MTAwNTc2OTQyNC03MTUtbG9jYXRpb24ud2Vic2l0ZQ%253D%253D", "rating": "", "reviews": "", "place_id": "ChIJAcJ6RsG12IcRmMBVWWeANDc", "latitude": 38.6236158, "longitude": -90.2380213, "subtypes": "Neurologist"}, {"name": "Stephanie Morris, MD", "address": "St. Louis Children's Hospital 1 Children's Place St. Louis, MO 63110 Floor: 2, Suite: D, St. Louis, MO 63110", "city": "St. Louis", "state": "Missouri", "state_code": "MO", "phone": "+1 314-454-6120", "website": "", "rating": "", "reviews": "", "place_id": "ChIJW85kzBC12IcRTcUKZuoFcRc", "latitude": 38.637566, "longitude": -90.265423, "subtypes": "Neurologist"}, {"name": "David B. Carr, MD", "address": "4921 Parkview Pl #6c, St. Louis, MO 63108", "city": "St. Louis", "state": "Missouri", "state_code": "MO", "phone": "+1 314-273-4374", "website": "https://physicians.wustl.edu/people/david-b-carr-md/", "rating": "", "reviews": "", "place_id": "ChIJz5hrFSe12IcRvgyYTBCHoiU", "latitude": 38.6383395, "longitude": -90.2632654, "subtypes": "Neurologist"}, {"name": "Christopher D. Smyser, MD", "address": "Children\u2019s Hospital, 1 Children's Pl, St. Louis, MO 63110", "city": "St. Louis", "state": "Missouri", "state_code": "MO", "phone": "+1 314-454-6120", "website": "https://wuphysicians.wustl.edu/for-patients/find-a-physician/christopher-d-smyser", "rating": "", "reviews": "", "place_id": "ChIJHd4_sSa12IcRoNorXjmDrq4", "latitude": 38.637566, "longitude": -90.265423, "subtypes": "Neurologist"}, {"name": "Wing Man (Mandy) Fong, PhD", "address": "4444 Forest Park Avenue Building 4444 Forest Park Avenue St. Louis, MO 63108 Floor: 2, Suite: 2306, St. Louis, MO 63108", "city": "St. Louis", "state": "Missouri", "state_code": "MO", "phone": "+1 314-454-7756", "website": "https://wuphysicians.wustl.edu/for-patients/find-a-physician/wing-man-(mandy)-fong", "rating": "", "reviews": "", "place_id": "ChIJVbxN29-12IcRS_MS_h58No0", "latitude": 38.637069, "longitude": -90.257311, "subtypes": "Neurologist"}, {"name": "Andria L. Ford, MD", "address": "4921 Parkview Pl Floor: 6, Suite: C, St. Louis, MO 63110", "city": "St. Louis", "state": "Missouri", "state_code": "MO", "phone": "+1 314-362-1408", "website": "https://wuphysicians.wustl.edu/for-patients/find-a-physician/andria-l-ford", "rating": "", "reviews": "", "place_id": "ChIJfziQPye12IcR1YsqYsTeLVk", "latitude": 38.63836149999999, "longitude": -90.2633845, "subtypes": "Neurologist"}, {"name": "Dr. Nirav A. Vora, MD", "address": "3660 Vista Ave, St. Louis, MO 63110", "city": "St. Louis", "state": "Missouri", "state_code": "MO", "phone": "+1 314-977-4440", "website": "", "rating": "", "reviews": "", "place_id": "ChIJtcAfX5K02IcRGc19o_0cr90", "latitude": 38.6225016, "longitude": -90.2405181, "subtypes": "Neurologist"}, {"name": "Michael Wong, MD, PhD", "address": "1 Children's Pl floor 2 suite d, St. Louis, MO 63110", "city": "St. Louis", "state": "Missouri", "state_code": "MO", "phone": "+1 314-454-4089", "website": "https://wuphysicians.wustl.edu/for-patients/find-a-physician/michael-wong", "rating": "", "reviews": "", "place_id": "ChIJHd4_sSa12IcRJpt5L1_SSIU", "latitude": 38.6377169, "longitude": -90.2642791, "subtypes": "Neurologist"}, {"name": "Mithen Francis MD", "address": "3660 Vista Ave, St. Louis, MO 63110", "city": "St. Louis", "state": "Missouri", "state_code": "MO", "phone": "+1 314-977-6082", "website": "", "rating": "", "reviews": "", "place_id": "ChIJtcAfX5K02IcRMqd8u63NmgM", "latitude": 38.6225397, "longitude": -90.2406396, "subtypes": "Neurologist"}, {"name": "Dr. John Carl Morris, MD", "address": "4444 Forest Park Ave Suite #160, St. Louis, MO 63108", "city": "St. Louis", "state": "Missouri", "state_code": "MO", "phone": "", "website": "https://physicians.wustl.edu/people/john-carl-morris-md/", "rating": "", "reviews": "", "place_id": "ChIJreKyJeW12IcRp5zBsnrqrfg", "latitude": 38.6370219, "longitude": -90.25698179999999, "subtypes": "Neurologist"}, {"name": "Pestronk Alan MD", "address": "517 S Euclid Ave, St. Louis, MO 63110", "city": "St. Louis", "state": "Missouri", "state_code": "MO", "phone": "+1 314-362-6981", "website": "", "rating": "", "reviews": "", "place_id": "ChIJycm1vyC12IcR5oJTmZ29LwE", "latitude": 38.6358896, "longitude": -90.2647183, "subtypes": "Neurologist"}, {"name": "Piriyawat Paisith MD", "address": "3660 Vista Ave, St. Louis, MO 63110", "city": "St. Louis", "state": "Missouri", "state_code": "MO", "phone": "+1 314-977-6082", "website": "", "rating": "", "reviews": "", "place_id": "ChIJtcAfX5K02IcRYN86KmU0KDQ", "latitude": 38.6225722, "longitude": -90.2404524, "subtypes": "Neurologist"}, {"name": "Dr. Tagann Chaisam, MD", "address": "3635 Vista Ave, St. Louis, MO 63110", "city": "St. Louis", "state": "Missouri", "state_code": "MO", "phone": "+1 314-577-8000", "website": "", "rating": "", "reviews": "", "place_id": "ChIJ_1VHXJK02IcRD4Ojwuy0Nqs", "latitude": 38.6226535, "longitude": -90.23952799999999, "subtypes": "Neurologist"}, {"name": "Shannon C. Agner, MD, PhD", "address": "St. Louis Children's Hospital 1 Children's Place St. Louis, MO 63110 Floor: 2, Suite: D, St. Louis, MO 63110", "city": "St. Louis", "state": "Missouri", "state_code": "MO", "phone": "+1 314-454-6120", "website": "https://wuphysicians.wustl.edu/for-patients/find-a-physician/shannon-c-agner", "rating": "", "reviews": "", "place_id": "ChIJq0qEFHC12IcR309ywwac__M", "latitude": 38.637566, "longitude": -90.265423, "subtypes": "Neurologist"}, {"name": "Florian Thomas MD", "address": "3660 Vista Ave, St. Louis, MO 63110", "city": "St. Louis", "state": "Missouri", "state_code": "MO", "phone": "+1 314-977-6082", "website": "", "rating": "", "reviews": "", "place_id": "ChIJtcAfX5K02IcR-6_aJz6NMG8", "latitude": 38.6225722, "longitude": -90.2404524, "subtypes": "Neurologist"}, {"name": "Burke William J MD", "address": "915 N Grand Blvd, St. Louis, MO 63106", "city": "St. Louis", "state": "Missouri", "state_code": "MO", "phone": "+1 314-652-4100", "website": "", "rating": "", "reviews": "", "place_id": "ChIJW498-aW02IcR9bPaCx91gEA", "latitude": 38.6421861, "longitude": -90.2311069, "subtypes": "Neurologist"}, {"name": "Sheel Pathak, MD", "address": "660 S Euclid Ave, St. Louis, MO 63110", "city": "St. Louis", "state": "Missouri", "state_code": "MO", "phone": "+1 314-454-6363", "website": "http://neuro.wustl.edu/", "rating": "", "reviews": "", "place_id": "ChIJTYv2lCC12IcRjL0koWiYeiY", "latitude": 38.6353687, "longitude": -90.26273549999999, "subtypes": "Neurologist"}, {"name": "Prityi Rani, MD", "address": "300 Medical Plaza #221, Lake St Louis, MO 63367", "city": "Lake St Louis", "state": "Missouri", "state_code": "MO", "phone": "+1 636-625-6041", "website": "https://www.getcare.ssmhealth.com/find-a-doctor/doctor-details/prityi-rani-md%3Futm_id%3Dsys-listings-1%26linksource%3Dsys_listing_links-gmb_listing%26y_source%3D1_MzA3NTQ0MjMtNzE1LWxvY2F0aW9uLndlYnNpdGU%253D", "rating": 3.5, "reviews": 22, "place_id": "ChIJQfBKf5TP3ocRl_LAY6CBPBk", "latitude": 38.802221, "longitude": -90.774965, "subtypes": "Neurologist"}, {"name": "Joanna Ramiro, MD", "address": "SSM Health, University Hospital, 1201 S Grand Blvd, St. Louis, MO 63104", "city": "St. Louis", "state": "Missouri", "state_code": "MO", "phone": "+1 314-977-3225", "website": "", "rating": "", "reviews": "", "place_id": "ChIJD0Dy7Ki12IcRyKC7wAqE_iU", "latitude": 38.6234732, "longitude": -90.2394108, "subtypes": "Neurologist"}, {"name": "Dr. Randall J. Bateman, MD", "address": "4921 Parkview Pl #6c, St. Louis, MO 63110", "city": "St. Louis", "state": "Missouri", "state_code": "MO", "phone": "+1 314-286-1967", "website": "https://wuphysicians.wustl.edu/for-patients/find-a-physician/randall-j-bateman", "rating": "", "reviews": "", "place_id": "ChIJF_W-FSe12IcRQq1_P9I_sUY", "latitude": 38.6383805, "longitude": -90.2631818, "subtypes": "Neurologist"}, {"name": "Burke William J MD", "address": "1221 S Grand Blvd, St. Louis, MO 63104", "city": "St. Louis", "state": "Missouri", "state_code": "MO", "phone": "+1 314-487-0400", "website": "", "rating": "", "reviews": "", "place_id": "ChIJ7eDggpG02IcRJr3QFSH3d4M", "latitude": 38.6236427, "longitude": -90.23793789999999, "subtypes": "Neurologist"}, {"name": "Dr. Matthew Dooley", "address": "4444 Forest Park Ave, St. Louis, MO 63108", "city": "St. Louis", "state": "Missouri", "state_code": "MO", "phone": "", "website": "", "rating": "", "reviews": "", "place_id": "ChIJfXuw-Nu02IcRaEjYzCJufMw", "latitude": 38.6370219, "longitude": -90.25698179999999, "subtypes": "Neurologist"}, {"name": "Neurosurgery Associates of Jackson County", "address": "19550 East 39th St S Suite 105, Independence, MO 64057", "city": "Independence", "state": "Missouri", "state_code": "MO", "phone": "+1 816-350-4215", "website": "https://mymidwestphysician.com/locations/neurosurgery-associates-of-jackson-county/%3Futm_campaign%3Dcorp_listings_mgmt%26utm_source%3Dgoogle%26utm_medium%3Dbusiness_listing", "rating": 4.4, "reviews": 74, "place_id": "ChIJIXI79uYcwYcR2Zon9zILPJ8", "latitude": 39.049484, "longitude": -94.3500957, "subtypes": "Neurosurgeon"}, {"name": "Michael Copeland, MD", "address": "19550 East 39th St S Ste 105, Independence, MO 64057", "city": "Independence", "state": "Missouri", "state_code": "MO", "phone": "+1 816-350-4215", "website": "https://mymidwestphysician.com/physicians/profile/Dr-Michael-Copeland-MD-PhD%3Futm_campaign%3Dcorp_listings_mgmt%26utm_source%3Dgoogle%26utm_medium%3Dbusiness_listing", "rating": 4.5, "reviews": 86, "place_id": "ChIJsWMe-OYcwYcR-rzQRpzmMvk", "latitude": 39.049484, "longitude": -94.3500957, "subtypes": "Neurosurgeon"}, {"name": "Dr. Charles D. Donohoe, MD", "address": "17020 E US Hwy 40 #8, Independence, MO 64055", "city": "Independence", "state": "Missouri", "state_code": "MO", "phone": "+1 816-373-3213", "website": "", "rating": 4, "reviews": 1, "place_id": "ChIJv8OgWHQdwYcRa57MP0H7g3I", "latitude": 39.0353713, "longitude": -94.37988159999999, "subtypes": "Neurologist"}, {"name": "Barry Pollack, MD", "address": "19550 East 39th St S Ste 105, Independence, MO 64057", "city": "Independence", "state": "Missouri", "state_code": "MO", "phone": "+1 816-350-4215", "website": "https://mymidwestphysician.com/physicians/profile/Dr-Barry-Pollack-MD%3Futm_campaign%3Dcorp_listings_mgmt%26utm_source%3Dgoogle%26utm_medium%3Dbusiness_listing", "rating": 4.7, "reviews": 65, "place_id": "ChIJKzUbx4IdwYcR_Po0I6dAIiA", "latitude": 39.049484, "longitude": -94.3500957, "subtypes": "Neurosurgeon"}, {"name": "Block Dennis W DO", "address": "19600 East 39th St S, Independence, MO 64057", "city": "Independence", "state": "Missouri", "state_code": "MO", "phone": "+1 816-751-3775", "website": "http://hcamidwest.com/", "rating": "", "reviews": "", "place_id": "ChIJB_DLnOYcwYcR4SQOWO_-MPo", "latitude": 39.0494374, "longitude": -94.3488139, "subtypes": "Neurologist"}, {"name": "Dr. Dennis A. Velez, MD", "address": "19550 East 39th St S, Independence, MO 64057", "city": "Independence", "state": "Missouri", "state_code": "MO", "phone": "+1 816-833-0466", "website": "http://mymidwestphysician.com/", "rating": 1, "reviews": 2, "place_id": "ChIJR6-e1uYcwYcR0UkIA096u-8", "latitude": 39.0494618, "longitude": -94.34886949999999, "subtypes": "Neurosurgeon"}, {"name": "Justin Chandler, MD", "address": "19550 East 39th St S Ste 200, Independence, MO 64057", "city": "Independence", "state": "Missouri", "state_code": "MO", "phone": "+1 816-350-4200", "website": "", "rating": 1, "reviews": 3, "place_id": "ChIJsWMe-OYcwYcRJNqx_XBtMZc", "latitude": 39.049484, "longitude": -94.3500957, "subtypes": "Neurologist"}, {"name": "Research Neuroscience Institute - Lee's Summit", "address": "1980 SE Blue Pkwy Suite 2130, Lee's Summit, MO 64063", "city": "Lee's Summit", "state": "Missouri", "state_code": "MO", "phone": "+1 816-363-2500", "website": "https://midwestneurosurgery.net/%3Futm_campaign%3Dcorp_listings_mgmt%26utm_source%3Dgoogle%26utm_medium%3Dbusiness_listing", "rating": 4.8, "reviews": 80, "place_id": "ChIJXQUBGeEhwYcRqLEGp5iQdjQ", "latitude": 38.9037209, "longitude": -94.3329249, "subtypes": "Neurosurgeon"}, {"name": "Kathryn Hedges, MD", "address": "1980 SE Blue Pkwy Suite 2130, Lee's Summit, MO 64063", "city": "Lee's Summit", "state": "Missouri", "state_code": "MO", "phone": "+1 913-934-4000", "website": "https://mymidwestphysician.com/physicians/profile/Dr-Kathryn-A-Hedges-MD%3Futm_campaign%3Dcorp_listings_mgmt%26utm_source%3Dgoogle%26utm_medium%3Dbusiness_listing", "rating": 4.9, "reviews": 183, "place_id": "ChIJWaNY1eYhwYcR23nG2jkLQDU", "latitude": 38.9034584, "longitude": -94.3336483, "subtypes": "Neurologist"}, {"name": "Kansas City Neurology Clinic - Lee's Summit", "address": "1980 SE Blue Pkwy Suite 2130, Lee's Summit, MO 64063", "city": "Lee's Summit", "state": "Missouri", "state_code": "MO", "phone": "+1 913-934-4000", "website": "https://mymidwestphysician.com/locations/kansas-city-neurology-clinic/%3Futm_campaign%3Dcorp_listings_mgmt%26utm_source%3Dgoogle%26utm_medium%3Dbusiness_listing", "rating": 3.6, "reviews": 34, "place_id": "ChIJ31szL-EhwYcRLj_A62mi7TM", "latitude": 38.9034597, "longitude": -94.3336258, "subtypes": "Neurologist"}, {"name": "Neurosurgery of South Kansas City - Lee's Summit", "address": "2100 SE Blue Pkwy Suite 120, Lee's Summit, MO 64063", "city": "Lee's Summit", "state": "Missouri", "state_code": "MO", "phone": "+1 816-942-0200", "website": "https://mymidwestphysician.com/locations/neurosurgery-of-south-kansas-city-medical-group/%3Futm_campaign%3Dcorp_listings_mgmt%26utm_source%3Dgoogle%26utm_medium%3Dbusiness_listing", "rating": 5, "reviews": 11, "place_id": "ChIJgfCil8chwYcRT4K5QFYKwuk", "latitude": 38.9034128, "longitude": -94.3335187, "subtypes": "Neurosurgeon"}, {"name": "Donald K. Hopewell, MD", "address": "7900 Lee's Summit Rd, Kansas City, MO 64139", "city": "Kansas City", "state": "Missouri", "state_code": "MO", "phone": "+1 816-404-7000", "website": "https://providerdirectory.universityhealthkc.org/provider/donald-k-hopewell/2238196", "rating": 5, "reviews": 2, "place_id": "ChIJ7fkcqn8Dz4cR8607vwYqbEE", "latitude": 38.9748425, "longitude": -94.3941277, "subtypes": "Neurologist"}, {"name": "Nathan McGraw, MD", "address": "20 NE St Lukes Blvd Entrance B, Suite 300, Lee's Summit, MO 64086", "city": "Lee's Summit", "state": "Missouri", "state_code": "MO", "phone": "+1 816-347-5000", "website": "https://www.saintlukeskc.org/provider/nathan-mcgraw-1083068530%3Futm_source%3Dyext%26utm_medium%3Dlocal_listing%26utm_campaign%3Dyext_listing", "rating": "", "reviews": "", "place_id": "ChIJzdh9RdsfwYcROaY4qF6kPFE", "latitude": 38.9403239, "longitude": -94.38134319999999, "subtypes": "Neurologist"}, {"name": "Charles D. Donahoe, M.D.", "address": "7900 Lee's Summit Rd, Kansas City, MO 64139", "city": "Kansas City", "state": "Missouri", "state_code": "MO", "phone": "+1 816-404-7600", "website": "http://www.trumed.org/", "rating": 2.3, "reviews": 6, "place_id": "ChIJ9Wunzh0ewYcRjje8lpmr0OQ", "latitude": 38.97475499999999, "longitude": -94.39511619999999, "subtypes": "Neurologist"}, {"name": "Megan Baumgardner, DO", "address": "20 NE St Lukes Blvd Entrance B, Suite 300, Lee's Summit, MO 64086", "city": "Lee's Summit", "state": "Missouri", "state_code": "MO", "phone": "+1 816-960-7680", "website": "http://www.saintlukeskc.org/provider/megan-baumgardner-1447511399%3Futm_source%3Dyext%26utm_medium%3Dlocal_listing%26utm_campaign%3Dyext_listing", "rating": 1, "reviews": 3, "place_id": "ChIJb-p3ykofwYcRDxYRif0cPeE", "latitude": 38.9416622, "longitude": -94.38205029999999, "subtypes": "Neurologist"}, {"name": "Dr. Karin E. Olds, MD", "address": "20 NE St Lukes Blvd, Lee's Summit, MO 64086", "city": "Lee's Summit", "state": "Missouri", "state_code": "MO", "phone": "+1 816-531-4080", "website": "", "rating": "", "reviews": "", "place_id": "ChIJE1W3uMkfwYcRsiVNuM6sX40", "latitude": 38.9413272, "longitude": -94.3812391, "subtypes": "Neurologist"}, {"name": "Dr. Charles L. Weinstein, MD", "address": "20 NE St Lukes Blvd, Lee's Summit, MO 64086", "city": "Lee's Summit", "state": "Missouri", "state_code": "MO", "phone": "+1 816-531-4080", "website": "", "rating": "", "reviews": "", "place_id": "ChIJ0f-5uMkfwYcRI8CPrmyB0Eg", "latitude": 38.9413272, "longitude": -94.3812391, "subtypes": "Neurologist"}, {"name": "Fangxiang Chen, MD", "address": "12266 De Paul Dr Suite 100, Bridgeton, MO 63044", "city": "Bridgeton", "state": "Missouri", "state_code": "MO", "phone": "+1 314-738-2770", "website": "https://www.getcare.ssmhealth.com/find-a-doctor/doctor-details/fangxiang-chen-md%3Futm_id%3Dsys-listings-1%26linksource%3Dsys_listing_links-gmb_listing%26y_source%3D1_MTA0NjIxMjU2OC03MTUtbG9jYXRpb24ud2Vic2l0ZQ%253D%253D", "rating": 4.6, "reviews": 19, "place_id": "ChIJcXKQGTbP2IcRNOJtV1w9rGU", "latitude": 38.7505169, "longitude": -90.4327564, "subtypes": "Neurosurgeon"}, {"name": "Brent A Huffman, MD", "address": "3009 N Ballas Rd #102b, St. Louis, MO 63131", "city": "St. Louis", "state": "Missouri", "state_code": "MO", "phone": "+1 314-996-7080", "website": "https://www.bjc.org/provider/brent-huffman-1154367282%3Futm_source%3Dyext%26utm_medium%3Dlocal_listing%26utm_campaign%3Dyext_listing", "rating": 4, "reviews": 11, "place_id": "ChIJ-8XjLKvN2IcRr3RkSCSnKgk", "latitude": 38.6350495, "longitude": -90.448978, "subtypes": "Neurologist"}, {"name": "Chizoba Ezepue, MD", "address": "12266 De Paul Dr Suite 100, Bridgeton, MO 63044", "city": "Bridgeton", "state": "Missouri", "state_code": "MO", "phone": "+1 314-738-2770", "website": "https://www.getcare.ssmhealth.com/find-a-doctor/doctor-details/chizoba-ezepue-md%3Futm_id%3Dsys-listings-1%26linksource%3Dsys_listing_links-gmb_listing%26y_source%3D1_MzEwMDYxOTAtNzE1LWxvY2F0aW9uLndlYnNpdGU%253D", "rating": 4.9, "reviews": 103, "place_id": "ChIJF-Jrlewx34cRl70DMQfgcnY", "latitude": 38.7505183, "longitude": -90.43260719999999, "subtypes": "Neurologist"}, {"name": "Margolis Robert P MD", "address": "11155 Dunn Rd #202n, St. Louis, MO 63136", "city": "St. Louis", "state": "Missouri", "state_code": "MO", "phone": "+1 314-355-3355", "website": "http://ssmhealth.com/", "rating": 3.7, "reviews": 3, "place_id": "ChIJFW7nkyBJ34cRixkJPegifFY", "latitude": 38.7765887, "longitude": -90.2402508, "subtypes": "Neurologist"}, {"name": "Xinrong Frank Lu, MD", "address": "12266 De Paul Dr Suite 100, Bridgeton, MO 63044", "city": "Bridgeton", "state": "Missouri", "state_code": "MO", "phone": "+1 314-738-2770", "website": "https://www.getcare.ssmhealth.com/find-a-doctor/doctor-details/xinrong-frank-lu-md%3Futm_id%3Dsys-listings-1%26linksource%3Dsys_listing_links-gmb_listing%26y_source%3D1_MjMyNTgyNzAtNzE1LWxvY2F0aW9uLndlYnNpdGU%253D", "rating": 4.7, "reviews": 101, "place_id": "ChIJv3re7Owx34cRrQ9oGoTCA3w", "latitude": 38.7505183, "longitude": -90.43260719999999, "subtypes": "Neurologist"}, {"name": "Dr. Nupur Ghoshal, MD", "address": "5535 Delmar Blvd, St. Louis, MO 63112", "city": "St. Louis", "state": "Missouri", "state_code": "MO", "phone": "", "website": "", "rating": 5, "reviews": 1, "place_id": "ChIJKRunmcpK34cRq13TDkgiS6Q", "latitude": 38.654154, "longitude": -90.28028789999999, "subtypes": "Neurologist"}, {"name": "Amer Alshekhlee, MD", "address": "12266 De Paul Dr Suite 100, Bridgeton, MO 63044", "city": "Bridgeton", "state": "Missouri", "state_code": "MO", "phone": "+1 314-738-2770", "website": "https://www.getcare.ssmhealth.com/find-a-doctor/doctor-details/amer-alshekhlee-md%3Futm_id%3Dsys-listings-1%26linksource%3Dsys_listing_links-gmb_listing%26y_source%3D1_MjMyNTg0OTItNzE1LWxvY2F0aW9uLndlYnNpdGU%253D", "rating": 4.8, "reviews": 123, "place_id": "ChIJv3re7Owx34cRDWP7Qv3Rs_0", "latitude": 38.7505183, "longitude": -90.43260719999999, "subtypes": "Neurologist"}, {"name": "WAQAR U MIRZA", "address": "12277 De Paul Dr # 401, Bridgeton, MO 63044", "city": "Bridgeton", "state": "Missouri", "state_code": "MO", "phone": "+1 314-731-6990", "website": "https://www.ssmhealth.com/find-a-doctor/doctor-details/waqar-u-mirza-md", "rating": 2.5, "reviews": 2, "place_id": "ChIJtWNQMJMx34cRFE9Crc5Yxls", "latitude": 38.7502556, "longitude": -90.4328991, "subtypes": "Neurologist"}, {"name": "Dr. Christina Lenk, MD", "address": "5000 Cedar Plaza Pkwy #220, St. Louis, MO 63128", "city": "St. Louis", "state": "Missouri", "state_code": "MO", "phone": "+1 314-842-1116", "website": "", "rating": 5, "reviews": 1, "place_id": "ChIJZ0Roz1fP2IcRhmzHWG1apZg", "latitude": 38.4852687, "longitude": -90.38245099999999, "subtypes": "Neurologist"}, {"name": "Arooj Kohli, MD", "address": "1055 Bowles Ave, Fenton, MO 63026", "city": "Fenton", "state": "Missouri", "state_code": "MO", "phone": "+1 636-496-3900", "website": "https://www.getcare.ssmhealth.com/find-a-doctor/doctor-details/arooj-kohli-md%3Futm_id%3Dsys-listings-1%26linksource%3Dsys_listing_links-gmb_listing%26y_source%3D1_MjAxNzQyMjczMC03MTUtbG9jYXRpb24ud2Vic2l0ZQ%253D%253D", "rating": "", "reviews": "", "place_id": "ChIJs2GSBlbR2IcRLdNBESmv_nU", "latitude": 38.5272393, "longitude": -90.47674599999999, "subtypes": "Neurologist"}, {"name": "Laurence Kinsella, MD", "address": "1055 Bowles Ave Suite 200, Fenton, MO 63026", "city": "Fenton", "state": "Missouri", "state_code": "MO", "phone": "+1 636-496-3900", "website": "https://www.getcare.ssmhealth.com/find-a-doctor/doctor-details/laurence-j-kinsella-md%3Futm_id%3Dsys-listings-1%26linksource%3Dsys_listing_links-gmb_listing%26y_source%3D1_MjMyNTg4MjEtNzE1LWxvY2F0aW9uLndlYnNpdGU%253D", "rating": 4.4, "reviews": 54, "place_id": "ChIJ87EJkEvQ2IcRD5TZws8-Mu0", "latitude": 38.5270412, "longitude": -90.47651959999999, "subtypes": "Neurologist"}, {"name": "Tariq Jawaid Alam, MD", "address": "1390 US-61 Suite N2400, Festus, MO 63028", "city": "Festus", "state": "Missouri", "state_code": "MO", "phone": "+1 636-933-8270", "website": "", "rating": 3.2, "reviews": 29, "place_id": "ChIJAQJgM_Pu2IcRUO-qKeOLeYU", "latitude": 38.1976402, "longitude": -90.39428339999999, "subtypes": "Neurologist"}, {"name": "Michael Dennis Snyder, MD", "address": "12700 Southfork Rd #270, St. Louis, MO 63128", "city": "St. Louis", "state": "Missouri", "state_code": "MO", "phone": "+1 314-843-8222", "website": "https://www.mercy.net/doctor/michael-dennis-snyder-md%3Futm_source%3Dgoogle%26utm_medium%3Dorganic_search%26utm_campaign%3Dyext%26utm_term%3D%26utm_content%3Dwebsite%26y_source%3D1_MTA4MjUxMjUwNy03MTUtbG9jYXRpb24ud2Vic2l0ZQ%253D%253D", "rating": 1.7, "reviews": 6, "place_id": "ChIJE1jrXp_P2IcR1Pu_mz8-PgA", "latitude": 38.5031638, "longitude": -90.38096469999999, "subtypes": "Neurologist"}, {"name": "Sherry Ma, MD", "address": "1055 Bowles Ave, Fenton, MO 63026", "city": "Fenton", "state": "Missouri", "state_code": "MO", "phone": "+1 636-496-3900", "website": "https://www.getcare.ssmhealth.com/find-a-doctor/doctor-details/sherry-x-ma-md%3Futm_id%3Dsys-listings-1%26linksource%3Dsys_listing_links-gmb_listing%26y_source%3D1_MjA1MzM2Mzk5My03MTUtbG9jYXRpb24ud2Vic2l0ZQ%253D%253D", "rating": "", "reviews": "", "place_id": "ChIJw4l_bOnR2IcR0BH7neVfnQE", "latitude": 38.5272393, "longitude": -90.47674599999999, "subtypes": "Neurologist"}, {"name": "Mesfin Mitike, MD", "address": "1011 Bowles Ave Suite 300, Fenton, MO 63026", "city": "Fenton", "state": "Missouri", "state_code": "MO", "phone": "+1 636-496-5030", "website": "https://www.getcare.ssmhealth.com/find-a-doctor/doctor-details/mesfin-t-mitike-md%3Futm_id%3Dsys-listings-1%26linksource%3Dsys_listing_links-gmb_listing%26y_source%3D1_MzEwMDYxNTMtNzE1LWxvY2F0aW9uLndlYnNpdGU%253D", "rating": 4.6, "reviews": 58, "place_id": "ChIJ71OrIrPR2IcRHFEj22mHuNk", "latitude": 38.5273628, "longitude": -90.4756002, "subtypes": "Neurologist"}, {"name": "Srishti Sharma, MD", "address": "10012 Kennerly Rd #404, St. Louis, MO 63128", "city": "St. Louis", "state": "Missouri", "state_code": "MO", "phone": "+1 314-843-8222", "website": "https://www.mercy.net/doctor/srishti-sharma-md%3Futm_source%3Dgoogle%26utm_medium%3Dorganic_search%26utm_campaign%3Dyext%26utm_term%3D%26utm_content%3Dwebsite%26y_source%3D1_MTA3OTc4NDA2My03MTUtbG9jYXRpb24ud2Vic2l0ZQ%253D%253D", "rating": 3, "reviews": 6, "place_id": "ChIJG9cJsaDP2IcRFw5-EbZbhQ0", "latitude": 38.5060566, "longitude": -90.3804938, "subtypes": "Neurologist"}, {"name": "Dr. Gary H. Myers, MD", "address": "10004 Kennerly Rd, St. Louis, MO 63128", "city": "St. Louis", "state": "Missouri", "state_code": "MO", "phone": "+1 314-843-8222", "website": "http://www.stanthonysmedcenter.com/", "rating": 1, "reviews": 1, "place_id": "ChIJ8Vm4zTXP2IcRnz_ur5Z58Ho", "latitude": 38.5078107, "longitude": -90.37891959999999, "subtypes": "Neurologist"}, {"name": "Dr. Ashwani Joshi", "address": "10010 Kennerly Rd, St. Louis, MO 63128", "city": "St. Louis", "state": "Missouri", "state_code": "MO", "phone": "+1 314-525-4137", "website": "https://www.mercy.net/doctor/ashwani-kumar-joshi-md/", "rating": "", "reviews": "", "place_id": "ChIJi_3pazbP2IcRUkWdWpyPESs", "latitude": 38.5069813, "longitude": -90.3805002, "subtypes": "Neurologist"}, {"name": "Robin Elizabeth Hayes, CNP", "address": "12700 Southfork Rd #270, St. Louis, MO 63128", "city": "St. Louis", "state": "Missouri", "state_code": "MO", "phone": "+1 314-843-8222", "website": "https://www.mercy.net/doctor/robin-elizabeth-hayes-cnp%3Futm_source%3Dgoogle%26utm_medium%3Dorganic_search%26utm_campaign%3Dyext%26utm_term%3D%26utm_content%3Dwebsite%26y_source%3D1_MjAxNzkzMzEyNi03MTUtbG9jYXRpb24ud2Vic2l0ZQ%253D%253D", "rating": "", "reviews": "", "place_id": "ChIJw3EAMWDP2IcROIHtI84JRjg", "latitude": 38.5032736, "longitude": -90.3810379, "subtypes": "Neurologist"}, {"name": "Joanne E. Donnegan, ANP", "address": "10012 Kennerly Road Suite 400, Saint Louis, MO 63128, Sappington, MO 63128", "city": "Sappington", "state": "Missouri", "state_code": "MO", "phone": "+1 314-543-5999", "website": "http://www.staneurosurgeryspecialists.org/", "rating": "", "reviews": "", "place_id": "ChIJNWHrGTbP2IcRciB-5s3m0mw", "latitude": 38.5059354, "longitude": -90.3804688, "subtypes": "Neurologist"}, {"name": "Dr. Kurt Eichholz", "address": "4590 S Lindbergh Blvd, St. Louis, MO 63127", "city": "St. Louis", "state": "Missouri", "state_code": "MO", "phone": "+1 314-270-9494", "website": "https://www.mercy.net/doctor/kurt-michael-eichholz-md/", "rating": 3.2, "reviews": 11, "place_id": "ChIJ__-_K9fO2IcRKwjGX7Tica4", "latitude": 38.5314162, "longitude": -90.3821189, "subtypes": "Neurosurgeon"}, {"name": "Charles Wetherington, MD", "address": "1055 Bowles Ave #200, Fenton, MO 63026", "city": "Fenton", "state": "Missouri", "state_code": "MO", "phone": "+1 636-496-3900", "website": "https://www.getcare.ssmhealth.com/find-a-doctor/doctor-details/charles-a-wetherington-md%3Futm_id%3Dsys-listings-1%26linksource%3Dsys_listing_links-gmb_listing%26y_source%3D1_MjMyNTgzMzgtNzE1LWxvY2F0aW9uLndlYnNpdGU%253D", "rating": 4.3, "reviews": 55, "place_id": "ChIJ87EJkEvQ2IcRXzlkw6KQO8I", "latitude": 38.5282464, "longitude": -90.4762101, "subtypes": "Neurosurgeon"}, {"name": "Richard A. Head, MD", "address": "10012 Kennerly Rd #404, St. Louis, MO 63128", "city": "St. Louis", "state": "Missouri", "state_code": "MO", "phone": "+1 314-843-8222", "website": "", "rating": 2.6, "reviews": 28, "place_id": "ChIJ8Vm4zTXP2IcRKN_TrWmcvaM", "latitude": 38.5060076, "longitude": -90.38051589999999, "subtypes": "Neurologist"}, {"name": "Mercy Clinic Neurology - 10012 Kennerly", "address": "10012 Kennerly Rd #404, St. Louis, MO 63128", "city": "St. Louis", "state": "Missouri", "state_code": "MO", "phone": "+1 314-843-8222", "website": "https://www.mercy.net/practice/mercy-clinic-neurology-10012-kennerly%3Futm_source%3Dgoogle%26utm_medium%3Dorganic_search%26utm_campaign%3Dyext%26utm_term%3D%26utm_content%3Dwebsite%26y_source%3D1_MjA2NTUxNTEtNzE1LWxvY2F0aW9uLndlYnNpdGU%253D", "rating": 1, "reviews": 1, "place_id": "ChIJOZfpvlbP2IcRKkz9d8LzxCY", "latitude": 38.5060602, "longitude": -90.38065329999999, "subtypes": "Neurologist"}, {"name": "Mc Gill Bryan MD", "address": "1 Children's Pl, St. Louis, MO 63110", "city": "St. Louis", "state": "Missouri", "state_code": "MO", "phone": "+1 314-454-6120", "website": "http://wuphysicians.wustl.edu/", "rating": 5, "reviews": 2, "place_id": "ChIJHd4_sSa12IcRiM8KT-lGO3g", "latitude": 38.6377741, "longitude": -90.26479169999999, "subtypes": "Neurologist"}, {"name": "Nazik Abuelgasim, MBBS", "address": "1600 S Brentwood Blvd Suite: 600, Brentwood, MO 63144", "city": "Brentwood", "state": "Missouri", "state_code": "MO", "phone": "+1 314-362-7241", "website": "https://physicians.wustl.edu/people/nazik-abuelgasim-mbbs/", "rating": 5, "reviews": 2, "place_id": "ChIJOc6C8-nL2IcRiMJdp5tkZLk", "latitude": 38.626888, "longitude": -90.34612, "subtypes": "Neurologist"}, {"name": "Neurology Clinic-Jefferson City", "address": "1125 Madison St Floor 1, Jefferson City, MO 65101", "city": "Jefferson City", "state": "Missouri", "state_code": "MO", "phone": "+1 573-632-5570", "website": "https://www.muhealth.org/locations/neurology-clinic-jefferson-city", "rating": 5, "reviews": 1, "place_id": "ChIJazUDbuBf24cRfBeqkeVpdfI", "latitude": 38.5668555, "longitude": -92.18138239999999, "subtypes": "Neurologist"}, {"name": "Rachel Darken, MD, PhD", "address": "1600 S Brentwood Blvd #600, St. Louis, MO 63144", "city": "St. Louis", "state": "Missouri", "state_code": "MO", "phone": "+1 314-362-7241", "website": "https://wuphysicians.wustl.edu/for-patients/find-a-physician/rachel-darken", "rating": 4.5, "reviews": 4, "place_id": "ChIJU20Y4xnL2IcRutVq_jXnGTE", "latitude": 38.6268878, "longitude": -90.3461197, "subtypes": "Neurologist"}, {"name": "John Zempel, MD, PhD", "address": "1 Children's Pl floor 2 suite d, St. Louis, MO 63110", "city": "St. Louis", "state": "Missouri", "state_code": "MO", "phone": "+1 314-454-4089", "website": "https://wuphysicians.wustl.edu/for-patients/find-a-physician/john-zempel", "rating": 5, "reviews": 1, "place_id": "ChIJHd4_sSa12IcRf__EYkxJfwY", "latitude": 38.6377169, "longitude": -90.2642791, "subtypes": "Neurologist"}, {"name": "Arch Neurosurgery - Dr. Joseph Yazdi", "address": "1034 S Brentwood Blvd #754, St. Louis, MO 63117", "city": "St. Louis", "state": "Missouri", "state_code": "MO", "phone": "+1 314-973-2955", "website": "https://archneurosurgery.com/", "rating": 4.7, "reviews": 94, "place_id": "ChIJD-SLodjK2IcRX6HhYvInzIg", "latitude": 38.6359297, "longitude": -90.3440978, "subtypes": "Neurosurgeon"}, {"name": "Min Pan, MD", "address": "400 1st Capitol Dr STE 407, St Charles, MO 63301", "city": "St Charles", "state": "Missouri", "state_code": "MO", "phone": "+1 636-946-1152", "website": "https://www.getcare.ssmhealth.com/find-a-doctor/doctor-details/min-pan-md%3Futm_id%3Dsys-listings-1%26linksource%3Dsys_listing_links-gmb_listing%26y_source%3D1_MzEwMDc3NjctNzE1LWxvY2F0aW9uLndlYnNpdGU%253D", "rating": 4.8, "reviews": 183, "place_id": "ChIJp67TSKov34cR68lmRU_0XRE", "latitude": 38.7814787, "longitude": -90.4858129, "subtypes": "Neurologist"}, {"name": "Dr. Wilson Z. Ray, MD", "address": "660 S Euclid Ave, St. Louis, MO 63110", "city": "St. Louis", "state": "Missouri", "state_code": "MO", "phone": "+1 314-362-3577", "website": "https://neurosurgery.wustl.edu/people/wilson-zachary-ray-md/", "rating": 4.8, "reviews": 40, "place_id": "ChIJQ3B-4ia12IcRP2KspS5oNUE", "latitude": 38.6353509, "longitude": -90.2627749, "subtypes": "Neurosurgeon"}, {"name": "Brenton Pennicooke, MD, MS: Neurosurgeon & Complex Spine Surgeon", "address": "4921 Parkview Pl #6c, St. Louis, MO 63110", "city": "St. Louis", "state": "Missouri", "state_code": "MO", "phone": "+1 636-916-7140", "website": "https://brentonpennicookemd.com/", "rating": 4.9, "reviews": 69, "place_id": "ChIJt7kP7TK12IcRvFalK1j7obo", "latitude": 38.6382239, "longitude": -90.26299709999999, "subtypes": "Neurosurgeon"},