[{"name": "Big Sky Neurology", "address": "155 Mill Town Lp Unit A, Bozeman, MT 59718", "city": "Bozeman", "state": "Montana", "state_code": "MT", "phone": "+1 406-551-2180", "website": "https://bigskyneurology.com/", "rating": 4.5, "reviews": 30, "place_id": "ChIJD8iFpa9PRVMRnCQY_1v65lc", "latitude": 45.6770287, "longitude": -111.1870127, "subtypes": "Neurologist"}, {"name": "Intermountain Health Gallatin Clinic - Neurology", "address": "2825 W Main St Suite 1-C, Bozeman, MT 59718", "city": "Bozeman", "state": "Montana", "state_code": "MT", "phone": "+1 406-613-7970", "website": "https://intermountainhealthcare.org/locations/gallatin-clinic/neurology", "rating": "", "reviews": "", "place_id": "ChIJoUK1dvxFRVMRjcKTe-_mrkk", "latitude": 45.6740892, "longitude": -111.0763636, "subtypes": "Neurologist"}, {"name": "Kristian F. French, MD", "address": "1041 N 29th St, Billings, MT 59101", "city": "Billings", "state": "Montana", "state_code": "MT", "phone": "+1 406-237-5577", "website": "https://doctors.intermountainhealth.org/provider/Kristian%2520Frank%2520French/1616880%3Futm_campaign%3Dgmb%26utm_medium%3Dorganic%26utm_source%3Dlocal", "rating": 5, "reviews": 15, "place_id": "ChIJ-X-9Hjl7SFMR98kjW7hzHSM", "latitude": 45.7914912, "longitude": -108.51551, "subtypes": "Neurologist"}, {"name": "Stuart G. Goodman, MD", "address": "1041 N 29th St, Billings, MT 59101", "city": "Billings", "state": "Montana", "state_code": "MT", "phone": "+1 406-237-5577", "website": "https://doctors.intermountainhealth.org/provider/Stuart%2520Glenn%2520Goodman/1617407%3Futm_campaign%3Dgmb%26utm_medium%3Dorganic%26utm_source%3Dlocal", "rating": 5, "reviews": 20, "place_id": "ChIJszRiuRV7SFMRPVpl5-vkm-o", "latitude": 45.7914547, "longitude": -108.5155724, "subtypes": "Neurosurgeon"}, {"name": "Echeverri Arturo MD", "address": "1233 N 30th St Allard 3, Billings, MT 59101", "city": "Billings", "state": "Montana", "state_code": "MT", "phone": "+1 406-238-6670", "website": "", "rating": 4.5, "reviews": 8, "place_id": "ChIJdYtlshV7SFMR7TL9zOa2hq0", "latitude": 45.79348419999999, "longitude": -108.5187094, "subtypes": "Neurologist"}, {"name": "Sara S Qureshi - MD - Billings Clinic", "address": "2800 10th Ave N, Billings, MT 59101", "city": "Billings", "state": "Montana", "state_code": "MT", "phone": "+1 406-238-2500", "website": "https://providers.billingsclinic.com/provider/sara-s-qureshi/2068369%3Futm_source%3Dgmb-providers%26utm_campaign%3Dlocal-listings%26utm_medium%3D1821309071", "rating": 3.8, "reviews": 12, "place_id": "ChIJjQK4Azx7SFMRX9K0Yv-NCUI", "latitude": 45.78953689999999, "longitude": -108.5129947, "subtypes": "Neurologist"}, {"name": "Rodriguez Daniel V MD", "address": "1775 Spring Creek Ln, Billings, MT 59102", "city": "Billings", "state": "Montana", "state_code": "MT", "phone": "+1 406-373-3500", "website": "", "rating": 5, "reviews": 1, "place_id": "ChIJRTeyGJZiSFMR62EeZZ0wO4g", "latitude": 45.73678839999999, "longitude": -108.605097, "subtypes": "Neurologist"}, {"name": "Bitterroot Health - Neurology", "address": "1103 Westwood Dr Suite B, Hamilton, MT 59840", "city": "Hamilton", "state": "Montana", "state_code": "MT", "phone": "+1 406-375-4119", "website": "https://www.bitterroothealth.org/services/neurology/", "rating": 4.8, "reviews": 43, "place_id": "ChIJGbyRA9q3XlMRff6iZ3JbIyo", "latitude": 46.2470537, "longitude": -114.1706848, "subtypes": "Neurologist"}, {"name": "Scott A Riggins - MD - Billings Clinic", "address": "2800 10th Ave N, Billings, MT 59101", "city": "Billings", "state": "Montana", "state_code": "MT", "phone": "+1 406-238-2500", "website": "https://providers.billingsclinic.com/provider/scott-a-riggins/2068411%3Futm_source%3Dgmb-providers%26utm_campaign%3Dlocal-listings%26utm_medium%3D1679671598", "rating": 5, "reviews": 7, "place_id": "ChIJaRNMGzx7SFMR4q-Wq4v6-K0", "latitude": 45.78953689999999, "longitude": -108.5129947, "subtypes": "Neurologist"}, {"name": "St. Vincent Regional Hospital - Neurosciences", "address": "1041 N 29th St, Billings, MT 59101", "city": "Billings", "state": "Montana", "state_code": "MT", "phone": "+1 406-237-5577", "website": "https://intermountainhealthcare.org/locations/intermountain-health-st-vincent-regional-hospital%3Futm_campaign%3Dgmb%26utm_medium%3Dorganic%26utm_source%3Dlocal", "rating": 3.1, "reviews": 21, "place_id": "ChIJcwxio9BiSFMRcdfXx5ouJVw", "latitude": 45.79300809999999, "longitude": -108.5194124, "subtypes": "Neurosurgeon"}, {"name": "Avery Neuromedical Center", "address": "1520 24th St W, Billings, MT 59102", "city": "Billings", "state": "Montana", "state_code": "MT", "phone": "+1 406-896-0483", "website": "https://averyneuromedicalcenter.com/", "rating": 5, "reviews": 3, "place_id": "ChIJ5QrorSF9SFMRrxza7ytt9t4", "latitude": 45.7859681, "longitude": -108.5770638, "subtypes": "Neurologist"}, {"name": "Alex John Rugino, DO", "address": "1041 N 29th St, Billings, MT 59101", "city": "Billings", "state": "Montana", "state_code": "MT", "phone": "+1 406-237-5577", "website": "https://doctors.intermountainhealth.org/provider/Alex%2520John%2520Rugino/4294501%3Futm_campaign%3Dgmb%26utm_source%3Dreputation%26utm_medium%3Dorganic", "rating": 5, "reviews": 3, "place_id": "ChIJSw8Y7Uh7SFMRuKsTyREwZxo", "latitude": 45.7914547, "longitude": -108.5155724, "subtypes": "Neurosurgeon"}, {"name": "James F. Richards, MD", "address": "1233 N 30th St Allard 3, Billings, MT 59101", "city": "Billings", "state": "Montana", "state_code": "MT", "phone": "+1 406-237-3850", "website": "https://doctors.intermountainhealth.org/provider/James%2520F%2520Richards/1615527%3Futm_campaign%3Dgmb%26utm_medium%3Dorganic%26utm_source%3Dlocal", "rating": "", "reviews": "", "place_id": "ChIJybLtLzh7SFMR4sTTqJQVJ80", "latitude": 45.79348419999999, "longitude": -108.5187094, "subtypes": "Neurologist"}, {"name": "Sarah Liston, DO", "address": "1103 Westwood Dr Suite B, Hamilton, MT 59840", "city": "Hamilton", "state": "Montana", "state_code": "MT", "phone": "+1 406-375-4119", "website": "https://www.bitterroothealth.org/services/neurology/", "rating": 4.8, "reviews": 96, "place_id": "ChIJIf6KIlm3XlMRHqBm4NtW2cg", "latitude": 46.2470537, "longitude": -114.1706848, "subtypes": "Neurologist"}, {"name": "Javier A. Echeverri, MD", "address": "1041 N 29th St, Billings, MT 59101", "city": "Billings", "state": "Montana", "state_code": "MT", "phone": "+1 406-237-5577", "website": "https://doctors.intermountainhealth.org/provider/Javier%2520Arturo%2520Echeverri/1616643%3Futm_campaign%3Dgmb%26utm_medium%3Dorganic%26utm_source%3Dlocal", "rating": 4, "reviews": 11, "place_id": "ChIJcxIjfNR7SFMRi2lhkce6Qds", "latitude": 45.7914547, "longitude": -108.5155724, "subtypes": "Neurologist"}, {"name": "Tegan E. Ake, MD", "address": "2825 W Main St, Bozeman, MT 59718", "city": "Bozeman", "state": "Montana", "state_code": "MT", "phone": "+1 406-613-7970", "website": "https://doctors.intermountainhealth.org/provider/Tegan%2520Elizabeth%2520Ake/4036884%3Futm_campaign%3Dgmb%26utm_source%3Dreputation%26utm_medium%3Dorganic", "rating": 4.5, "reviews": 2, "place_id": "ChIJWbttxqJFRVMRZPGTvu0lKJw", "latitude": 45.6738902, "longitude": -111.0767305, "subtypes": "Neurologist"}, {"name": "Murray Ronald S MD", "address": "2900 12th Ave N STE 400, Billings, MT 59101", "city": "Billings", "state": "Montana", "state_code": "MT", "phone": "+1 406-237-5050", "website": "http://www.montanabones.com/", "rating": "", "reviews": "", "place_id": "ChIJszRiuRV7SFMR1Od0t-NQ3y0", "latitude": 45.7926353, "longitude": -108.5182424, "subtypes": "Neurologist"}, {"name": "Bitterroot Health - Neurosurgery", "address": "1200 Westwood Dr Suite A, Hamilton, MT 59840", "city": "Hamilton", "state": "Montana", "state_code": "MT", "phone": "+1 406-375-4714", "website": "https://www.bitterroothealth.org/neurosurgery", "rating": 4.8, "reviews": 117, "place_id": "ChIJSV8qEta3XlMR51cwDzOrWJM", "latitude": 46.2479677, "longitude": -114.1714888, "subtypes": "Neurosurgeon"}, {"name": "Eliad Culcea, MD", "address": "401 15th Ave S #101, Great Falls, MT 59405", "city": "Great Falls", "state": "Montana", "state_code": "MT", "phone": "+1 406-315-5950", "website": "http://atlasneurology.us/", "rating": 4.4, "reviews": 9, "place_id": "ChIJYVu72XPbB0ERz6lCM65ilLg", "latitude": 47.489267, "longitude": -111.299715, "subtypes": "Neurologist"}, {"name": "Walter Lajara-Nanson", "address": "1401 25th St S # 3, Great Falls, MT 59405", "city": "Great Falls", "state": "Montana", "state_code": "MT", "phone": "+1 406-731-8858", "website": "https://www.benefis.org/find-a-provider/profile/walter-lajara-nanson/", "rating": 3.4, "reviews": 17, "place_id": "ChIJq6qqGa83QlMRdf-tzbDrQM4", "latitude": 47.4909924, "longitude": -111.2634047, "subtypes": "Neurologist"}, {"name": "Dr. Deborah D. Dover, MD", "address": "NO LONGER AT, 1401 25th St S, Great Falls, MT 59405", "city": "Great Falls", "state": "Montana", "state_code": "MT", "phone": "", "website": "", "rating": "", "reviews": "", "place_id": "ChIJedm-E6k3QlMRNatGuQZJIG0", "latitude": 47.4908673, "longitude": -111.2633125, "subtypes": "Neurologist"}, {"name": "Lindsay Bret D MD", "address": "200 Commons Way, Kalispell, MT 59901", "city": "Kalispell", "state": "Montana", "state_code": "MT", "phone": "+1 406-752-5095", "website": "https://www.logan.org/provider/bret-lindsay/", "rating": 4, "reviews": 20, "place_id": "ChIJ4b_wVHFaZlMRHUeP2ASi9yE", "latitude": 48.2213608, "longitude": -114.3278329, "subtypes": "Neurologist"}, {"name": "Dr. William E. Henning, DO", "address": "400 15th Ave S #206, Great Falls, MT 59405", "city": "Great Falls", "state": "Montana", "state_code": "MT", "phone": "+1 406-455-2570", "website": "", "rating": 3, "reviews": 8, "place_id": "ChIJGyeKFNs3QlMRt7BiHudFFy8", "latitude": 47.4884885, "longitude": -111.3002532, "subtypes": "Neurologist"}, {"name": "Dr. Donald A. Stone, MD", "address": "200 Commons Way A, Kalispell, MT 59901", "city": "Kalispell", "state": "Montana", "state_code": "MT", "phone": "+1 406-752-5095", "website": "", "rating": 4.3, "reviews": 4, "place_id": "ChIJ4b_wVHFaZlMRcvu_wg4QXlU", "latitude": 48.2213608, "longitude": -114.3278329, "subtypes": "Neurologist"}, {"name": "Richard A Lewis, MD", "address": "2800 10th Ave N, Billings, MT 59101", "city": "Billings", "state": "Montana", "state_code": "MT", "phone": "", "website": "", "rating": "", "reviews": "", "place_id": "ChIJV4DROKN7SFMRobR5cCzz2Is", "latitude": 45.78953689999999, "longitude": -108.5129947, "subtypes": "Neurologist"}, {"name": "Jeffrey S. Hakim, MD", "address": "1041 N 29th St, Billings, MT 59101", "city": "Billings", "state": "Montana", "state_code": "MT", "phone": "+1 406-237-5577", "website": "https://connect.intermountainhealth.org/virtual-care%3Futm_campaign%3Dgmb%26utm_source%3Dlocal", "rating": 5, "reviews": 5, "place_id": "ChIJw8HDnh17SFMRJz23Rf4zIzo", "latitude": 45.7914547, "longitude": -108.5155724, "subtypes": "Neurosurgeon"}, {"name": "Mark Levy, MD", "address": "1041 N 29th St, Billings, MT 59101", "city": "Billings", "state": "Montana", "state_code": "MT", "phone": "+1 406-237-5577", "website": "https://doctors.intermountainhealth.org/provider/Mark%2520Levy/2485165%3Futm_campaign%3Dgmb%26utm_medium%3Dorganic%26utm_source%3Dlocal", "rating": 5, "reviews": 2, "place_id": "ChIJk4wtpNl7SFMRUMQNVWk_D-k", "latitude": 45.7914912, "longitude": -108.51551, "subtypes": "Neurosurgeon"}, {"name": "Morone Michael A MD", "address": "2800 10th Ave N, Billings, MT 59101", "city": "Billings", "state": "Montana", "state_code": "MT", "phone": "+1 406-238-2500", "website": "", "rating": "", "reviews": "", "place_id": "ChIJbXaP3D17SFMRg3XxJRbKkUo", "latitude": 45.7892816, "longitude": -108.5138781, "subtypes": "Neurologist"}, {"name": "Dr. Tyler Leigh, MD", "address": "801 N 29th St, Billings, MT 59101", "city": "Billings", "state": "Montana", "state_code": "MT", "phone": "+1 406-238-2500", "website": "http://www.billingsclinic.com/", "rating": "", "reviews": "", "place_id": "ChIJBR9OADx7SFMRv1LpSJGyRFg", "latitude": 45.7879047, "longitude": -108.5124975, "subtypes": "Neurologist"}, {"name": "Qaiser Toqeer, MD", "address": "1233 N 30th St, Billings, MT 59101", "city": "Billings", "state": "Montana", "state_code": "MT", "phone": "+1 406-237-5577", "website": "https://connect.intermountainhealth.org/virtual-care%3Futm_campaign%3Dgmb%26utm_source%3Dlocal", "rating": "", "reviews": "", "place_id": "ChIJjxx7j3x7SFMRyGzF4RtWiQc", "latitude": 45.79348419999999, "longitude": -108.5187094, "subtypes": "Neurologist"}, {"name": "Venkataramana Anita B MD", "address": "2800 10th Ave S, Billings, MT 59101", "city": "Billings", "state": "Montana", "state_code": "MT", "phone": "+1 406-657-4000", "website": "http://www.billingsclinic.com/", "rating": "", "reviews": "", "place_id": "ChIJWdSfjM1kSFMRbRZNd5p6g88", "latitude": 45.7716152, "longitude": -108.4956237, "subtypes": "Neurologist"}, {"name": "Dr. Dale M. Peterson, MD", "address": "2825 8th Ave N, Billings, MT 59101", "city": "Billings", "state": "Montana", "state_code": "MT", "phone": "+1 877-750-4445", "website": "http://www.billingsclinic.com/", "rating": "", "reviews": "", "place_id": "ChIJQ8KMqz57SFMR5vH9Vd14SGY", "latitude": 45.7879843, "longitude": -108.5123914, "subtypes": "Neurologist"}, {"name": "Michael J. Bradshaw, MD", "address": "1233 N 30th St, Billings, MT 59101", "city": "Billings", "state": "Montana", "state_code": "MT", "phone": "+1 406-237-3850", "website": "https://connect.intermountainhealth.org/virtual-care%3Futm_campaign%3Dgmb%26utm_source%3Dlocal", "rating": "", "reviews": "", "place_id": "ChIJOaxOWd97SFMRzD9PRTgkSK8", "latitude": 45.7934841, "longitude": -108.5187094, "subtypes": "Neurologist"}, {"name": "Vance Fredrickson", "address": "801 N 29th St, Billings, MT 591010905", "city": "Billings", "state": "Montana", "state_code": "MT", "phone": "+1 406-238-2500", "website": "https://providers.billingsclinic.com/provider/vance-l-fredrickson/2068323", "rating": 5, "reviews": 3, "place_id": "ChIJvUZzAzx7SFMRq8ntizlY-ag", "latitude": 45.7877894, "longitude": -108.5125865, "subtypes": "Neurosurgeon"}, {"name": "Mary D Gaddy - MD - Billings Clinic", "address": "2800 10th Ave N, Billings, MT 59101", "city": "Billings", "state": "Montana", "state_code": "MT", "phone": "+1 406-238-2500", "website": "https://providers.billingsclinic.com/provider/mary-d-gaddy/2052030%3Futm_source%3Dgmb-providers%26utm_campaign%3Dlocal-listings%26utm_medium%3D1982716551", "rating": "", "reviews": "", "place_id": "ChIJQ8KMqz57SFMR33M_X7S6v9U", "latitude": 45.78953689999999, "longitude": -108.5129947, "subtypes": "Neurologist"}, {"name": "Dr. Marcus S. Wheeler", "address": "202 Conway Dr, Kalispell, MT 59901", "city": "Kalispell", "state": "Montana", "state_code": "MT", "phone": "+1 406-758-7490", "website": "https://www.logan.org/provider/marcus-wheeler/", "rating": 3, "reviews": 18, "place_id": "ChIJZ7Dp-XNaZlMRYGPIKfUvlrY", "latitude": 48.2131488, "longitude": -114.3272764, "subtypes": "Neurologist"}, {"name": "Kurt Lindsay", "address": "310 Sunnyview Ln, Kalispell, MT 599013129", "city": "Kalispell", "state": "Montana", "state_code": "MT", "phone": "", "website": "", "rating": 5, "reviews": 2, "place_id": "ChIJ9cQVW55QZlMRSACOxcMa5aE", "latitude": 48.2147675, "longitude": -114.3236774, "subtypes": "Neurologist"}, {"name": "Donald Stone", "address": "310 Sunnyview Ln, Kalispell, MT 599013129", "city": "Kalispell", "state": "Montana", "state_code": "MT", "phone": "", "website": "", "rating": 4, "reviews": 1, "place_id": "ChIJ9cQVW55QZlMRHh-1VAJXrS4", "latitude": 48.2147675, "longitude": -114.3236774, "subtypes": "Neurologist"}, {"name": "Dr. Kristin A. Yandora, DO", "address": "200 Commons Way, Kalispell, MT 59901", "city": "Kalispell", "state": "Montana", "state_code": "MT", "phone": "+1 406-752-5095", "website": "", "rating": 3.7, "reviews": 3, "place_id": "ChIJ4b_wVHFaZlMRCLKwKybNcGU", "latitude": 48.22136649999999, "longitude": -114.327885, "subtypes": "Neurologist"}, {"name": "Kurt Lindsay", "address": "200 Commons Way C, Kalispell, MT 59901", "city": "Kalispell", "state": "Montana", "state_code": "MT", "phone": "+1 406-752-5095", "website": "https://www.logan.org/provider/kurt-lindsay/", "rating": 2.3, "reviews": 3, "place_id": "ChIJ7R7E-XNaZlMRlHqOxrLCWtA", "latitude": 48.2213859, "longitude": -114.3278721, "subtypes": "Neurologist"}, {"name": "Melanie Klawiter", "address": "200 Commons Way C, Kalispell, MT 59901", "city": "Kalispell", "state": "Montana", "state_code": "MT", "phone": "+1 406-731-8888", "website": "", "rating": 3, "reviews": 2, "place_id": "ChIJ7R7E-XNaZlMRqYJvwf2GYd4", "latitude": 48.2213859, "longitude": -114.3278721, "subtypes": "Neurologist"}, {"name": "Joshua Krass, D.O., FACOS", "address": "200 Commons Way, Kalispell, MT 59901", "city": "Kalispell", "state": "Montana", "state_code": "MT", "phone": "+1 406-752-5170", "website": "https://www.logan.org/provider/joshua-krass/", "rating": 4.7, "reviews": 15, "place_id": "ChIJi3_EfwjJJIgRe_oQg0Y38b8", "latitude": 48.221364, "longitude": -114.3277874, "subtypes": "Neurosurgeon"}, {"name": "Kelly Schmidt", "address": "202 Conway Dr, Kalispell, MT 59901", "city": "Kalispell", "state": "Montana", "state_code": "MT", "phone": "+1 406-758-7490", "website": "https://www.logan.org/provider/kelly-schmidt/", "rating": 3, "reviews": 8, "place_id": "ChIJ6RjP-XNaZlMRH0wlLkg4R_E", "latitude": 48.2130367, "longitude": -114.3270071, "subtypes": "Neurosurgeon"}, {"name": "Dr. Marcus Wheeler", "address": "200 Commons Way C, Kalispell, MT 59901", "city": "Kalispell", "state": "Montana", "state_code": "MT", "phone": "+1 406-752-5095", "website": "https://www.logan.org/provider/marcus-wheeler/", "rating": "", "reviews": "", "place_id": "ChIJ7R7E-XNaZlMRLw-Z4k_maeo", "latitude": 48.2213859, "longitude": -114.3278721, "subtypes": "Neurologist"}, {"name": "Origitano Thomas C MD", "address": "200 Commons Way #B, Kalispell, MT 59901", "city": "Kalispell", "state": "Montana", "state_code": "MT", "phone": "+1 406-752-5170", "website": "", "rating": 3.5, "reviews": 11, "place_id": "ChIJtZGQ9HVaZlMRyocR5f3GyGw", "latitude": 48.22136649999999, "longitude": -114.327885, "subtypes": "Neurosurgeon"}, {"name": "Dr. Joseph Sramek", "address": "200 Commons Way, Kalispell, MT 59901", "city": "Kalispell", "state": "Montana", "state_code": "MT", "phone": "+1 406-752-5170", "website": "https://www.logan.org/provider/joseph-sramek/", "rating": 4.5, "reviews": 4, "place_id": "ChIJZ7Dp-XNaZlMRduM_XD6KdzY", "latitude": 48.2214104, "longitude": -114.3279058, "subtypes": "Neurosurgeon"}, {"name": "Robert Schimpff, MD.", "address": "202 Conway Dr # 200, Kalispell, MT 59901", "city": "Kalispell", "state": "Montana", "state_code": "MT", "phone": "+1 406-752-8433", "website": "", "rating": "", "reviews": "", "place_id": "ChIJQw8mgZ9QZlMR8ybRlMlwKis", "latitude": 48.2130113, "longitude": -114.3270402, "subtypes": "Neurologist"}, {"name": "Dr. Kristin A. Yandora, DO", "address": "202 Conway Dr # 200, Kalispell, MT 59901", "city": "Kalispell", "state": "Montana", "state_code": "MT", "phone": "+1 406-751-5666", "website": "", "rating": "", "reviews": "", "place_id": "ChIJQw8mgZ9QZlMR2wwrzdKozL8", "latitude": 48.2131488, "longitude": -114.3272764, "subtypes": "Neurologist"}, {"name": "Gus Varnavas, MD", "address": "305 W Pennsylvania St, Anaconda, MT 59711", "city": "Anaconda", "state": "Montana", "state_code": "MT", "phone": "+1 855-260-2225", "website": "", "rating": 3, "reviews": 6, "place_id": "ChIJDa6MuciQW1MReNM5sBayxrM", "latitude": 46.1325635, "longitude": -112.955029, "subtypes": "Neurosurgeon"}, {"name": "Dr. Shawn M. Smith, MD", "address": "435 S Crystal St, Butte, MT 59701", "city": "Butte", "state": "Montana", "state_code": "MT", "phone": "+1 406-496-3600", "website": "", "rating": "", "reviews": "", "place_id": "ChIJdTLFtTQIW1MRkesT-7mMmNk", "latitude": 46.0085568, "longitude": -112.545619, "subtypes": "Neurologist"}, {"name": "Quenemoen Lowell MD", "address": "2600 Wilson St, Miles City, MT 59301", "city": "Miles City", "state": "Montana", "state_code": "MT", "phone": "+1 406-233-2600", "website": "", "rating": "", "reviews": "", "place_id": "ChIJGUZX8px2OlMRW4mv5Gg8caY", "latitude": 46.395298, "longitude": -105.8281815, "subtypes": "Neurologist"}, {"name": "Stephen S. Campbell, M.D.", "address": "6 13th Ave E, Polson, MT 59860", "city": "Polson", "state": "Montana", "state_code": "MT", "phone": "+1 406-883-5680", "website": "https://www.providence.org/doctors/neurosurgery/mt/polson/stephen-campbell-1174535132%3Fls%3Dprovider%26y_source%3D1_NDQxMzcyMzktNzE1LWxvY2F0aW9uLndlYnNpdGU%253D", "rating": "", "reviews": "", "place_id": "ChIJXXnpbj1zZ1MRmJ53rV85Ct4", "latitude": 47.6822197, "longitude": -114.1624467, "subtypes": "Neurosurgeon"}, {"name": "Deborah Dover, MD", "address": "401 15th Ave S #101, Great Falls, MT 59405", "city": "Great Falls", "state": "Montana", "state_code": "MT", "phone": "+1 406-315-5950", "website": "http://atlasneurology.us/", "rating": 3, "reviews": 2, "place_id": "ChIJMSS7zdo3QlMR7rkaTxRwtrA", "latitude": 47.489245, "longitude": -111.2996609, "subtypes": "Neurologist"}, {"name": "Dr. John G. Van Gilder, MD", "address": "401 15th Ave S #108, Great Falls, MT 59405", "city": "Great Falls", "state": "Montana", "state_code": "MT", "phone": "+1 406-731-8387", "website": "https://www.benefis.org/find-a-provider/profile/%3Fid%3D333", "rating": 3.9, "reviews": 16, "place_id": "ChIJZTiLO9s3QlMRgFUMVFSSO4A", "latitude": 47.4895173, "longitude": -111.3003363, "subtypes": "Neurosurgeon"}, {"name": "Brandvold Benny MD", "address": "1401 25th St S, Great Falls, MT 59405", "city": "Great Falls", "state": "Montana", "state_code": "MT", "phone": "+1 406-731-8387", "website": "http://www.benefis.org/", "rating": 4, "reviews": 4, "place_id": "ChIJedm-E6k3QlMRimmwMTdnkJ8", "latitude": 47.49086699999999, "longitude": -111.263313, "subtypes": "Neurosurgeon"}, {"name": "Dr. Melanie A. Klawiter, MD", "address": "1101 26th St S, Great Falls, MT 59405", "city": "Great Falls", "state": "Montana", "state_code": "MT", "phone": "+1 406-455-5000", "website": "http://www.benefis.org/", "rating": 1, "reviews": 2, "place_id": "ChIJSThhxqg3QlMRfLBLNItvcGM", "latitude": 47.492031, "longitude": -111.260867, "subtypes": "Neurologist"}, {"name": "Dale Schaefer, M.D", "address": "1300 28th St S STE 7, Great Falls, MT 59405", "city": "Great Falls", "state": "Montana", "state_code": "MT", "phone": "+1 406-454-0375", "website": "", "rating": 3.4, "reviews": 8, "place_id": "ChIJhd6426g3QlMRaZMG1KBwqIY", "latitude": 47.4915086, "longitude": -111.2605164, "subtypes": "Neurosurgeon"}, {"name": "Joshua A Knappenberger, MD", "address": "931 Highland Blvd #3210, Bozeman, MT 59715", "city": "Bozeman", "state": "Montana", "state_code": "MT", "phone": "+1 406-414-2410", "website": "http://www.bozemanhealth.org/", "rating": 5, "reviews": 5, "place_id": "ChIJh0WYQ_JERVMRpP2Cp_4Uh1w", "latitude": 45.6690421, "longitude": -111.0190464, "subtypes": "Neurologist"}, {"name": "Bozeman Health Neuroscience Center: Wiley, James B PA-C", "address": "931 Highland Blvd #3210, Bozeman, MT 59715", "city": "Bozeman", "state": "Montana", "state_code": "MT", "phone": "+1 406-414-2410", "website": "http://www.bozemanhealth.org/", "rating": 3.6, "reviews": 5, "place_id": "ChIJDWo18fFERVMRPc8RWWE6ro8", "latitude": 45.6698431, "longitude": -111.0199784, "subtypes": "Neurologist"}, {"name": "Michael A Morone - MD, PhD - Billings Clinic", "address": "801 N 29th St, Billings, MT 59101", "city": "Billings", "state": "Montana", "state_code": "MT", "phone": "+1 406-238-2500", "website": "https://providers.billingsclinic.com/provider/michael-a-morone/2068259%3Futm_source%3Dgmb-providers%26utm_campaign%3Dlocal-listings%26utm_medium%3D1407954456", "rating": 5, "reviews": 11, "place_id": "ChIJQ8KMqz57SFMRvlrm-uRetxk", "latitude": 45.7877894, "longitude": -108.5125865, "subtypes": "Neurosurgeon"}, {"name": "Spire William J MD", "address": "1233 N 30th St Allard 3, Billings, MT 59101", "city": "Billings", "state": "Montana", "state_code": "MT", "phone": "+1 406-657-7000", "website": "", "rating": 5, "reviews": 2, "place_id": "ChIJUbx4shV7SFMRx50ltaOb0DA", "latitude": 45.7934332, "longitude": -108.5190684, "subtypes": "Neurosurgeon"}, {"name": "Anthony W Roccisano - DO - Billings Clinic Miles City", "address": "2800 10th Ave N, Billings, MT 59101", "city": "Billings", "state": "Montana", "state_code": "MT", "phone": "+1 406-238-2500", "website": "https://providers.billingsclinic.com/provider/anthony-w-roccisano/2068363%3Futm_source%3Dgmb-providers%26utm_campaign%3Dlocal-listings%26utm_medium%3D2068363", "rating": 5, "reviews": 2, "place_id": "ChIJe5MlhXx6SFMRuZeZYWsoyvA", "latitude": 45.78953689999999, "longitude": -108.5129947, "subtypes": "Neurosurgeon"}, {"name": "Jamaica R Moore - PA - Billings Clinic", "address": "801 N 29th St, Billings, MT 59101", "city": "Billings", "state": "Montana", "state_code": "MT", "phone": "+1 406-238-2500", "website": "https://providers.billingsclinic.com/provider/jamaica-r-moore/2068402%3Futm_source%3Dgmb-providers%26utm_campaign%3Dlocal-listings%26utm_medium%3D1013468255", "rating": "", "reviews": "", "place_id": "ChIJjQK4Azx7SFMRdOycvTVUEyM", "latitude": 45.7877894, "longitude": -108.5125865, "subtypes": "Neurosurgeon"}, {"name": "Gauhar Chaudhary", "address": "801 N 29th St, Billings, MT 59101", "city": "Billings", "state": "Montana", "state_code": "MT", "phone": "+1 406-238-2500", "website": "https://providers.billingsclinic.com/provider/gauhar-a-chaudhary/2052169", "rating": "", "reviews": "", "place_id": "ChIJy9siGzx7SFMRFnD2mycdekc", "latitude": 45.7880093, "longitude": -108.5124602, "subtypes": "Neurologist"}, {"name": "Billings Clinic: Starr Brian L MD", "address": "801 N 27th St Unit A, Billings, MT 59101", "city": "Billings", "state": "Montana", "state_code": "MT", "phone": "+1 406-238-2500", "website": "https://www.billingsclinic.com/", "rating": "", "reviews": "", "place_id": "ChIJbXaP3D17SFMRWxqE5aXptg0", "latitude": 45.7890469, "longitude": -108.5101998, "subtypes": "Neurosurgeon"}, {"name": "Montana Neurology PLLC", "address": "2825 Fort Missoula Rd Building 1 Suite 121, Missoula, MT 59804", "city": "Missoula", "state": "Montana", "state_code": "MT", "phone": "+1 406-926-3500", "website": "http://www.mtneurology.com/", "rating": 3.1, "reviews": 34, "place_id": "ChIJRSvd6gvSXVMRVv-FYsD08pM", "latitude": 46.84708819999999, "longitude": -114.0466724, "subtypes": "Neurologist"}, {"name": "Madelyn W. Boyle, PAC", "address": "601 W Spruce St Suite J, Missoula, MT 59802", "city": "Missoula", "state": "Montana", "state_code": "MT", "phone": "+1 406-327-3350", "website": "https://www.providence.org/doctors/neurology/mt/missoula/madelyn-boyle-1457605214%3Fls%3Dprovider%26y_source%3D1_NDQxMzQyMzYtNzE1LWxvY2F0aW9uLndlYnNpdGU%253D", "rating": 4.8, "reviews": 4, "place_id": "ChIJdZ89xgvSXVMRfzWBEdUutwE", "latitude": 46.8759019, "longitude": -114.0016769, "subtypes": "Neurologist"}, {"name": "Dr. Sherry Reid", "address": "2825 Fort Missoula Rd, Missoula, MT 59804", "city": "Missoula", "state": "Montana", "state_code": "MT", "phone": "", "website": "", "rating": 5, "reviews": 1, "place_id": "ChIJVVVVBQzSXVMR-Xn_m6mMUbw", "latitude": 46.8460627, "longitude": -114.0481923, "subtypes": "Neurologist"}, {"name": "Sarah A. Slater, APRN, ARNP", "address": "601 W Spruce St Suite J, Missoula, MT 59802", "city": "Missoula", "state": "Montana", "state_code": "MT", "phone": "+1 406-327-3350", "website": "https://www.providence.org/doctors/neurology/mt/missoula/sarah-slater-1467995928%3Fls%3Dprovider%26y_source%3D1_MTA4MDk3MjQ1MC03MTUtbG9jYXRpb24ud2Vic2l0ZQ%253D%253D", "rating": 5, "reviews": 2, "place_id": "ChIJPbOmwm3PXVMRo7D6uOYmqtM", "latitude": 46.8759018, "longitude": -114.001677, "subtypes": "Neurologist"}, {"name": "Dr. Sherry A. Reid, MD", "address": "601 W Spruce St, Missoula, MT 59802", "city": "Missoula", "state": "Montana", "state_code": "MT", "phone": "+1 406-327-3350", "website": "http://montana.providence.org/", "rating": 3, "reviews": 4, "place_id": "ChIJ1VnsnIPOXVMRW3YxPXKXN1A", "latitude": 46.8759206, "longitude": -114.0017113, "subtypes": "Neurologist"}, {"name": "John D. Schaeffer, DO", "address": "601 W Spruce St Suite J, Missoula, MT 59802", "city": "Missoula", "state": "Montana", "state_code": "MT", "phone": "+1 406-327-3350", "website": "https://www.providence.org/doctors/neurology/mt/missoula/john-schaeffer-1770536872%3Fls%3Dprovider%26y_source%3D1_NDQxMzU5NjQtNzE1LWxvY2F0aW9uLndlYnNpdGU%253D", "rating": "", "reviews": "", "place_id": "ChIJAQAAAIPOXVMR5UfhNx4AuE0", "latitude": 46.8759018, "longitude": -114.001677, "subtypes": "Neurologist"}, {"name": "Wilson Lennard MD", "address": "2827 Fort Missoula Rd, Missoula, MT 59804", "city": "Missoula", "state": "Montana", "state_code": "MT", "phone": "", "website": "", "rating": 3.5, "reviews": 2, "place_id": "ChIJAevcEAzSXVMRrnM1jHmhvoM", "latitude": 46.8474613, "longitude": -114.0474077, "subtypes": "Neurologist"}, {"name": "Sarah A. Koch, MD", "address": "601 W Spruce St Suite J, Missoula, MT 59802", "city": "Missoula", "state": "Montana", "state_code": "MT", "phone": "+1 406-327-3350", "website": "https://www.providence.org/doctors/neurology/mt/missoula/sarah-koch-1043716426%3Fls%3Dprovider%26y_source%3D1_MTA5MDk0NjgwNi03MTUtbG9jYXRpb24ud2Vic2l0ZQ%253D%253D", "rating": "", "reviews": "", "place_id": "ChIJqxH8XtfPXVMReeO9jzD0dTE", "latitude": 46.8759018, "longitude": -114.001677, "subtypes": "Neurologist"}, {"name": "Montana Neurolgy", "address": "2835 Fort Missoula Rd, Missoula, MT 59804", "city": "Missoula", "state": "Montana", "state_code": "MT", "phone": "", "website": "", "rating": "", "reviews": "", "place_id": "ChIJAevcEAzSXVMR-SPF3JxSz8A", "latitude": 46.8459309, "longitude": -114.0484678, "subtypes": "Neurologist"}, {"name": "Aakriti Bertsche, MD", "address": "601 W Spruce St Suite J, Missoula, MT 59802", "city": "Missoula", "state": "Montana", "state_code": "MT", "phone": "+1 406-327-3350", "website": "https://www.providence.org/doctors/neurology/mt/missoula/aakriti-bertsche-1013438902%3Fls%3Dprovider%26y_source%3D1_MTA0MzI1MDM3Ny03MTUtbG9jYXRpb24ud2Vic2l0ZQ%253D%253D", "rating": "", "reviews": "", "place_id": "ChIJVVUVnIDOXVMR8_rLC3lmtF0", "latitude": 46.8759018, "longitude": -114.001677, "subtypes": "Neurologist"}, {"name": "David F. Slottje, MD", "address": "500 W Broadway St Suite 301, Missoula, MT 59802", "city": "Missoula", "state": "Montana", "state_code": "MT", "phone": "+1 406-728-6520", "website": "https://www.providence.org/doctors/neurosurgery/mt/missoula/david-slottje-1720353873%3Fls%3Dprovider%26y_source%3D1_MTA0NDQwMDIxNy03MTUtbG9jYXRpb24ud2Vic2l0ZQ%253D%253D", "rating": 4.2, "reviews": 5, "place_id": "ChIJW-XHlmnPXVMRm7tqv5nRJgA", "latitude": 46.8755594, "longitude": -114.0000297, "subtypes": "Neurosurgeon"}, {"name": "Jennifer R. Doty, PAC", "address": "601 W Spruce St Suite J, Missoula, MT 59802", "city": "Missoula", "state": "Montana", "state_code": "MT", "phone": "+1 406-327-3350", "website": "https://www.providence.org/doctors/neurology/mt/missoula/jennifer-doty-1295183994%3Fls%3Dprovider%26y_source%3D1_NDQxMzU2MzgtNzE1LWxvY2F0aW9uLndlYnNpdGU%253D", "rating": "", "reviews": "", "place_id": "ChIJR6sBuWrPXVMREHdlvdXqrNc", "latitude": 46.8759018, "longitude": -114.001677, "subtypes": "Neurologist"}, {"name": "Dr. Robert Velin, PHD", "address": "1610 South Ave W, Missoula, MT 59801", "city": "Missoula", "state": "Montana", "state_code": "MT", "phone": "+1 406-543-9700", "website": "http://www.mtneuro.com/", "rating": 4.8, "reviews": 15, "place_id": "ChIJ1VnsnIPOXVMRlfvJpeZ9vmo", "latitude": 46.84904479999999, "longitude": -114.0207033, "subtypes": "Neurophysiologist"}, {"name": "Kenneth C. Brewington, II, MD", "address": "500 W Broadway St Suite 301, Missoula, MT 59802", "city": "Missoula", "state": "Montana", "state_code": "MT", "phone": "+1 406-728-6520", "website": "https://www.providence.org/doctors/neurosurgery/mt/missoula/kenneth-brewington-1154315695%3Fls%3Dprovider%26y_source%3D1_MTAzODAzNzgwMy03MTUtbG9jYXRpb24ud2Vic2l0ZQ%253D%253D", "rating": 4.2, "reviews": 10, "place_id": "ChIJlY2-e4DOXVMRTA0--rjMGA0", "latitude": 46.8755594, "longitude": -114.0000297, "subtypes": "Neurosurgeon"}, {"name": "Stephen S. Campbell, MD", "address": "500 W Broadway St Suite 301, Missoula, MT 59802", "city": "Missoula", "state": "Montana", "state_code": "MT", "phone": "+1 406-728-6520", "website": "https://www.providence.org/doctors/neurosurgery/mt/missoula/stephen-campbell-1174535132%3Fls%3Dprovider%26y_source%3D1_NDQxMzcyMzktNzE1LWxvY2F0aW9uLndlYnNpdGU%253D", "rating": "", "reviews": "", "place_id": "ChIJOa_W0UTPXVMR_dLwlwOkd_o", "latitude": 46.8755594, "longitude": -114.0000297, "subtypes": "Neurosurgeon"}, {"name": "Jennifer J. Simon, APRN", "address": "500 W Broadway St Suite 301, Missoula, MT 59802", "city": "Missoula", "state": "Montana", "state_code": "MT", "phone": "+1 406-728-6520", "website": "https://www.providence.org/doctors/neurosurgery/mt/missoula/jennifer-simon-1992161772%3Fls%3Dprovider%26y_source%3D1_NDQxMzM5NDAtNzE1LWxvY2F0aW9uLndlYnNpdGU%253D", "rating": "", "reviews": "", "place_id": "ChIJr47vrp3PXVMRJ5CWvwT8m-s", "latitude": 46.8755594, "longitude": -114.0000297, "subtypes": "Neurosurgeon"}, {"name": "Aakriti Bertsche", "address": "500 W Broadway St, Missoula, MT 598024008", "city": "Missoula", "state": "Montana", "state_code": "MT", "phone": "+1 406-543-7271", "website": "", "rating": "", "reviews": "", "place_id": "ChIJ_Yuri4DOXVMRXWxpXAiSaK0", "latitude": 46.8755594, "longitude": -114.0000297, "subtypes": "Neurologist"}, {"name": "Dr. Natalie Allman", "address": "500 W Broadway St, Missoula, MT 59802", "city": "Missoula", "state": "Montana", "state_code": "MT", "phone": "+1 406-327-1900", "website": "", "rating": "", "reviews": "", "place_id": "ChIJ_Yuri4DOXVMRLthbFNrDfEE", "latitude": 46.8755594, "longitude": -114.0000297, "subtypes": "Neurologist"}, {"name": "Abby Kunz, MD - Pediatric Neurology", "address": "2835 Fort Missoula Rd # 301, Missoula, MT 59804", "city": "Missoula", "state": "Montana", "state_code": "MT", "phone": "+1 406-327-4279", "website": "https://www.communitychildrens.org/providers/abby-kunz-md/", "rating": "", "reviews": "", "place_id": "ChIJu1CT8qzTXVMRcN7hdno7Kdg", "latitude": 46.8460215, "longitude": -114.0485352, "subtypes": "Pediatric neurologist"}, {"name": "Imran Khan, MD", "address": "601 W Spruce St Suite J, Missoula, MT 59802", "city": "Missoula", "state": "Montana", "state_code": "MT", "phone": "+1 406-327-3350", "website": "https://www.providence.org/doctors/neurology/mt/missoula/imran-khan-1669728556%3Fls%3Dprovider%26y_source%3D1_MTA2MDkzMTU0OC03MTUtbG9jYXRpb24ud2Vic2l0ZQ%253D%253D", "rating": "", "reviews": "", "place_id": "ChIJVVUVnIDOXVMRfGQDydjkmnQ", "latitude": 46.8759018, "longitude": -114.001677, "subtypes": "Neurologist"}, {"name": "David K. Lorance, MD", "address": "435 S Crystal St # 300, Butte, MT 59701", "city": "Butte", "state": "Montana", "state_code": "MT", "phone": "+1 406-496-3600", "website": "https://doctors.intermountainhealth.org/provider/David%2520K.%2520Lorance/2622944%3Futm_campaign%3Dgmb%26utm_medium%3Dorganic%26utm_source%3Dlocal", "rating": "", "reviews": "", "place_id": "ChIJV5lshhkJW1MRQwHd05BzQUM", "latitude": 46.0085568, "longitude": -112.545619, "subtypes": "Neurologist"}, {"name": "Dr. Thomas D. Mulgrew, MD", "address": "2525 E Broadway St, Helena, MT 59601", "city": "Helena", "state": "Montana", "state_code": "MT", "phone": "+1 406-422-4128", "website": "", "rating": 2, "reviews": 4, "place_id": "ChIJD4yuc5hVQ1MRCJ_spub84hU", "latitude": 46.5836277, "longitude": -111.9949521, "subtypes": "Neurologist"}, {"name": "English James F", "address": "7 W 6th Ave #4, Helena, MT 59601", "city": "Helena", "state": "Montana", "state_code": "MT", "phone": "+1 406-457-5488", "website": "", "rating": 1, "reviews": 1, "place_id": "ChIJnUb-lhhVQ1MRRytt3xYnGAE", "latitude": 46.588822, "longitude": -112.0388975, "subtypes": "Neurophysiologist"}, {"name": "Alexander Coralyn J MD", "address": "2755 Colonial Dr, Helena, MT 59601", "city": "Helena", "state": "Montana", "state_code": "MT", "phone": "+1 406-444-7500", "website": "http://shodair.org/", "rating": "", "reviews": "", "place_id": "ChIJuXIe05lVQ1MR7nmsGs2TFiY", "latitude": 46.5823207, "longitude": -111.9890341, "subtypes": "Neurologist"}]