[{"name": "Mr. Arun Swaminathan", "address": "3802 Raynor Pkwy, Bellevue, NE 68123", "city": "Bellevue", "state": "Nebraska", "state_code": "NE", "phone": "+1 402-559-0099", "website": "", "rating": 5, "reviews": 1, "place_id": "ChIJ5x_C9ZKJk4cR7w4YU8T6gf8", "latitude": 41.1488563, "longitude": -95.971093, "subtypes": "Neurologist"}, {"name": "Dr. Elizabeth Hartman", "address": "3802 Raynor Pkwy Ste 2000, Bellevue, NE 68123", "city": "Bellevue", "state": "Nebraska", "state_code": "NE", "phone": "+1 402-559-0099", "website": "https://www.nebraskamed.com/doctors/elizabeth-ma-hartman", "rating": 5, "reviews": 1, "place_id": "ChIJ5x_C9ZKJk4cRloqNS67PeOU", "latitude": 41.1488563, "longitude": -95.971093, "subtypes": "Neurologist"}, {"name": "Dr. Erin Smith", "address": "3802 Raynor Pkwy, Bellevue, NE 68123", "city": "Bellevue", "state": "Nebraska", "state_code": "NE", "phone": "+1 402-559-0099", "website": "https://www.nebraskamed.com/doctors/erin-l-smith", "rating": 5, "reviews": 1, "place_id": "ChIJ5x_C9ZKJk4cR7Bm-qfkN70w", "latitude": 41.1488563, "longitude": -95.971093, "subtypes": "Neurologist"}, {"name": "Kiel Woodward", "address": "3802 Raynor Pkwy, Bellevue, NE 68123", "city": "Bellevue", "state": "Nebraska", "state_code": "NE", "phone": "+1 402-559-6195", "website": "", "rating": 5, "reviews": 1, "place_id": "ChIJ5x_C9ZKJk4cRZnz86PIIPKA", "latitude": 41.1488563, "longitude": -95.971093, "subtypes": "Neurologist"}, {"name": "Peter Soh", "address": "3802 Raynor Pkwy, Bellevue, NE 68123", "city": "Bellevue", "state": "Nebraska", "state_code": "NE", "phone": "+1 402-559-6195", "website": "", "rating": 5, "reviews": 1, "place_id": "ChIJ5x_C9ZKJk4cR1whJ-FRge00", "latitude": 41.1488563, "longitude": -95.971093, "subtypes": "Neurologist"}, {"name": "CHI Health Clinic Neurology (St. Francis)", "address": "908 N Howard Ave Ste 105, Grand Island, NE 68803", "city": "Grand Island", "state": "Nebraska", "state_code": "NE", "phone": "+1 308-398-8900", "website": "https://www.chihealth.com/en/services/neuro.html", "rating": 1, "reviews": 1, "place_id": "ChIJozkyijuHmYcRSVSbOLuuLpM", "latitude": 40.9272351, "longitude": -98.37043299999999, "subtypes": "Neurologist"}, {"name": "Joshua Anderson, MD", "address": "908 N Howard Ave Ste 108, Grand Island, NE 68803", "city": "Grand Island", "state": "Nebraska", "state_code": "NE", "phone": "+1 308-398-8993", "website": "https://www.chihealth.com/services/neuro/neurosurgery", "rating": 4.2, "reviews": 41, "place_id": "ChIJYwprGOiGmYcRJV0r-Egoo5Y", "latitude": 40.9271875, "longitude": -98.3704166, "subtypes": "Neurosurgeon"}, {"name": "CHI Health Clinic Neurosurgery (St. Francis)", "address": "908 N Howard Ave Ste 108, Grand Island, NE 68803", "city": "Grand Island", "state": "Nebraska", "state_code": "NE", "phone": "+1 308-398-8993", "website": "https://www.chihealth.com/services/neuro/neurosurgery", "rating": "", "reviews": "", "place_id": "ChIJte3I1siHmYcR-xFtV0FEwcQ", "latitude": 40.927163, "longitude": -98.3704569, "subtypes": "Neurosurgeon"}, {"name": "CHI Health Clinic Neurology (Midlands)", "address": "Medical Office Building One, 11109 S 84th St Ste 1820, Papillion, NE 68046", "city": "Papillion", "state": "Nebraska", "state_code": "NE", "phone": "+1 402-717-0070", "website": "https://www.chihealth.com/neuro", "rating": "", "reviews": "", "place_id": "ChIJoeQeHjOLk4cRyuCqGKIAQ0c", "latitude": 41.1359313, "longitude": -96.03995019999999, "subtypes": "Neurologist"}, {"name": "Nicole M Liebentritt, MD", "address": "8901 W Dodge Rd, Omaha, NE 68114", "city": "Omaha", "state": "Nebraska", "state_code": "NE", "phone": "+1 402-354-2000", "website": "https://providers.bestcare.org/provider/Nicole%2BM.%2BLiebentritt/2279418", "rating": 3.5, "reviews": 13, "place_id": "ChIJcyXqbfyMk4cRWlx-K_UjI6I", "latitude": 41.262412, "longitude": -96.05079719999999, "subtypes": "Neurologist"}, {"name": "Joel T Cotton, MD", "address": "8901 W Dodge Rd, Omaha, NE 68114", "city": "Omaha", "state": "Nebraska", "state_code": "NE", "phone": "+1 402-354-2000", "website": "https://providers.bestcare.org/provider/Joel%2BT.%2BCotton/1493300", "rating": 2.4, "reviews": 32, "place_id": "ChIJQ4CkpECNk4cRRnlTjsF96ew", "latitude": 41.262412, "longitude": -96.05079719999999, "subtypes": "Neurologist"}, {"name": "Karen Bremer, MD", "address": "Medical Office Building One, 11109 S 84th St Ste 1820, Papillion, NE 68046", "city": "Papillion", "state": "Nebraska", "state_code": "NE", "phone": "+1 402-717-0070", "website": "https://www.chihealth.com/neuro", "rating": 3.7, "reviews": 3, "place_id": "ChIJ602x10aOk4cRZniMZPUadBo", "latitude": 41.1357768, "longitude": -96.04033299999999, "subtypes": "Neurologist"}, {"name": "Pariwat Thaisetthawatkul, MD", "address": "110 N 175th St Ste 2600, Omaha, NE 68118", "city": "Omaha", "state": "Nebraska", "state_code": "NE", "phone": "+1 402-552-6006", "website": "https://www.nebraskamed.com/doctors/pariwat-thaisetthawatkul", "rating": 5, "reviews": 1, "place_id": "ChIJZcBAKsrxk4cRQ_4TpNtkgeA", "latitude": 41.2573583, "longitude": -96.18992519999999, "subtypes": "Neurologist"}, {"name": "Soh Headache Center, LLC", "address": "8746 Frederick St, Omaha, NE 68124", "city": "Omaha", "state": "Nebraska", "state_code": "NE", "phone": "+1 531-375-5930", "website": "https://sohheadachecenter.com/", "rating": 5, "reviews": 4, "place_id": "ChIJF-dqmXSNk4cRNktVQJzSZG0", "latitude": 41.2318825, "longitude": -96.05041879999999, "subtypes": "Neurologist"}, {"name": "Ezequiel A. Piccione, MD", "address": "110 N 175th St, Omaha, NE 68118", "city": "Omaha", "state": "Nebraska", "state_code": "NE", "phone": "+1 402-552-6006", "website": "https://www.nebraskamed.com/doctors/ezequiel-a-piccione", "rating": 3, "reviews": 2, "place_id": "ChIJc6UWKsrxk4cRbhI6ZGHaIl8", "latitude": 41.2573583, "longitude": -96.18992519999999, "subtypes": "Neurologist"}, {"name": "John D. Hain, M.D.", "address": "13616 California St Suite 100, Omaha, NE 68154", "city": "Omaha", "state": "Nebraska", "state_code": "NE", "phone": "+1 402-496-0404", "website": "https://www.nebraskaspineandpain.com/team/doctors/john-d-hain-md", "rating": 4.8, "reviews": 238, "place_id": "ChIJ80Qk023yk4cR3JoinHwA73k", "latitude": 41.2660237, "longitude": -96.12663069999999, "subtypes": "Neurosurgeon"}, {"name": "Dr. Jamison Hofer", "address": "13340 California St #201, Omaha, NE 68154", "city": "Omaha", "state": "Nebraska", "state_code": "NE", "phone": "+1 531-999-2670", "website": "https://www.nebraskaneurology.com/", "rating": 4, "reviews": 1, "place_id": "ChIJqfKj1sXzk4cRz_JWSSrC3Lk", "latitude": 41.2665668, "longitude": -96.1227547, "subtypes": "Neurologist"}, {"name": "Joseph Americo Fernandes, MD", "address": "4239 Farnam St, Omaha, NE 68131", "city": "Omaha", "state": "Nebraska", "state_code": "NE", "phone": "+1 402-552-2112", "website": "https://www.nebraskamed.com/doctors/joseph-americo-fernandes", "rating": "", "reviews": "", "place_id": "ChIJobDktXCOk4cR8rui1wcZO-E", "latitude": 41.2575168, "longitude": -95.9778824, "subtypes": "Neurologist"}, {"name": "Harris A. Frankel, MD", "address": "110 N 175th St, Omaha, NE 68118", "city": "Omaha", "state": "Nebraska", "state_code": "NE", "phone": "+1 402-552-6006", "website": "https://www.nebraskamed.com/doctors/harris-a-frankel", "rating": "", "reviews": "", "place_id": "ChIJZcBAKsrxk4cR38ZwpNx5l08", "latitude": 41.2573583, "longitude": -96.18992519999999, "subtypes": "Neurologist"}, {"name": "Dr. Rana K. Zabad, MD", "address": "4242 Farnam St, Omaha, NE 68131", "city": "Omaha", "state": "Nebraska", "state_code": "NE", "phone": "+1 402-559-8600", "website": "https://rymap.org/business/dr-rana-k-zabad-md-g1yusv", "rating": 4.4, "reviews": 13, "place_id": "ChIJRcdW0nCOk4cRiAqYjaQY3Pg", "latitude": 41.2581491, "longitude": -95.9779586, "subtypes": "Neurologist"}, {"name": "CHI Health Clinic Neurology (CUMC - Bergan Mercy)", "address": "7710 Mercy Rd Ste 3000, Omaha, NE 68124", "city": "Omaha", "state": "Nebraska", "state_code": "NE", "phone": "+1 402-717-0070", "website": "https://www.chihealth.com/en/location-search/location-details.location.669aa5ff-34be-474c-a6a9-97bd51d334a0.html", "rating": 3, "reviews": 5, "place_id": "ChIJacOSAUeOk4cRQHep4uBLgpo", "latitude": 41.238614, "longitude": -96.03280869999999, "subtypes": "Neurologist"}, {"name": "David A Franco, MD", "address": "8901 W Dodge Rd, Omaha, NE 68114", "city": "Omaha", "state": "Nebraska", "state_code": "NE", "phone": "+1 402-354-2000", "website": "https://providers.bestcare.org/provider/David%2BA.%2BFranco/1493742", "rating": 4.6, "reviews": 11, "place_id": "ChIJQ4CkpECNk4cRW0QV4d98MMM", "latitude": 41.262412, "longitude": -96.05079719999999, "subtypes": "Neurologist"}, {"name": "Annaliese Bosco, MD", "address": "6901 N 72nd St Ste 2400, Omaha, NE 68122", "city": "Omaha", "state": "Nebraska", "state_code": "NE", "phone": "+1 402-717-0070", "website": "https://www.chihealth.com/en/find-a-provider/annaliese-bosco-md.html", "rating": 4.5, "reviews": 15, "place_id": "ChIJR4vingaTk4cRL5rrOHeKjg8", "latitude": 41.3219263, "longitude": -96.0208384, "subtypes": "Neurologist"}, {"name": "Ahmed M. Awad, M.D.", "address": "111 N 84th St, Omaha, NE 68114", "city": "Omaha", "state": "Nebraska", "state_code": "NE", "phone": "+1 402-955-5372", "website": "https://www.childrensnebraska.org/provider/ahmed-awad-mbbch/", "rating": 4.8, "reviews": 6, "place_id": "ChIJN3xVRmqNk4cRnJs4zi3zoqU", "latitude": 41.26065819999999, "longitude": -96.04242099999999, "subtypes": "Neurologist"}, {"name": "Rhonda R. Wright M.D.", "address": "111 N 84th St, Omaha, NE 68114", "city": "Omaha", "state": "Nebraska", "state_code": "NE", "phone": "+1 402-955-5372", "website": "https://www.childrensnebraska.org/provider/3215931/rhonda-r-wright-md%3Futm_campaign%3Dgmb%26utm_medium%3Dorganic%26utm_source%3Dlocal", "rating": 5, "reviews": 17, "place_id": "ChIJb4-LfBSNk4cRSQLpdV6GLrE", "latitude": 41.26065819999999, "longitude": -96.04242099999999, "subtypes": "Neurologist"}, {"name": "Evanthia Bernitsas, MD", "address": "6901 N 72nd St Ste 2400, Omaha, NE 68122", "city": "Omaha", "state": "Nebraska", "state_code": "NE", "phone": "+1 402-717-0070", "website": "https://providers.chihealth.com/p/evanthia-bernitsas-1528270808", "rating": 4.6, "reviews": 7, "place_id": "ChIJ0Q9GVsbSJIgRq3Nn5oZSw14", "latitude": 41.3219263, "longitude": -96.0208384, "subtypes": "Neurologist"}, {"name": "Chad A. Whyte, MD", "address": "13340 California St #201, Omaha, NE 68154", "city": "Omaha", "state": "Nebraska", "state_code": "NE", "phone": "+1 531-999-2670", "website": "https://www.nebraskaneurology.com/", "rating": 4.6, "reviews": 22, "place_id": "ChIJRcdW0nCOk4cRG04h0exJOdg", "latitude": 41.2665668, "longitude": -96.1227547, "subtypes": "Neurologist"}, {"name": "Prasanna Gangishetti, MBBS", "address": "111 N 84th St, Omaha, NE 68114", "city": "Omaha", "state": "Nebraska", "state_code": "NE", "phone": "+1 402-955-5372", "website": "https://www.childrensnebraska.org/provider/3215936/prasanna-k-gangishetti-mbbs", "rating": 5, "reviews": 9, "place_id": "ChIJy9Olr1qNk4cRhP0WECjPU2U", "latitude": 41.26065819999999, "longitude": -96.04242099999999, "subtypes": "Neurologist"}, {"name": "CHI Health Clinic Neurosurgery (CUMC - Bergan Mercy)", "address": "Medical Building One, 7710 Mercy Rd #224, Omaha, NE 68124", "city": "Omaha", "state": "Nebraska", "state_code": "NE", "phone": "+1 402-717-0880", "website": "https://www.chihealth.com/services/neuro/neurosurgery", "rating": 1, "reviews": 1, "place_id": "ChIJacOSAUeOk4cRUyNdFKgo1cA", "latitude": 41.2396537, "longitude": -96.0307634, "subtypes": "Neurologist"}, {"name": "Jordan P Lacy, MD", "address": "8005 Farnam Dr #305, Omaha, NE 68114", "city": "Omaha", "state": "Nebraska", "state_code": "NE", "phone": "+1 402-390-4111", "website": "https://mdwestone.com/doctors/dr-lacy/", "rating": 4.9, "reviews": 119, "place_id": "ChIJRe5lKLuNk4cRpZwCgPVcIDg", "latitude": 41.2576541, "longitude": -96.0376869, "subtypes": "Neurosurgeon"}, {"name": "Karen Bremer, MD", "address": "7710 Mercy Rd Suite 3000, Omaha, NE 68124", "city": "Omaha", "state": "Nebraska", "state_code": "NE", "phone": "+1 402-717-0070", "website": "https://www.chihealth.com/en/location-search/location-details.location.669aa5ff-34be-474c-a6a9-97bd51d334a0.html", "rating": 4.6, "reviews": 14, "place_id": "ChIJ-2o3EZSNk4cRpunp0LGKyjQ", "latitude": 41.23963759999999, "longitude": -96.03082479999999, "subtypes": "Neurologist"}, {"name": "Dr. Scott H. Goodman, MD", "address": "13340 California St #201, Omaha, NE 68154", "city": "Omaha", "state": "Nebraska", "state_code": "NE", "phone": "+1 531-999-2670", "website": "https://www.nebraskaneurology.com/", "rating": 4.9, "reviews": 8, "place_id": "ChIJRcdW0nCOk4cR6GdsxgupEcg", "latitude": 41.2665668, "longitude": -96.1227547, "subtypes": "Neurologist"}, {"name": "Dr. Pamela M. Santamaria, MD", "address": "13340 California St #201, Omaha, NE 68154", "city": "Omaha", "state": "Nebraska", "state_code": "NE", "phone": "+1 531-999-2670", "website": "http://www.nebraskaneurology.com/", "rating": 4.5, "reviews": 8, "place_id": "ChIJRcdW0nCOk4cR4KJxGC2621A", "latitude": 41.2665668, "longitude": -96.1227547, "subtypes": "Neurologist"}, {"name": "Karlee Jewell, APRN-NP, DNP", "address": "8200 Dodge St, Omaha, NE 68114", "city": "Omaha", "state": "Nebraska", "state_code": "NE", "phone": "+1 402-955-5380", "website": "https://www.childrensnebraska.org/provider/3215710/karlee-a-jewell-aprnnp-dnp", "rating": 5, "reviews": 9, "place_id": "ChIJN3f47gqNk4cRK7x4siKQgTY", "latitude": 41.260315, "longitude": -96.0413444, "subtypes": "Neurologist"}, {"name": "CHI Health Clinic Neurology (University Campus)", "address": "2412 Cuming St, Omaha, NE 68131", "city": "Omaha", "state": "Nebraska", "state_code": "NE", "phone": "+1 402-717-0070", "website": "https://providers.chihealth.com/l/chi-health-clinic-neurology-university-campus-532", "rating": 2, "reviews": 1, "place_id": "ChIJM3Sve--Pk4cRQKLuegLVnw8", "latitude": 41.2689802, "longitude": -95.9485919, "subtypes": "Neurologist"}, {"name": "Dr. Jonathan Moravek", "address": "7100 W Center Rd, Omaha, NE 68106", "city": "Omaha", "state": "Nebraska", "state_code": "NE", "phone": "+1 402-506-9590", "website": "https://www.nebraskaneurology.com/staff/", "rating": 5, "reviews": 1, "place_id": "ChIJv1_AJVeMk4cR91ZhV4hpegw", "latitude": 41.236131, "longitude": -96.0210367, "subtypes": "Neurologist"}, {"name": "Moravek Jonathan MD", "address": "13340 California St #201, Omaha, NE 68154", "city": "Omaha", "state": "Nebraska", "state_code": "NE", "phone": "+1 531-999-2670", "website": "http://nebraskaneurology.com/", "rating": 4.2, "reviews": 5, "place_id": "ChIJxaZVzXCOk4cRzYOxX4xBFtw", "latitude": 41.2665668, "longitude": -96.1227547, "subtypes": "Neurologist"}, {"name": "Mary C. Rickard M.D.", "address": "111 N 84th St, Omaha, NE 68114", "city": "Omaha", "state": "Nebraska", "state_code": "NE", "phone": "+1 402-955-5372", "website": "https://www.childrensnebraska.org/provider/3216029/mary-c-rickard-md%3Futm_campaign%3Dgmb%26utm_medium%3Dorganic%26utm_source%3Dlocal", "rating": 5, "reviews": 14, "place_id": "ChIJvWIxXh6Nk4cRk_wwJszXu8I", "latitude": 41.26065819999999, "longitude": -96.04242099999999, "subtypes": "Neurologist"}, {"name": "Laura Danielson, MD", "address": "6901 N 72nd St Ste 2400, Omaha, NE 68122", "city": "Omaha", "state": "Nebraska", "state_code": "NE", "phone": "+1 402-717-0070", "website": "https://www.chihealth.com/en/find-a-provider/laura-danielson-md.html", "rating": 5, "reviews": 8, "place_id": "ChIJSzdglnmTk4cRwB7yzMqH_kY", "latitude": 41.3219263, "longitude": -96.0208384, "subtypes": "Neurologist"}, {"name": "Richard Andrews", "address": "11930 Arbor St STE 200, Omaha, NE 68144", "city": "Omaha", "state": "Nebraska", "state_code": "NE", "phone": "+1 402-697-1601", "website": "", "rating": 4.2, "reviews": 5, "place_id": "ChIJnUKZ0Rzzk4cR3YbIIYoSV0A", "latitude": 41.23690999999999, "longitude": -96.09930159999999, "subtypes": "Neurologist"}, {"name": "Regional West Physicians Clinic-Neurology", "address": "3911 Ave. B #2300, Scottsbluff, NE 69361", "city": "Scottsbluff", "state": "Nebraska", "state_code": "NE", "phone": "+1 308-630-2030", "website": "https://www.rwhs.org/services/brain-spine/neurology", "rating": 2, "reviews": 4, "place_id": "ChIJc3Z6mthRZYcRtv8Hd_7acNw", "latitude": 41.886696, "longitude": -103.6640864, "subtypes": "Neurologist"}, {"name": "Regional West Physicians Clinic-Neurosurgery & Spine Center", "address": "2 W 42nd St #2100, Scottsbluff, NE 69361", "city": "Scottsbluff", "state": "Nebraska", "state_code": "NE", "phone": "+1 308-630-1947", "website": "http://www.physiciansclinic.net/", "rating": 3.5, "reviews": 8, "place_id": "ChIJ3UvUVt9RZYcRtxwcYZ9RQCA", "latitude": 41.8869116, "longitude": -103.6644925, "subtypes": "Neurosurgeon"}, {"name": "Katrina Pack", "address": "3911 Ave. B #2300, Scottsbluff, NE 693614617", "city": "Scottsbluff", "state": "Nebraska", "state_code": "NE", "phone": "+1 308-630-2992", "website": "https://www.rwhs.org/provider/katrina-pack", "rating": 3, "reviews": 2, "place_id": "ChIJEwPwI99RZYcRAR4mtAVVT3g", "latitude": 41.886696, "longitude": -103.6640864, "subtypes": "Neurologist"}, {"name": "Yvonne Rollins, MD", "address": "2 W 42nd St #2300, Scottsbluff, NE 69361", "city": "Scottsbluff", "state": "Nebraska", "state_code": "NE", "phone": "+1 308-630-2030", "website": "http://www.physiciansclinic.net/", "rating": 5, "reviews": 1, "place_id": "ChIJSQko0NhRZYcROteWn7wmC0o", "latitude": 41.888425, "longitude": -103.664686, "subtypes": "Neurologist"}, {"name": "Sona Shah, MBBS", "address": "6901 N 72nd St Ste 2400, Omaha, NE 68122", "city": "Omaha", "state": "Nebraska", "state_code": "NE", "phone": "+1 402-717-0070", "website": "https://www.chihealth.com/en/find-a-provider/sona-shah-mbbs.html", "rating": 5, "reviews": 8, "place_id": "ChIJYah32lCTk4cR6-aO0oXDEoQ", "latitude": 41.3219263, "longitude": -96.0208384, "subtypes": "Neurologist"}, {"name": "Dr. Elizabeth Hartman", "address": "4242 Farnam St #247, Omaha, NE 68131", "city": "Omaha", "state": "Nebraska", "state_code": "NE", "phone": "+1 402-552-6094", "website": "https://www.nebraskamed.com/doctors/elizabeth-ma-hartman", "rating": 2.3, "reviews": 3, "place_id": "ChIJLXSsMneOk4cRZwaSSPCQUF0", "latitude": 41.2581338, "longitude": -95.97798449999999, "subtypes": "Neurologist"}, {"name": "Amy M. Hellman, MD", "address": "4242 Farnam St #650, Omaha, NE 68131", "city": "Omaha", "state": "Nebraska", "state_code": "NE", "phone": "+1 402-559-8600", "website": "https://www.nebraskamed.com/doctors/amy-m-hellman", "rating": 5, "reviews": 4, "place_id": "ChIJRcdW0nCOk4cRp7xr6tbgVtc", "latitude": 41.2581186, "longitude": -95.9780104, "subtypes": "Neurologist"}, {"name": "Elizabeth M.A. Hartman, MD", "address": "110 N 175th St, Omaha, NE 68118", "city": "Omaha", "state": "Nebraska", "state_code": "NE", "phone": "+1 402-552-6006", "website": "", "rating": 5, "reviews": 3, "place_id": "ChIJc6UWKsrxk4cRIrn6JS1B-cU", "latitude": 41.2573583, "longitude": -96.18992519999999, "subtypes": "Neurologist"}, {"name": "Daniel L. Murman, MD", "address": "4242 Farnam St Suite #650, Omaha, NE 68131", "city": "Omaha", "state": "Nebraska", "state_code": "NE", "phone": "+1 402-559-8600", "website": "https://www.nebraskamed.com/doctors/daniel-l-murman", "rating": 4.8, "reviews": 5, "place_id": "ChIJRcdW0nCOk4cRYXTT8m1Zx24", "latitude": 41.2581186, "longitude": -95.9780104, "subtypes": "Neurologist"}, {"name": "Dr. Mac Mclaughlin, MD", "address": "4242 Farnam St, Omaha, NE 68131", "city": "Omaha", "state": "Nebraska", "state_code": "NE", "phone": "+1 402-559-8600", "website": "", "rating": 5, "reviews": 1, "place_id": "ChIJRcdW0nCOk4cRpwrwkZUMw9U", "latitude": 41.2581186, "longitude": -95.9780104, "subtypes": "Neurologist"}, {"name": "Sookyong Koh, MD, PhD", "address": "111 N 84th St, Omaha, NE 68114", "city": "Omaha", "state": "Nebraska", "state_code": "NE", "phone": "+1 402-955-5372", "website": "https://www.childrensnebraska.org/provider/3215893/sookyong-koh-md%3Futm_campaign%3Dgmb%26utm_medium%3Dorganic%26utm_source%3Dlocal", "rating": 5, "reviews": 9, "place_id": "ChIJAQebVK-Nk4cReJeFpfsPfYU", "latitude": 41.26065819999999, "longitude": -96.04242099999999, "subtypes": "Neurologist"}, {"name": "Robert R Sundell, MD", "address": "8901 W Dodge Rd, Omaha, NE 68114", "city": "Omaha", "state": "Nebraska", "state_code": "NE", "phone": "+1 402-354-2000", "website": "https://providers.bestcare.org/provider/Robert%2BR.%2BSundell/1494003", "rating": 3.4, "reviews": 7, "place_id": "ChIJQ4CkpECNk4cRUmF59U-yU7Q", "latitude": 41.262412, "longitude": -96.05079719999999, "subtypes": "Neurologist"}, {"name": "Lakshman Arcot Jayagopal", "address": "4242 Farnam St # 360, Omaha, NE 68131", "city": "Omaha", "state": "Nebraska", "state_code": "NE", "phone": "+1 402-559-8600", "website": "https://www.unmc.edu/neurologicalsciences/about/faculty/arcot.html", "rating": 5, "reviews": 2, "place_id": "ChIJ_XBTzXCOk4cRWZypvRfNavc", "latitude": 41.2581326, "longitude": -95.9779617, "subtypes": "Neurologist"}, {"name": "Mignon M Makos, MD", "address": "6901 N 72nd St Ste 2400, Omaha, NE 68122", "city": "Omaha", "state": "Nebraska", "state_code": "NE", "phone": "+1 402-717-0070", "website": "https://www.chihealth.com/en/find-a-provider/mignon-makos-md.html", "rating": 3, "reviews": 4, "place_id": "ChIJXxid5nCTk4cRKLcFrfYZGlw", "latitude": 41.3219263, "longitude": -96.0208384, "subtypes": "Neurologist"}, {"name": "Dr. Olga Taraschenko", "address": "4242 Farnam St Ste 650, Omaha, NE 68131", "city": "Omaha", "state": "Nebraska", "state_code": "NE", "phone": "+1 402-559-8600", "website": "https://www.unmc.edu/neurologicalsciences/about/faculty/taraschenko.html", "rating": 3, "reviews": 2, "place_id": "ChIJT4uvMneOk4cR8rY65QYWonk", "latitude": 41.2581186, "longitude": -95.9780104, "subtypes": "Neurologist"}, {"name": "Drew Thodeson, M.D.", "address": "111 N 84th St, Omaha, NE 68114", "city": "Omaha", "state": "Nebraska", "state_code": "NE", "phone": "", "website": "http://mbbnresearch.org/", "rating": 5, "reviews": 9, "place_id": "ChIJffJ---qNk4cRn1ajKCn1JgU", "latitude": 41.26065819999999, "longitude": -96.04242099999999, "subtypes": "Pediatric neurologist"}, {"name": "Valeria Naranjo, MD", "address": "555 N 30th St, Omaha, NE 68131", "city": "Omaha", "state": "Nebraska", "state_code": "NE", "phone": "+1 402-498-6540", "website": "https://www.boystownhospital.org/physicians/valeria-naranjo", "rating": 5, "reviews": 2, "place_id": "ChIJG4BwxEaOk4cRq_E5CcMuj_Y", "latitude": 41.2646328, "longitude": -95.9554019, "subtypes": "Pediatric neurologist"}, {"name": "Marco Gonzalez Castellon", "address": "4242 Farnam St Ste 650, Omaha, NE 68131", "city": "Omaha", "state": "Nebraska", "state_code": "NE", "phone": "+1 402-559-8600", "website": "https://www.nebraskamed.com/doctors/marco-a-gonzalez-castellon", "rating": 5, "reviews": 2, "place_id": "ChIJT4uvMneOk4cRPgZg1R9aApU", "latitude": 41.2581186, "longitude": -95.9780104, "subtypes": "Neurologist"}, {"name": "Kiel Woodward", "address": "4242 Farnam St Ste 650, Omaha, NE 68131", "city": "Omaha", "state": "Nebraska", "state_code": "NE", "phone": "+1 402-559-8600", "website": "https://www.unmc.edu/neurologicalsciences/about/faculty/woodward.html", "rating": 5, "reviews": 1, "place_id": "ChIJT4uvMneOk4cR9R3YMQ4wMdo", "latitude": 41.2581186, "longitude": -95.9780104, "subtypes": "Neurologist"}, {"name": "Mara Seier", "address": "UNMC PHYSICIANS BUFFETT CANCER CENTER, 505 S 45th St, Omaha, NE 681980001", "city": "Omaha", "state": "Nebraska", "state_code": "NE", "phone": "+1 402-559-5600", "website": "https://www.unmc.edu/neurologicalsciences/about/faculty/seier.html", "rating": 5, "reviews": 4, "place_id": "ChIJR6LGxHmOk4cRvgS4mSTexlg", "latitude": 41.2555074, "longitude": -95.9797241, "subtypes": "Neurologist"}, {"name": "Lakshman Arcot Jayagopal", "address": "UNMC PHYSICIANS BUFFETT CANCER CENTER, 505 S 45th St, Omaha, NE 681980001", "city": "Omaha", "state": "Nebraska", "state_code": "NE", "phone": "+1 402-559-5600", "website": "https://www.unmc.edu/neurologicalsciences/about/faculty/arcot.html", "rating": 5, "reviews": 2, "place_id": "ChIJR6LGxHmOk4cRzVCF8NwBT3s", "latitude": 41.2555074, "longitude": -95.9797241, "subtypes": "Neurologist"}, {"name": "Dr. T Scott S. Diesing, MD", "address": "4242 Farnam St, Omaha, NE 68131", "city": "Omaha", "state": "Nebraska", "state_code": "NE", "phone": "+1 402-559-8600", "website": "", "rating": 5, "reviews": 2, "place_id": "ChIJRcdW0nCOk4cRO_e0tPWUGrA", "latitude": 41.2581186, "longitude": -95.9780104, "subtypes": "Neurologist"}, {"name": "Dr. Jose Americo M. Fernandes, MD", "address": "4242 Farnam St # 650, Omaha, NE 68131", "city": "Omaha", "state": "Nebraska", "state_code": "NE", "phone": "+1 402-559-8600", "website": "", "rating": 2.3, "reviews": 3, "place_id": "ChIJRcdW0nCOk4cRFVkGTsaEXA4", "latitude": 41.2581186, "longitude": -95.9780104, "subtypes": "Neurologist"}, {"name": "Young P. Oliver M.D.", "address": "111 N 84th St, Omaha, NE 68114", "city": "Omaha", "state": "Nebraska", "state_code": "NE", "phone": "+1 402-955-5372", "website": "", "rating": 3.7, "reviews": 3, "place_id": "ChIJb4-LfBSNk4cRUOLHPGaWdQQ", "latitude": 41.26065819999999, "longitude": -96.04242099999999, "subtypes": "Neurologist"}, {"name": "Hellman Amy M MD", "address": "982055 Nebraska Medical Ctr, Omaha, NE 68198", "city": "Omaha", "state": "Nebraska", "state_code": "NE", "phone": "+1 402-559-4000", "website": "", "rating": 5, "reviews": 2, "place_id": "ChIJM_yth7iNk4cRJA6TAiAp-yc", "latitude": 41.25525409999999, "longitude": -95.97962249999999, "subtypes": "Neurologist"}, {"name": "Yu-Ting Chen, MD", "address": "6901 N 72nd St Ste 2400, Omaha, NE 68122", "city": "Omaha", "state": "Nebraska", "state_code": "NE", "phone": "+1 402-717-0070", "website": "https://www.chihealth.com/en/location-search/location-details.location.d42ca707-1b79-4ba4-bb01-bca3062093d8.html", "rating": 3.3, "reviews": 6, "place_id": "ChIJuRa_ajaTk4cRms5q69rqyoc", "latitude": 41.3219263, "longitude": -96.0208384, "subtypes": "Neurologist"}, {"name": "Jagkirat Singh, MBBS", "address": "2412 Cuming St, Omaha, NE 68131", "city": "Omaha", "state": "Nebraska", "state_code": "NE", "phone": "+1 402-717-0070", "website": "https://providers.chihealth.com/l/chi-health-clinic-neurology-university-campus-532", "rating": "", "reviews": "", "place_id": "ChIJURopVwqPk4cRfxS1-f6bG8c", "latitude": 41.2689854, "longitude": -95.9484846, "subtypes": "Neurologist"}, {"name": "Stephen E Doran, MD", "address": "8005 Farnam Dr #305, Omaha, NE 68114", "city": "Omaha", "state": "Nebraska", "state_code": "NE", "phone": "+1 402-390-4111", "website": "https://mdwestone.com/doctors/dr-doran/", "rating": 4, "reviews": 13, "place_id": "ChIJyZu1jRGNk4cRGk9O-AjyEfI", "latitude": 41.2576242, "longitude": -96.0377302, "subtypes": "Neurosurgeon"}, {"name": "Michele R. Aizenberg, M.D.", "address": "4242 Farnam St STE 550, Omaha, NE 68131", "city": "Omaha", "state": "Nebraska", "state_code": "NE", "phone": "+1 402-559-8600", "website": "https://www.nebraskamed.com/doctors/michele-r-aizenberg", "rating": 4.2, "reviews": 6, "place_id": "ChIJRcdW0nCOk4cRQb04YpgqFec", "latitude": 41.2581186, "longitude": -95.9780104, "subtypes": "Neurosurgeon"}, {"name": "Shelley Lee", "address": "4242 Farnam St Ste 650, Omaha, NE 68131", "city": "Omaha", "state": "Nebraska", "state_code": "NE", "phone": "+1 402-559-8600", "website": "https://www.unmc.edu/neurologicalsciences/about/faculty/lee.html", "rating": 3.5, "reviews": 2, "place_id": "ChIJT4uvMneOk4cRUMS1SjBDHoM", "latitude": 41.2581186, "longitude": -95.9780104, "subtypes": "Neurologist"}, {"name": "Dr. William E. Thorell, MD", "address": "4242 Farnam St #650, Omaha, NE 68131", "city": "Omaha", "state": "Nebraska", "state_code": "NE", "phone": "+1 402-559-8600", "website": "https://www.nebraskamed.com/doctors/william-e-thorell", "rating": 5, "reviews": 9, "place_id": "ChIJRcdW0nCOk4cRfZ2FNQTmHIg", "latitude": 41.2581241, "longitude": -95.9780158, "subtypes": "Neurosurgeon"}, {"name": "Dr. Ric E. Jensen, MD", "address": "4242 Farnam St #363, Omaha, NE 68131", "city": "Omaha", "state": "Nebraska", "state_code": "NE", "phone": "+1 402-552-2929", "website": "https://www.nebraskamed.com/doctors/ric-e-jensen", "rating": 4, "reviews": 4, "place_id": "ChIJRcdW0nCOk4cReA7oL_0m8DA", "latitude": 41.2581491, "longitude": -95.9779586, "subtypes": "Neurosurgeon"}, {"name": "Dr. Katherine J. Robertson", "address": "601 N 30th St, Omaha, NE 68131", "city": "Omaha", "state": "Nebraska", "state_code": "NE", "phone": "", "website": "http://www.unmc.edu/audience/facstaff.html", "rating": "", "reviews": "", "place_id": "ChIJeRQXHUeOk4cRGSDgHqpNegE", "latitude": 41.265089, "longitude": -95.9549399, "subtypes": "Neurologist"}, {"name": "Miki Katzir, MD", "address": "4242 Farnam St Suite #550, Omaha, NE 68131", "city": "Omaha", "state": "Nebraska", "state_code": "NE", "phone": "+1 402-552-6094", "website": "https://www.nebraskamed.com/doctors/miki-katzir", "rating": 5, "reviews": 1, "place_id": "ChIJLXSsMneOk4cRbc4AmIPYzqU", "latitude": 41.2576118, "longitude": -95.97801559999999, "subtypes": "Neurosurgeon"}, {"name": "Craig Rabb, MD", "address": "Medical Building One, 7710 Mercy Rd #224, Omaha, NE 68124", "city": "Omaha", "state": "Nebraska", "state_code": "NE", "phone": "+1 402-717-0880", "website": "https://providers.chihealth.com/p/craig-rabb-1538108931%3FskipPrescreen%3Dtrue", "rating": 5, "reviews": 3, "place_id": "ChIJQWjghPKNk4cRVeM39KIM1aM", "latitude": 41.2396537, "longitude": -96.0307634, "subtypes": "Neurosurgeon"}, {"name": "Dr. David A. Franco, MD", "address": "4242 Farnam St, Omaha, NE 68131", "city": "Omaha", "state": "Nebraska", "state_code": "NE", "phone": "+1 402-559-8600", "website": "", "rating": "", "reviews": "", "place_id": "ChIJRcdW0nCOk4cRiQbVSvq9WM0", "latitude": 41.2581186, "longitude": -95.9780104, "subtypes": "Neurologist"}, {"name": "Afsaneh Shirani, MD", "address": "4242 Farnam St Suite #650, Omaha, NE 68131", "city": "Omaha", "state": "Nebraska", "state_code": "NE", "phone": "+1 402-552-2112", "website": "https://www.nebraskamed.com/doctors/afsaneh-shirani", "rating": 5, "reviews": 3, "place_id": "ChIJobDktXCOk4cRHm-2-GREdQs", "latitude": 41.2581186, "longitude": -95.9780104, "subtypes": "Neurologist"}, {"name": "Shaguna Mathur, M.D.", "address": "555 N 30th St, Omaha, NE 68131", "city": "Omaha", "state": "Nebraska", "state_code": "NE", "phone": "+1 531-355-7420", "website": "https://www.boystownhospital.org/physicians/shaguna-mathur", "rating": "", "reviews": "", "place_id": "ChIJO6jdDz-Pk4cR6s85tC1ZDd8", "latitude": 41.2646328, "longitude": -95.9554019, "subtypes": "Pediatric neurologist"}, {"name": "Awan Aftab MD", "address": "140 S 40th St, Omaha, NE 68131", "city": "Omaha", "state": "Nebraska", "state_code": "NE", "phone": "+1 402-637-3632", "website": "", "rating": "", "reviews": "", "place_id": "ChIJidr8OXCOk4cREP58cQ0WE8Q", "latitude": 41.2583699, "longitude": -95.9735383, "subtypes": "Neurologist"}, {"name": "Neurological & Spinal Surgery LLC", "address": "2222 S 16th St #305, Lincoln, NE 68502", "city": "Lincoln", "state": "Nebraska", "state_code": "NE", "phone": "+1 402-488-3002", "website": "https://nssne.com/", "rating": 4, "reviews": 21, "place_id": "ChIJTR1-qk--locRSn7In1opNV8", "latitude": 40.7898403, "longitude": -96.69905039999999, "subtypes": "Neurologist"}, {"name": "Asuta Health - Lincoln", "address": "3540 Village Dr Ste 200, Lincoln, NE 68516", "city": "Lincoln", "state": "Nebraska", "state_code": "NE", "phone": "+1 402-432-7702", "website": "https://asutahealth.org/", "rating": 4.9, "reviews": 198, "place_id": "ChIJP3O2-iWVlocRPf-wEH3ze_Q", "latitude": 40.7549214, "longitude": -96.66922939999999, "subtypes": "Neurologist"}, {"name": "James A. Bobenhouse, MD", "address": "2631 S 70th St, Lincoln, NE 68506", "city": "Lincoln", "state": "Nebraska", "state_code": "NE", "phone": "+1 402-483-7226", "website": "https://mychart.bryanhealth.org/MyChart/app/providers/JamesBobenhouseMD/WP-24mdBXCJsdDh0EITgxjACxZQ-3D-3D-24V3JwCVoMmc3exQRelu7kyvdXdtFKdjDICm2VjHdD54Y-3D%3Futm_campaign%3Dwebsite-link%26utm_medium%3Dorganic%26utm_source%3Dlocal-listing", "rating": 3.1, "reviews": 27, "place_id": "ChIJm7bmK5m9locRbVlc8ThArI0", "latitude": 40.7860634, "longitude": -96.6268451, "subtypes": "Neurologist"}, {"name": "Gary L. Pattee, MD", "address": "2631 S 70th St, Lincoln, NE 68506", "city": "Lincoln", "state": "Nebraska", "state_code": "NE", "phone": "+1 402-483-7226", "website": "https://mychart.bryanhealth.org/MyChart/app/providers/GaryPatteeMD/WP-24sCkyPf72TycKOFBuvnZrCg-3D-3D-24hNXksB9hq-2BhTQcXfK6efWiH8os-2BjE7Ztp9N5eXKcY68-3D%3Futm_campaign%3Dwebsite-link%26utm_medium%3Dorganic%26utm_source%3Dlocal-listing", "rating": 3.6, "reviews": 12, "place_id": "ChIJm7bmK5m9locRC_g5NboCPtY", "latitude": 40.7860634, "longitude": -96.6268451, "subtypes": "Neurologist"}, {"name": "James Bobenhouse", "address": "555 S 70th St, Lincoln, NE 68510", "city": "Lincoln", "state": "Nebraska", "state_code": "NE", "phone": "", "website": "", "rating": 5, "reviews": 1, "place_id": "ChIJdcGBpKy9locRAZ5flh_Vz1A", "latitude": 40.80803, "longitude": -96.62691919999999, "subtypes": "Neurologist"}, {"name": "Matthew S. Kniss, MD", "address": "2631 S 70th St, Lincoln, NE 68506", "city": "Lincoln", "state": "Nebraska", "state_code": "NE", "phone": "+1 402-483-7226", "website": "https://mychart.bryanhealth.org/MyChart/app/providers/MatthewKnissMD/WP-24VPAALFRthkuZM5I6o-2FaugA-3D-3D-24HgAIpuvTRSqVWxvJwhZu8XKMaDar8pqi2-2BCzs4YmNzw-3D%3Futm_campaign%3Dwebsite-link%26utm_medium%3Dorganic%26utm_source%3Dlocal-listing", "rating": 2.9, "reviews": 15, "place_id": "ChIJm7bmK5m9locRcnhoX_gj_R4", "latitude": 40.7860634, "longitude": -96.6268451, "subtypes": "Neurologist"}, {"name": "Michael Vavra, MD", "address": "2222 S 16th St #340, Lincoln, NE 68502", "city": "Lincoln", "state": "Nebraska", "state_code": "NE", "phone": "+1 402-483-8534", "website": "https://mychart.bryanhealth.org/MyChart/app/providers/MichaelVavraMD/WP-24d1WMI2WO9Ep6mwqyoi4-2FQg-3D-3D-24oeki1922uZlr0ZK83J5kxrTE0mmS3-2Fn26IKcx3-2FTTQE-3D%3Futm_campaign%3Dwebsite-link%26utm_medium%3Dorganic%26utm_source%3Dlocal-listing", "rating": 5, "reviews": 4, "place_id": "ChIJJbdv4Qq_locR0dg0FzUGP00", "latitude": 40.7897647, "longitude": -96.6991177, "subtypes": "Neurologist"}, {"name": "Erin Dennis, MD", "address": "2222 S 16th St #340, Lincoln, NE 68502", "city": "Lincoln", "state": "Nebraska", "state_code": "NE", "phone": "+1 402-483-8534", "website": "https://mychart.bryanhealth.org/MyChart/app/providers/ErinDennisMD/WP-246fvfgxQD9fsbLHRlFiZx7g-3D-3D-24rRD2gPF3sWA2mYfQIkUE0lgFpcbpG1QfAj4c86RVpnk-3D", "rating": 5, "reviews": 1, "place_id": "ChIJs-3MtyG_locR803POzN9q08", "latitude": 40.7897647, "longitude": -96.6991177, "subtypes": "Neurologist"}, {"name": "Dr. Andrew D. Livingston", "address": "2222 S 16th St #305, Lincoln, NE 68502", "city": "Lincoln", "state": "Nebraska", "state_code": "NE", "phone": "+1 402-488-3002", "website": "http://www.neuroandspinalsurg.com/", "rating": 4.6, "reviews": 18, "place_id": "ChIJ8TSy0k6-locRZx914xA9H1E", "latitude": 40.7892358, "longitude": -96.6987525, "subtypes": "Neurosurgeon"}, {"name": "Gelber Benjamin R MD", "address": "2222 S 16th St #305, Lincoln, NE 68502", "city": "Lincoln", "state": "Nebraska", "state_code": "NE", "phone": "+1 402-488-3002", "website": "http://neuroandspinalsurg.com/", "rating": 5, "reviews": 2, "place_id": "ChIJTR1-qk--locRIX3JHZtUs2w", "latitude": 40.7898403, "longitude": -96.6990503, "subtypes": "Neurosurgeon"}, {"name": "Sunil G. Nair, MD", "address": "2222 S 16th St #340, Lincoln, NE 68502", "city": "Lincoln", "state": "Nebraska", "state_code": "NE", "phone": "+1 402-483-8534", "website": "", "rating": 3.3, "reviews": 3, "place_id": "ChIJ6WjW00i-locRW5_-I47AvZg", "latitude": 40.7897647, "longitude": -96.6991177, "subtypes": "Neurologist"}, {"name": "Steven Gogela", "address": "2222 S 16th St #305, Lincoln, NE 685023796", "city": "Lincoln", "state": "Nebraska", "state_code": "NE", "phone": "+1 402-488-3002", "website": "https://nssne.com/doctors/", "rating": 4.6, "reviews": 8, "place_id": "ChIJw-rNK0m-locRIatTGvAEtuQ", "latitude": 40.7894279, "longitude": -96.69875119999999, "subtypes": "Neurosurgeon"}, {"name": "Dr. Lewiston W. Birkmann, MD", "address": "Neurology Associates, P.C., 2631 S 70th St, Lincoln, NE 68506", "city": "Lincoln", "state": "Nebraska", "state_code": "NE", "phone": "+1 402-483-7226", "website": "", "rating": 2, "reviews": 4, "place_id": "ChIJm7bmK5m9locRbxargzHsyRc", "latitude": 40.7860634, "longitude": -96.62684499999999, "subtypes": "Neurologist"}, {"name": "Dr.Daniel J. Tomes, MD", "address": "5620 S 27th St suite 100, Lincoln, NE 68516", "city": "Lincoln", "state": "Nebraska", "state_code": "NE", "phone": "+1 402-904-4729", "website": "http://www.nebraskaneurosurgery.net/", "rating": 3.6, "reviews": 43, "place_id": "ChIJ25rgiuGVlocRIKMBA82aH74", "latitude": 40.7560501, "longitude": -96.68181609999999, "subtypes": "Neurosurgeon"}, {"name": "Dr. Benjamin Bixenmann", "address": "5620 S 27th St suite 100, Lincoln, NE 68516", "city": "Lincoln", "state": "Nebraska", "state_code": "NE", "phone": "+1 402-904-4729", "website": "https://www.nebraskaneurosurgery.net/our-doctors", "rating": 2.8, "reviews": 14, "place_id": "ChIJkfwD9eGVlocRI7TIkmBS-qM", "latitude": 40.7555036, "longitude": -96.6824353, "subtypes": "Neurosurgeon"}, {"name": "Dr. Eric W. Pierson, MD", "address": "2222 S 16th St #305, Lincoln, NE 68502", "city": "Lincoln", "state": "Nebraska", "state_code": "NE", "phone": "+1 402-488-3002", "website": "http://nssne.com/", "rating": 4.2, "reviews": 5, "place_id": "ChIJTR1-qk--locRkfZTo9AHWq8", "latitude": 40.7896895, "longitude": -96.699185, "subtypes": "Neurosurgeon"}, {"name": "Daniel Crespo Artunduaga, MD, PhD", "address": "2222 S 16th St #340, Lincoln, NE 68502", "city": "Lincoln", "state": "Nebraska", "state_code": "NE", "phone": "+1 402-483-8534", "website": "https://mychart.bryanhealth.org/MyChart/app/providers/DanielCrespoArtunduagaMD/WP-24cgAEgkCcvukTFS6IQbvKHQ-3D-3D-240a9uck-2FS8zEnvoq7-2BHMaHmUBTgJLV5W9fHow5kf2m6Y-3D", "rating": 4, "reviews": 3, "place_id": "ChIJV4RCISq_locR4kwfrAOJeVo", "latitude": 40.7897647, "longitude": -96.6991177, "subtypes": "Neurologist"}, {"name": "Navya Joseph, MBBS", "address": "2222 S 16th St #340, Lincoln, NE 68502", "city": "Lincoln", "state": "Nebraska", "state_code": "NE", "phone": "+1 402-483-8534", "website": "", "rating": "", "reviews": "", "place_id": "ChIJCd1V2Hu_locRlNnYSYiJFLs", "latitude": 40.7897647, "longitude": -96.6991177, "subtypes": "Neurologist"}, {"name": "Puente John C MD", "address": "2222 S 16th St #305, Lincoln, NE 68502", "city": "Lincoln", "state": "Nebraska", "state_code": "NE", "phone": "+1 402-483-7226", "website": "http://www.nebraskamed.com/", "rating": 4.3, "reviews": 6, "place_id": "ChIJTR1-qk--locR4TLHBJcFccg", "latitude": 40.7896895, "longitude": -96.699185, "subtypes": "Neurologist"}, {"name": "Trevor Gregath, MD", "address": "2222 S 16th St #340, Lincoln, NE 68502", "city": "Lincoln", "state": "Nebraska", "state_code": "NE", "phone": "+1 402-483-8534", "website": "", "rating": 1, "reviews": 5, "place_id": "ChIJnULgqa2_locRUtwBNCnVCDk", "latitude": 40.7898403, "longitude": -96.69905039999999, "subtypes": "Neurologist"}, {"name": "Neurological & Spinal Surgery: Mc Cullen Geoffrey M MD", "address": "2222 S 16th St #305, Lincoln, NE 68502", "city": "Lincoln", "state": "Nebraska", "state_code": "NE", "phone": "+1 402-488-3002", "website": "http://www.neuroandspinalsurg.com/", "rating": 5, "reviews": 2, "place_id": "ChIJTR1-qk--locR5eI5bg5Sn4o", "latitude": 40.7896895, "longitude": -96.699185, "subtypes": "Neurosurgeon"}, {"name": "Rubab F. Husain, MBBS", "address": "4333 S 86th St, Lincoln, NE 68526", "city": "Lincoln", "state": "Nebraska", "state_code": "NE", "phone": "+1 402-483-8500", "website": "https://mychart.bryanhealth.org/MyChart/app/providers/RubabHusainMD/WP-24cw6AUFbAluzlP5uyePhzEw-3D-3D-24OqykDQm4HOBrtH2T8lzSwzovUv8UGgSfoeldPCIS8-2Bw-3D%3Futm_campaign%3Dwebsite-link%26utm_medium%3Dorganic%26utm_source%3Dlocal-listing", "rating": 3.2, "reviews": 18, "place_id": "ChIJNcc0o_2-locR9dxGZN4IA3U", "latitude": 40.7693188, "longitude": -96.6056155, "subtypes": "Neurologist"}, {"name": "Elvin Mirzazada, MD", "address": "2222 S 16th St #340, Lincoln, NE 68502", "city": "Lincoln", "state": "Nebraska", "state_code": "NE", "phone": "+1 402-483-8534", "website": "https://mychart.bryanhealth.org/MyChart/app/providers/ElvinMirzazadaMD/WP-24ZkcCiE4TW1wqGPtJMAA2pA-3D-3D-24CYh9-2FbGoiBss9HJiAA42RPEIR64vTMy0C9QDprAbU6Y-3D", "rating": "", "reviews": "", "place_id": "ChIJkzX6h1C_locRc53pRu_Xv4o", "latitude": 40.7897647, "longitude": -96.6991177, "subtypes": "Neurologist"}, {"name": "Jeremy Hosein", "address": "2222 S 16th St #305, Lincoln, NE 685023796", "city": "Lincoln", "state": "Nebraska", "state_code": "NE", "phone": "+1 402-488-3002", "website": "https://nssne.com/doctors/", "rating": 5, "reviews": 5, "place_id": "ChIJw-rNK0m-locRvZ6C8LDPATg", "latitude": 40.7894279, "longitude": -96.69875119999999, "subtypes": "Neurosurgeon"}, {"name": "Ana Delgado", "address": "8101 O St, Lincoln, NE 68510", "city": "Lincoln", "state": "Nebraska", "state_code": "NE", "phone": "+1 402-853-0197", "website": "", "rating": "", "reviews": "", "place_id": "ChIJe969GOO8locRdT_2jTRA2yw", "latitude": 40.8129087, "longitude": -96.6089811, "subtypes": "Neurologist"}, {"name": "Puente John C MD", "address": "575 S 70th St #400, Lincoln, NE 68510", "city": "Lincoln", "state": "Nebraska", "state_code": "NE", "phone": "+1 402-488-3002", "website": "http://www.neuroandspinalsurg.com/", "rating": 3, "reviews": 2, "place_id": "ChIJm4oin6u9locRlPgi7a0UWZE", "latitude": 40.8073699, "longitude": -96.6273734, "subtypes": "Neurologist"}, {"name": "Sposato Richard C MD", "address": "6920 Van Dorn St # B, Lincoln, NE 68506", "city": "Lincoln", "state": "Nebraska", "state_code": "NE", "phone": "+1 402-476-7557", "website": "http://www.lincolnpsychiatricgroup.com/", "rating": 1, "reviews": 1, "place_id": "ChIJY9-LS5m9locRIHCP7aAJGnI", "latitude": 40.78474509999999, "longitude": -96.6266601, "subtypes": "Neurologist"}, {"name": "Marco Pares, MD", "address": "2222 S 16th St #340, Lincoln, NE 68502", "city": "Lincoln", "state": "Nebraska", "state_code": "NE", "phone": "+1 402-483-8534", "website": "https://mychart.bryanhealth.org/MyChart/app/providers/MarcoPares/WP-246nabfNN7beenLy2T2Mlzzw-3D-3D-24lsINuaKTwDBm7Vb1o1Y4yJq0GLHZYERVv5ycROe9khI-3D", "rating": "", "reviews": "", "place_id": "ChIJgTDVXw6_locRQ0ku0kSdk0M", "latitude": 40.7897647, "longitude": -96.6991177, "subtypes": "Neurologist"}, {"name": "Mary C. Rickard, MD", "address": "2121 S 56th St, Lincoln, NE 68506", "city": "Lincoln", "state": "Nebraska", "state_code": "NE", "phone": "+1 402-486-1500", "website": "", "rating": "", "reviews": "", "place_id": "ChIJLdrG4sC9locRLa5fOhR4Wco", "latitude": 40.790974, "longitude": -96.6450096, "subtypes": "Neurologist"}, {"name": "Matthew Purbaugh, MD", "address": "2222 S 16th St #340, Lincoln, NE 68502", "city": "Lincoln", "state": "Nebraska", "state_code": "NE", "phone": "+1 402-483-8534", "website": "https://mychart.bryanhealth.org/MyChart/app/providers/MatthewPurbaughMD/WP-24q26HZlNuiEi-2FjgJyOWsgMQ-3D-3D-24Qd8R9v2LIanIeVNtPAAvGSJcs2LLZEJGArocEhxACvg-3D", "rating": "", "reviews": "", "place_id": "ChIJAQAAxHmOk4cRfPF3-CRPA-c", "latitude": 40.7897647, "longitude": -96.6991177, "subtypes": "Neurologist"}, {"name": "Terry Himes", "address": "15 E 27th St, Scottsbluff, NE 69361", "city": "Scottsbluff", "state": "Nebraska", "state_code": "NE", "phone": "+1 308-633-7378", "website": "", "rating": 5, "reviews": 1, "place_id": "ChIJz9iyeMFRZYcR7REMG2uMgkY", "latitude": 41.8740608, "longitude": -103.6623775, "subtypes": "Neurologist"}, {"name": "Dr. Omar F Jimenez, MD", "address": "2 W 42nd St #2100, Scottsbluff, NE 69361", "city": "Scottsbluff", "state": "Nebraska", "state_code": "NE", "phone": "+1 308-630-1947", "website": "https://www.rwhs.org/provider/omar-jimenez", "rating": 4.7, "reviews": 13, "place_id": "ChIJR5Q-V99RZYcRuosmCh9a1Mw", "latitude": 41.8869116, "longitude": -103.6644926, "subtypes": "Neurosurgeon"}, {"name": "Eric Kelts, MD", "address": "3911 Ave. B #2300, Scottsbluff, NE 69361", "city": "Scottsbluff", "state": "Nebraska", "state_code": "NE", "phone": "+1 308-630-2030", "website": "", "rating": 3.5, "reviews": 2, "place_id": "ChIJ3UvUVt9RZYcRVbusPxFhVaY", "latitude": 41.886696, "longitude": -103.6640864, "subtypes": "Neurologist"}, {"name": "Dr. Betty F. Ball, MD", "address": "3911 Ave. B, Scottsbluff, NE 69361", "city": "Scottsbluff", "state": "Nebraska", "state_code": "NE", "phone": "+1 308-630-2030", "website": "", "rating": "", "reviews": "", "place_id": "ChIJkQ4o0NhRZYcRfMAmiuC4nMU", "latitude": 41.8867509, "longitude": -103.6656537, "subtypes": "Neurologist"}, {"name": "Kanar David I MD", "address": "3911 Ave. B, Scottsbluff, NE 69361", "city": "Scottsbluff", "state": "Nebraska", "state_code": "NE", "phone": "+1 308-630-2101", "website": "http://www.rwhs.org/", "rating": "", "reviews": "", "place_id": "ChIJSQko0NhRZYcRN3ZbM4b60XY", "latitude": 41.887042, "longitude": -103.6646734, "subtypes": "Neurologist"}, {"name": "CHI Health Clinic Neurosurgery (McCook)", "address": "1301 E H St, McCook, NE 69001", "city": "McCook", "state": "Nebraska", "state_code": "NE", "phone": "+1 308-344-2650", "website": "https://www.chihealth.com/services/neuro/neurosurgery", "rating": "", "reviews": "", "place_id": "ChIJT5Mx2T4rnocR92JFCgZtWJA", "latitude": 40.2053631, "longitude": -100.6081281, "subtypes": "Neurosurgeon"}, {"name": "Dr. Lorraine L. Edwards, MD", "address": "4684, 2727 W 2nd St # 340, Hastings, NE 68901", "city": "Hastings", "state": "Nebraska", "state_code": "NE", "phone": "+1 402-463-1250", "website": "", "rating": 2.3, "reviews": 6, "place_id": "ChIJiRl6lDihmYcRywO0JBEXVWo", "latitude": 40.584463, "longitude": -98.41958299999999, "subtypes": "Neurologist"}, {"name": "Zara Fatima, MD", "address": "110 N 29th St, Norfolk, NE 68701", "city": "Norfolk", "state": "Nebraska", "state_code": "NE", "phone": "+1 402-844-8166", "website": "https://frhs.org/our-services/sleep-disorder-center", "rating": 4, "reviews": 1, "place_id": "ChIJ0ZipzC8VkIcRDKR3Abmy1RY", "latitude": 42.033852, "longitude": -97.45400459999999, "subtypes": "Neurologist"}, {"name": "Adams Charles R MD", "address": "109 N 15th St # 11, Norfolk, NE 68701", "city": "Norfolk", "state": "Nebraska", "state_code": "NE", "phone": "+1 402-379-1004", "website": "", "rating": 4.5, "reviews": 2, "place_id": "ChIJCwF0rNM_kIcR264sNEJsst8", "latitude": 42.03346579999999, "longitude": -97.4314426, "subtypes": "Neurologist"}, {"name": "Zara Fatima, MD", "address": "301 N 27th St STE. 203, Norfolk, NE 68701", "city": "Norfolk", "state": "Nebraska", "state_code": "NE", "phone": "+1 402-844-8166", "website": "https://frpsclinics.org/physicians/zara-fatima/", "rating": "", "reviews": "", "place_id": "ChIJ5zllVeIVkIcR8cO3yvjQQo4", "latitude": 42.0346278, "longitude": -97.4525324, "subtypes": "Neurologist"}, {"name": "CHI Health Clinic Neurology/Neurosurgery (Good Samaritan)", "address": "3219 Central Ave #200, Kearney, NE 68847", "city": "Kearney", "state": "Nebraska", "state_code": "NE", "phone": "+1 308-865-2370", "website": "https://providers.chihealth.com/l/chi-health-clinic-neurologyneurosurgery-good-samaritan-2244", "rating": 5, "reviews": 1, "place_id": "ChIJ6d54IMFPmYcRGKjM0wm9S_M", "latitude": 40.7075409, "longitude": -99.0817438, "subtypes": "Neurosurgeon"}, {"name": "Jason Mallin, MD", "address": "3219 Central Ave #200, Kearney, NE 68847", "city": "Kearney", "state": "Nebraska", "state_code": "NE", "phone": "+1 308-865-2370", "website": "https://providers.chihealth.com/l/chi-health-clinic-neurologyneurosurgery-good-samaritan-2244", "rating": 4.4, "reviews": 29, "place_id": "ChIJk4bO57ZPmYcRCNgLhjko7LM", "latitude": 40.7076472, "longitude": -99.08182889999999, "subtypes": "Neurologist"}, {"name": "Sarah Doss, MD", "address": "816 22nd Ave SUITE 100, Kearney, NE 68845", "city": "Kearney", "state": "Nebraska", "state_code": "NE", "phone": "+1 308-865-2263", "website": "https://mychart.bryanhealth.org/MyChart/app/providers/SarahDossMD/WP-24VB-2BsdF8Pxb6jH9-2FQjq6g3w-3D-3D-24kaWjzKpcr3orPeBBb3MbqVDfqU0vNiOVRBmuFV7piFc-3D", "rating": 4, "reviews": 4, "place_id": "ChIJVVUVmAhMmYcR5JFITN1-M88", "latitude": 40.6830186, "longitude": -99.1128933, "subtypes": "Neurologist"}, {"name": "Jan Weber, MD", "address": "816 22nd Ave SUITE 100, Kearney, NE 68845", "city": "Kearney", "state": "Nebraska", "state_code": "NE", "phone": "+1 308-865-2263", "website": "", "rating": 3.7, "reviews": 7, "place_id": "ChIJnz5MnZNOmYcRO7i1ECxYQgU", "latitude": 40.68316009999999, "longitude": -99.1128598, "subtypes": "Neurologist"}, {"name": "CHI Health Clinic Neurosurgery (Nebraska City)", "address": "1301 Grundman Blvd, Nebraska City, NE 68410", "city": "Nebraska City", "state": "Nebraska", "state_code": "NE", "phone": "+1 402-873-9639", "website": "", "rating": "", "reviews": "", "place_id": "ChIJo9qtTOBblIcRiSlyGtWmZnE", "latitude": 40.656215, "longitude": -95.862353, "subtypes": "Neurosurgeon"}, {"name": "Anil Kumar, MD", "address": "611 W Francis St suite 200, North Platte, NE 69101", "city": "North Platte", "state": "Nebraska", "state_code": "NE", "phone": "+1 308-568-3500", "website": "https://www.gphealth.org/provider-directory/providers/anil-kumar/", "rating": 4.2, "reviews": 5, "place_id": "ChIJDQSqou4idocRtyU6F7Bpx5A", "latitude": 41.1232032, "longitude": -100.771301, "subtypes": "Neurologist"}]