[{"name": "Carson Tahoe Neurology", "address": "1470 Medical Pkwy #280, Carson City, NV 89703", "city": "Carson City", "state": "Nevada", "state_code": "NV", "phone": "+1 775-445-5464", "website": "https://www.carsontahoe.com/carson-tahoe-neurology.html", "rating": 5, "reviews": 2, "place_id": "ChIJK22SVa4LmYAR5FChnENtBSI", "latitude": 39.2009459, "longitude": -119.7855893, "subtypes": "Neurologist"}, {"name": "Barton Neurology", "address": "155 Hwy 50 Suite 102, Stateline, NV 89449", "city": "Stateline", "state": "Nevada", "state_code": "NV", "phone": "+1 775-580-7615", "website": "https://www.bartonhealth.org/find-a-location/locations-profile/neurology/", "rating": 4, "reviews": 4, "place_id": "ChIJce7Fy3aPmYARNpU-FmEDjeo", "latitude": 38.9683431, "longitude": -119.9351592, "subtypes": "Neurologist"}, {"name": "Carson Tahoe Neurology - Minden", "address": "925 Ironwood Dr #2102, Minden, NV 89423", "city": "Minden", "state": "Nevada", "state_code": "NV", "phone": "+1 775-445-5464", "website": "https://www.carsontahoe.com/carson-tahoe-neurology-minden-minden.html", "rating": "", "reviews": "", "place_id": "ChIJpQ-DJvO9mYARn4_uaaGPtq0", "latitude": 38.9627902, "longitude": -119.778304, "subtypes": "Neurologist"}, {"name": "Timothy Louie, MD, Swift Institute, Vein and Neurology", "address": "10381 Double R Blvd, Reno, NV 89521", "city": "Reno", "state": "Nevada", "state_code": "NV", "phone": "+1 775-348-8800", "website": "https://theswiftinstitute.com/", "rating": 4.9, "reviews": 113, "place_id": "ChIJkY9Io2wVmYARwmXLEQNX9uA", "latitude": 39.4316632, "longitude": -119.7556785, "subtypes": "Neurologist"}, {"name": "Doyle Timothy J MD", "address": "923 Mountain St, Carson City, NV 89703", "city": "Carson City", "state": "Nevada", "state_code": "NV", "phone": "+1 775-884-4446", "website": "https://www.carsontahoe.com/timothy-doyle-j-3.html", "rating": 5, "reviews": 6, "place_id": "ChIJY-L5aLsKmYARp2sVXhH_HW8", "latitude": 39.16992219999999, "longitude": -119.7724162, "subtypes": "Neurologist"}, {"name": "Rima S. Rindler, MD", "address": "5590 Kietzke Ln Ste 101, Reno, NV 89511", "city": "Reno", "state": "Nevada", "state_code": "NV", "phone": "+1 775-323-2080", "website": "http://www.sierraneurosurgery.com/", "rating": 5, "reviews": 226, "place_id": "ChIJ7zwD820_mYARDjLDTzjOCtg", "latitude": 39.4629954, "longitude": -119.7873419, "subtypes": "Neurosurgeon"}, {"name": "Rolando Ania, MD", "address": "9790 Gateway Dr suite 220, Reno, NV 89521", "city": "Reno", "state": "Nevada", "state_code": "NV", "phone": "+1 775-251-3917", "website": "https://www.renown.org/find-a-doctor/rolando-ania", "rating": 4.6, "reviews": 10, "place_id": "ChIJF7s-pK5AmYARo6Oh-QZzXhc", "latitude": 39.4406641, "longitude": -119.7614204, "subtypes": "Neurologist"}, {"name": "Thomas Ahn, MD", "address": "7111 S Virginia St Suite D2, Reno, NV 89511", "city": "Reno", "state": "Nevada", "state_code": "NV", "phone": "+1 775-870-1230", "website": "http://allianceneurology.net/", "rating": 4.8, "reviews": 38, "place_id": "ChIJEf2BfEJBmYARVNnVYqJVOHw", "latitude": 39.4615972, "longitude": -119.7830293, "subtypes": "Neurologist"}, {"name": "Burton Tabaac, MD", "address": "1470 Medical Pkwy #280, Carson City, NV 89703", "city": "Carson City", "state": "Nevada", "state_code": "NV", "phone": "+1 775-445-5464", "website": "https://www.carsontahoe.com/burton-tabaac.html", "rating": 4.3, "reviews": 6, "place_id": "ChIJmUAfry0LmYARWuK61t0Nyqs", "latitude": 39.2009459, "longitude": -119.7855893, "subtypes": "Neurologist"}, {"name": "Dr. Dante F. Vacca, MD, FAANS", "address": "5590 Kietzke Ln Ste 101, Reno, NV 89511", "city": "Reno", "state": "Nevada", "state_code": "NV", "phone": "+1 775-323-2080", "website": "http://www.sierraneurosurgery.com/", "rating": 4.9, "reviews": 241, "place_id": "ChIJD0QXYgdAmYAR2Zh4o3Kfd50", "latitude": 39.4629954, "longitude": -119.7873419, "subtypes": "Neurosurgeon"}, {"name": "Lagios John P MD", "address": "915 Mountain St, Carson City, NV 89703", "city": "Carson City", "state": "Nevada", "state_code": "NV", "phone": "+1 775-885-9400", "website": "", "rating": 4.3, "reviews": 6, "place_id": "ChIJC6JiX7sKmYARw6kU4RlaaLk", "latitude": 39.1697446, "longitude": -119.7715569, "subtypes": "Neurologist"}, {"name": "Swift Institute - Medical Parkway", "address": "1470 Medical Pkwy #220, Carson City, NV 89703", "city": "Carson City", "state": "Nevada", "state_code": "NV", "phone": "+1 775-348-8800", "website": "https://theswiftinstitute.com/", "rating": 4.8, "reviews": 399, "place_id": "ChIJqX2Gg8MKmYARS-LvlIIjJVQ", "latitude": 39.2008083, "longitude": -119.7855554, "subtypes": "Neurosurgeon"}, {"name": "Dr. Jay K. Morgan, MD", "address": "5590 Kietzke Ln Ste 101, Reno, NV 89511", "city": "Reno", "state": "Nevada", "state_code": "NV", "phone": "+1 775-323-2080", "website": "http://www.sierraneurosurgery.com/", "rating": 4.9, "reviews": 219, "place_id": "ChIJD0QXYgdAmYAR4N3IMBuE2MI", "latitude": 39.4629954, "longitude": -119.7873419, "subtypes": "Neurosurgeon"}, {"name": "Battle Born Brain and Spine", "address": "1525 Vista Ln, Carson City, NV 89703", "city": "Carson City", "state": "Nevada", "state_code": "NV", "phone": "+1 775-227-2720", "website": "https://www.battlebornbrainandspine.com/contact/", "rating": 3, "reviews": 4, "place_id": "ChIJAQDAXSkLmYARVulBSq3_RKA", "latitude": 39.197799, "longitude": -119.7826833, "subtypes": "Neurosurgeon"}, {"name": "Neeharika Thottempudi, MD", "address": "1470 Medical Pkwy #280, Carson City, NV 89703", "city": "Carson City", "state": "Nevada", "state_code": "NV", "phone": "+1 775-445-5464", "website": "https://www.carsontahoe.com/neeharika-thottempudi.html", "rating": 4.6, "reviews": 9, "place_id": "ChIJNZbGBGcLmYARFO1NUe-yUOg", "latitude": 39.2009459, "longitude": -119.7855893, "subtypes": "Neurologist"}, {"name": "Neeharika Thottempudi, MD", "address": "925 Ironwood Dr #2102, Minden, NV 89423", "city": "Minden", "state": "Nevada", "state_code": "NV", "phone": "+1 775-445-5464", "website": "https://www.carsontahoe.com/neeharika-thottempudi.html", "rating": 1, "reviews": 1, "place_id": "ChIJzax-45G9mYARDohchTae-Gg", "latitude": 38.9627902, "longitude": -119.778304, "subtypes": "Neurologist"}, {"name": "Burton Tabaac, MD", "address": "925 Ironwood Dr #2102, Minden, NV 89423", "city": "Minden", "state": "Nevada", "state_code": "NV", "phone": "+1 775-445-5464", "website": "https://www.carsontahoe.com/burton-tabaac.html", "rating": "", "reviews": "", "place_id": "ChIJf_vrEfy9mYARjDcgKjMux5A", "latitude": 38.9627902, "longitude": -119.778304, "subtypes": "Neurologist"}, {"name": "William Lujan", "address": "1691 W Horizon Ridge Pkwy #100, Henderson, NV 89012", "city": "Henderson", "state": "Nevada", "state_code": "NV", "phone": "+1 702-804-1212", "website": "https://www.cnsnevada.com/william-lujan-md/", "rating": 4.8, "reviews": 148, "place_id": "ChIJAQDAdI_RyIAR8NonY40hF80", "latitude": 36.0130035, "longitude": -115.0598513, "subtypes": "Neurologist"}, {"name": "Dr. Eric Gutglueck", "address": "1691 W Horizon Ridge Pkwy #100, Henderson, NV 89012", "city": "Henderson", "state": "Nevada", "state_code": "NV", "phone": "+1 702-804-1212", "website": "https://www.cnsnevada.com/eric-gutglueck-md/", "rating": 4.9, "reviews": 143, "place_id": "ChIJob_DdI_RyIARh0p5049Ky0o", "latitude": 36.013025, "longitude": -115.059868, "subtypes": "Neurologist"}, {"name": "Fan Zhang, DO", "address": "2020 Wellness Wy #300, Las Vegas, NV 89106", "city": "Las Vegas", "state": "Nevada", "state_code": "NV", "phone": "+1 702-432-2233", "website": "https://neurocnv.com/steven-fan-zhang-md/", "rating": 4.8, "reviews": 179, "place_id": "ChIJpdCkdP3RyIARqsQGQQXA890", "latitude": 36.1621746, "longitude": -115.1688536, "subtypes": "Neurologist"}, {"name": "Neurology & Epilepsy center", "address": "1546 W Warm Springs Rd STE 130, Henderson, NV 89014", "city": "Henderson", "state": "Nevada", "state_code": "NV", "phone": "+1 702-852-1155", "website": "https://www.neurologyepilepsycenter.com/", "rating": 3.7, "reviews": 20, "place_id": "ChIJD4p-kinRyIARASpRwfSwR0U", "latitude": 36.0567386, "longitude": -115.0522282, "subtypes": "Neurologist"}, {"name": "Dr. Herbert Ezugha", "address": "1546 W Warm Springs Rd Ste 130, Ste 130, Henderson, NV 89014", "city": "Henderson", "state": "Nevada", "state_code": "NV", "phone": "+1 702-852-1155", "website": "https://rymap.org/business/dr-herbert-ezugha-6uwpu0", "rating": 2.2, "reviews": 38, "place_id": "ChIJcSKQUirOyIARqyden6EjXmw", "latitude": 36.0567776, "longitude": -115.0523912, "subtypes": "Neurologist"}, {"name": "LINDA BROWN", "address": "2430 W Horizon Ridge Pkwy, Henderson, NV 89052", "city": "Henderson", "state": "Nevada", "state_code": "NV", "phone": "+1 702-247-9994", "website": "https://neurocnv.com/linda-brown-md/", "rating": 4.6, "reviews": 20, "place_id": "ChIJfYe0dP3RyIARxdejTTwCttQ", "latitude": 36.0062126, "longitude": -115.0926117, "subtypes": "Neurologist"}, {"name": "Leo Germin MD", "address": "1691 W Horizon Ridge Pkwy, Henderson, NV 89012", "city": "Henderson", "state": "Nevada", "state_code": "NV", "phone": "+1 702-804-1212", "website": "https://www.cnsnevada.com/", "rating": 4.6, "reviews": 347, "place_id": "ChIJ3ffAdI_RyIARDs-velL8l9A", "latitude": 36.0130094, "longitude": -115.0598643, "subtypes": "Neurologist"}, {"name": "Tri-State Neurology: Muhammad Nayer, M.D.", "address": "178 N Pecos Rd #200, Henderson, NV 89074", "city": "Henderson", "state": "Nevada", "state_code": "NV", "phone": "+1 702-342-0231", "website": "https://www.tsneurology.com/%3Futm_source%3Dgmb_auth", "rating": 4.3, "reviews": 31, "place_id": "ChIJxfam1OBAzoARkE4AA1Tz22w", "latitude": 36.0411758, "longitude": -115.0984039, "subtypes": "Neurologist"}, {"name": "Santos H. Yu, MD", "address": "2430 W Horizon Ridge Pkwy Suite 110, Henderson, NV 89052", "city": "Henderson", "state": "Nevada", "state_code": "NV", "phone": "+1 702-247-9994", "website": "http://neurocnv.com/our-medical-team/%23medical_team", "rating": 4.1, "reviews": 298, "place_id": "ChIJO6VNXtvRyIARS3ev_Eccl2Y", "latitude": 36.0062318, "longitude": -115.0926088, "subtypes": "Neurologist"}, {"name": "Neurologist Paul Harlan Janda, DO JD", "address": "2020 Wellness Wy #300, Las Vegas, NV 89106", "city": "Las Vegas", "state": "Nevada", "state_code": "NV", "phone": "+1 702-432-2233", "website": "https://www.lvneuro.com/%3Futm_source%3Dgmb_auth", "rating": 4.8, "reviews": 195, "place_id": "ChIJs6_O4zTDyIARgctE4evkDx0", "latitude": 36.1620936, "longitude": -115.1688472, "subtypes": "Neurologist"}, {"name": "Abdul Tariq DO", "address": "3555 Pecos-McLeod Interconnect Int, Las Vegas, NV 89121", "city": "Las Vegas", "state": "Nevada", "state_code": "NV", "phone": "+1 702-956-0996", "website": "http://ncnevada.com/", "rating": 3.1, "reviews": 14, "place_id": "ChIJe9UTO3nFyIARjmf837xGzGY", "latitude": 36.1245469, "longitude": -115.1093761, "subtypes": "Neurologist"}, {"name": "Zeshan Mudasir", "address": "10624 S Eastern Ave A955, Henderson, NV 890522982", "city": "Henderson", "state": "Nevada", "state_code": "NV", "phone": "+1 702-800-5393", "website": "", "rating": 5, "reviews": 1, "place_id": "ChIJVVUVHwfOyIAROHw1kvSEb3c", "latitude": 35.9986212, "longitude": -115.1015505, "subtypes": "Neurologist"}, {"name": "Raja Roshan DO", "address": "2821 W Horizon Ridge Pkwy Suite 100, Henderson, NV 89052", "city": "Henderson", "state": "Nevada", "state_code": "NV", "phone": "+1 702-920-0290", "website": "", "rating": 3.2, "reviews": 22, "place_id": "ChIJHdtqXwnOyIARUMHKXPrWXnA", "latitude": 35.9980948, "longitude": -115.1117574, "subtypes": "Neurologist"}, {"name": "Russell J Shah Md Ltd", "address": "10624 S Eastern Ave, Henderson, NV 89052", "city": "Henderson", "state": "Nevada", "state_code": "NV", "phone": "+1 702-644-0500", "website": "", "rating": 5, "reviews": 3, "place_id": "ChIJp9yY_AbOyIAREgVYBw79JGg", "latitude": 35.9986834, "longitude": -115.1017976, "subtypes": "Neurologist"}, {"name": "Dr. Christopher M. Milford, MD", "address": "1621 E Flamingo Rd #16A, Las Vegas, NV 89119", "city": "Las Vegas", "state": "Nevada", "state_code": "NV", "phone": "+1 702-956-0996", "website": "http://ncnevada.com/", "rating": 2.7, "reviews": 49, "place_id": "ChIJnzv1s9zAyIAR0PbV0k3ho2s", "latitude": 36.1142969, "longitude": -115.13055, "subtypes": "Neurologist"}, {"name": "Desert Neurology Associates: Theuvenet Nicole MD", "address": "8475 S Eastern Ave, Las Vegas, NV 89123", "city": "Las Vegas", "state": "Nevada", "state_code": "NV", "phone": "+1 702-933-0971", "website": "", "rating": 4.2, "reviews": 22, "place_id": "ChIJqd3OWCnOyIARipJwJj3e0Ro", "latitude": 36.0355654, "longitude": -115.1190162, "subtypes": "Neurologist"}, {"name": "Dr. Aroucha Vickers", "address": "2020 Wellness Wy #300, Las Vegas, NV 89106", "city": "Las Vegas", "state": "Nevada", "state_code": "NV", "phone": "+1 702-432-2233", "website": "http://www.lvneuro.com/", "rating": 4.8, "reviews": 95, "place_id": "ChIJYcGYq-vDyIARKFYOo50ZdMA", "latitude": 36.1620936, "longitude": -115.1688472, "subtypes": "Neurologist"}, {"name": "Valencia Neurology", "address": "221 N Buffalo Dr # A, Las Vegas, NV 89145", "city": "Las Vegas", "state": "Nevada", "state_code": "NV", "phone": "+1 725-331-9876", "website": "https://valencianeurology.com/", "rating": 5, "reviews": 23, "place_id": "ChIJ7yQkjKbryIAReFeFuUgZdIk", "latitude": 36.17540109999999, "longitude": -115.2607325, "subtypes": "Neurologist"}, {"name": "Anna Fermin, MD", "address": "653 N Town Center Dr Suite #104, Las Vegas, NV 89144", "city": "Las Vegas", "state": "Nevada", "state_code": "NV", "phone": "+1 702-247-9994", "website": "https://neurocnv.com/dr-anna-monica-fermin-md/", "rating": 4.8, "reviews": 176, "place_id": "ChIJpdCkdP3RyIARTa561bZARmc", "latitude": 36.1803683, "longitude": -115.3162826, "subtypes": "Neurologist"}, {"name": "Santos H. Yu, MD", "address": "653 N Town Center Dr Suite #104, Las Vegas, NV 89144", "city": "Las Vegas", "state": "Nevada", "state_code": "NV", "phone": "+1 702-247-9994", "website": "https://neurocnv.com/our-medical-team/%23medical_team", "rating": 4.4, "reviews": 68, "place_id": "ChIJh2hgSf2_yIARZSmhgc1u4qs", "latitude": 36.1803683, "longitude": -115.3162826, "subtypes": "Neurologist"}, {"name": "Neurology Center of Las Vegas: Shanker Dixit, MD", "address": "2480 Professional Ct, Las Vegas, NV 89128", "city": "Las Vegas", "state": "Nevada", "state_code": "NV", "phone": "+1 702-405-7100", "website": "https://www.neurocenterlv.com/%3Futm_source%3DGMBSocialClimb%26utm_medium%3DNeurologyCenterofLasVegas%253AShankerDixit%252CMD", "rating": 3.9, "reviews": 557, "place_id": "ChIJPRxiM5zqyIARtfEqGHnooRc", "latitude": 36.2052346, "longitude": -115.2544472, "subtypes": "Neurologist"}, {"name": "Dr. Jay P Mahajan", "address": "2020 Wellness Wy #300, Las Vegas, NV 89106", "city": "Las Vegas", "state": "Nevada", "state_code": "NV", "phone": "+1 702-432-2233", "website": "http://lvneuro.com/", "rating": 4.8, "reviews": 863, "place_id": "ChIJ-9SNrevDyIARf_XMP1txq50", "latitude": 36.1620936, "longitude": -115.1688472, "subtypes": "Neurologist"}, {"name": "Neurocare of Nevada", "address": "6410 Medical Center St Ste. A, Las Vegas, NV 89148", "city": "Las Vegas", "state": "Nevada", "state_code": "NV", "phone": "+1 702-796-8500", "website": "https://www.neurocareofnevada.com/", "rating": 4.7, "reviews": 530, "place_id": "ChIJsfTBaHy4yIARWxoOH1p-m8Y", "latitude": 36.071974, "longitude": -115.2918151, "subtypes": "Neurologist"}, {"name": "Vegas Neurology PLLC, Kevin Xie, MD. PHD", "address": "5115 S Durango Dr Suite 100, Las Vegas, NV 89113", "city": "Las Vegas", "state": "Nevada", "state_code": "NV", "phone": "+1 702-207-0531", "website": "https://www.tebra.com/care/provider/kevin-xie-md-1700868155", "rating": 4.7, "reviews": 181, "place_id": "ChIJNeXMZePHyIARWtq5fok06DE", "latitude": 36.0959858, "longitude": -115.2800079, "subtypes": "Neurologist"}, {"name": "Dr. Leo Germin", "address": "7751 W Flamingo Rd # A100, Las Vegas, NV 89147", "city": "Las Vegas", "state": "Nevada", "state_code": "NV", "phone": "+1 702-804-6555", "website": "https://www.cnsnevada.com/", "rating": 4.4, "reviews": 283, "place_id": "ChIJ4cBl_DfHyIARCQ2gh4Q_th8", "latitude": 36.1142245, "longitude": -115.2597445, "subtypes": "Neurologist"}, {"name": "Dr. Eric Gutglueck", "address": "7751 W Flamingo Rd # A100, Las Vegas, NV 89147", "city": "Las Vegas", "state": "Nevada", "state_code": "NV", "phone": "+1 702-804-6555", "website": "https://www.cnsnevada.com/eric-gutglueck-md/", "rating": 4.8, "reviews": 125, "place_id": "ChIJ4cBl_DfHyIARaxswlCu_Ag0", "latitude": 36.1142245, "longitude": -115.2597445, "subtypes": "Neurologist"}, {"name": "Luis Diaz MD", "address": "2880 N Tenaya Wy #405, Las Vegas, NV 89128", "city": "Las Vegas", "state": "Nevada", "state_code": "NV", "phone": "+1 702-233-0755", "website": "http://www.luisldiazmd.com/", "rating": 4.1, "reviews": 35, "place_id": "ChIJrT1tIGHBJRURWj-fls3pN0M", "latitude": 36.213472, "longitude": -115.248659, "subtypes": "Neurologist"}, {"name": "Las Vegas Brain Lydia B. Estanislao MD", "address": "4206 W Charleston Blvd, Las Vegas, NV 89102", "city": "Las Vegas", "state": "Nevada", "state_code": "NV", "phone": "+1 702-331-6709", "website": "https://rymap.org/business/las-vegas-brain-lydia-b-estanislao-md-94sxgq", "rating": 4.8, "reviews": 25, "place_id": "ChIJGwc0nmfByIARaFc2QjhaSF4", "latitude": 36.1592818, "longitude": -115.1978672, "subtypes": "Neurologist"}, {"name": "Dr. Robert W. Balsiger, DO", "address": "2020 Wellness Wy #300, Las Vegas, NV 89106", "city": "Las Vegas", "state": "Nevada", "state_code": "NV", "phone": "+1 702-432-2233", "website": "http://lvneuro.com/", "rating": 4.8, "reviews": 632, "place_id": "ChIJk0t0zOrDyIARMb6YQ-etwDU", "latitude": 36.1620968, "longitude": -115.1688472, "subtypes": "Neurologist"}, {"name": "Dr. Michael Schneier", "address": "10105 Banburry Cross Dr #445, Las Vegas, NV 89144", "city": "Las Vegas", "state": "Nevada", "state_code": "NV", "phone": "+1 702-475-8454", "website": "", "rating": 3.6, "reviews": 11, "place_id": "ChIJQVIg1tq_yIARF2mbPBK9E3M", "latitude": 36.1828297, "longitude": -115.3163645, "subtypes": "Neurosurgeon"}, {"name": "Michael P. Horan, M.D., PhD", "address": "2831 Business Park Ct, Las Vegas, NV 89128", "city": "Las Vegas", "state": "Nevada", "state_code": "NV", "phone": "+1 702-791-9000", "website": "https://www.lasvegas.va.gov/", "rating": 5, "reviews": 3, "place_id": "ChIJY7fhfJvqyIARvFa7sKS3rHI", "latitude": 36.2118575, "longitude": -115.2509281, "subtypes": "Neurologist"}, {"name": "Charles Edward Kamen", "address": "2480 Professional Ct, Las Vegas, NV 891280835", "city": "Las Vegas", "state": "Nevada", "state_code": "NV", "phone": "", "website": "", "rating": 5, "reviews": 1, "place_id": "ChIJ__8PyiDAyIARmXkJr38OAK0", "latitude": 36.2052204, "longitude": -115.2544474, "subtypes": "Neurologist"}, {"name": "Dr. David Ginsburg", "address": "PK Office Building, 7151 Cascade Valley Ct # 103, Las Vegas, NV 89128", "city": "Las Vegas", "state": "Nevada", "state_code": "NV", "phone": "+1 725-268-7151", "website": "https://ginsburgneurology.com/", "rating": 3, "reviews": 12, "place_id": "ChIJDdKNJ5PDyIARARN53nof35I", "latitude": 36.2113476, "longitude": -115.2479958, "subtypes": "Neurologist"}, {"name": "Chang Bess L Do", "address": "8530 W Sunset Rd #350, Las Vegas, NV 89113", "city": "Las Vegas", "state": "Nevada", "state_code": "NV", "phone": "+1 702-851-1065", "website": "http://www.medicalneurologylv.com/", "rating": 2.4, "reviews": 69, "place_id": "ChIJG_LKk4XHyIAR94UvBYcyNG8", "latitude": 36.0714488, "longitude": -115.2777077, "subtypes": "Neurologist"}, {"name": "Gobinder S. Chopra, M.D.", "address": "6410 Medical Center St Ste. A, Las Vegas, NV 89148", "city": "Las Vegas", "state": "Nevada", "state_code": "NV", "phone": "+1 702-796-8500", "website": "https://www.neurocareofnevada.com/", "rating": 3.1, "reviews": 60, "place_id": "ChIJm4XMOovEyIARJqLiL2oP-5M", "latitude": 36.071974, "longitude": -115.2918151, "subtypes": "Neurologist"}, {"name": "Neurology Center Of Nevada", "address": "1397 S Loop Rd, Pahrump, NV 89048", "city": "Pahrump", "state": "Nevada", "state_code": "NV", "phone": "+1 702-247-9994", "website": "https://neurocnv.com/", "rating": 4.8, "reviews": 98, "place_id": "ChIJ8aENX-c5xoARGpsN3LFCt2s", "latitude": 36.199183, "longitude": -115.970345, "subtypes": "Neurologist"}, {"name": "Azin Azma, MD", "address": "3150 N Tenaya Wy #140, Las Vegas, NV 89128", "city": "Las Vegas", "state": "Nevada", "state_code": "NV", "phone": "+1 702-962-9550", "website": "http://mountainview-hospital.com/service/neurology-and-neurosurgery", "rating": 3, "reviews": 4, "place_id": "ChIJvcr8DpvqyIARs4cnQabXIbI", "latitude": 36.215643, "longitude": -115.248779, "subtypes": "Neurologist"}, {"name": "Charles Kamen MD PC", "address": "2020 Wellness Wy #300, Las Vegas, NV 89106", "city": "Las Vegas", "state": "Nevada", "state_code": "NV", "phone": "+1 702-432-2233", "website": "https://www.linkedin.com/in/charleskamen/", "rating": 2.7, "reviews": 13, "place_id": "ChIJLaXVmX3DyIAR0XIFAOqPC_8", "latitude": 36.1620936, "longitude": -115.1688472, "subtypes": "Neurologist"}, {"name": "Dr. Venkatachalam Veerappan, MD", "address": "9280 W Sunset Rd UNIT 236, Las Vegas, NV 89148", "city": "Las Vegas", "state": "Nevada", "state_code": "NV", "phone": "+1 702-732-2600", "website": "", "rating": 2.9, "reviews": 44, "place_id": "ChIJySiJ6ovEyIAR2e_7Xe4Fdno", "latitude": 36.0718284, "longitude": -115.2950169, "subtypes": "Neurologist"}, {"name": "Dr. Jimmy John N. Novero, MD", "address": "3150 N Tenaya Wy, Las Vegas, NV 89128", "city": "Las Vegas", "state": "Nevada", "state_code": "NV", "phone": "+1 702-685-8392", "website": "", "rating": "", "reviews": "", "place_id": "ChIJC-8Qv5rqyIARcFMHoj3GhwY", "latitude": 36.21666, "longitude": -115.24942, "subtypes": "Neurologist"}, {"name": "Dr. Toya Malone", "address": "3150 N Tenaya Wy #271, Las Vegas, NV 89128", "city": "Las Vegas", "state": "Nevada", "state_code": "NV", "phone": "+1 725-221-1568", "website": "http://mdneurology.org/", "rating": "", "reviews": "", "place_id": "ChIJ4Rz9vprqyIARfE4wKLZ4nSU", "latitude": 36.2167178, "longitude": -115.2494545, "subtypes": "Neurologist"}, {"name": "Gregory Logan Douds, MD Neurosurgery", "address": "3012 S Durango Dr, Las Vegas, NV 89117", "city": "Las Vegas", "state": "Nevada", "state_code": "NV", "phone": "+1 702-826-3830", "website": "https://lvnicsbs.com/", "rating": 3.9, "reviews": 27, "place_id": "ChIJmynYs0LByIARRoFaLT4cfQA", "latitude": 36.134498, "longitude": -115.2782947, "subtypes": "Neurosurgeon"}, {"name": "Garet Zaugg", "address": "2020 Wellness Wy, Las Vegas, NV 89106", "city": "Las Vegas", "state": "Nevada", "state_code": "NV", "phone": "+1 702-432-2233", "website": "https://www.lvneuro.com/content/dr-garet-zaugg", "rating": "", "reviews": "", "place_id": "ChIJqYBDrevDyIAREUwmrsFPDy8", "latitude": 36.1620968, "longitude": -115.1688472, "subtypes": "Neurologist"}, {"name": "Neurological Associates-Nevada: Lee Richard S MD", "address": "2831 Business Park Ct, Las Vegas, NV 89128", "city": "Las Vegas", "state": "Nevada", "state_code": "NV", "phone": "+1 702-951-7250", "website": "", "rating": "", "reviews": "", "place_id": "ChIJ1Wbhzx3FyIARcmcTmGSEyF0", "latitude": 36.2118168, "longitude": -115.2507135, "subtypes": "Neurosurgeon"}, {"name": "Dr. Stuart Kaplan", "address": "3012 S Durango Dr, Las Vegas, NV 89117", "city": "Las Vegas", "state": "Nevada", "state_code": "NV", "phone": "+1 702-835-0088", "website": "https://lvnicsbs.com/physicians/stuart-s-kaplan-md-facs/", "rating": 3, "reviews": 12, "place_id": "ChIJq6oavCDAyIARkafBBxTwF6c", "latitude": 36.134498, "longitude": -115.2782947, "subtypes": "Neurosurgeon"}, {"name": "Charles Bernick", "address": "888 W Bonneville Ave, Las Vegas, NV 89106", "city": "Las Vegas", "state": "Nevada", "state_code": "NV", "phone": "+1 702-483-6000", "website": "https://my.clevelandclinic.org/staff/13625-charles-bernick", "rating": "", "reviews": "", "place_id": "ChIJpVYJNZbDyIARtoeL3QkIiOA", "latitude": 36.1671898, "longitude": -115.1546977, "subtypes": "Neurologist"}, {"name": "Jimmy Novero, MD", "address": "3150 N Tenaya Wy # 140, Las Vegas, NV 89128", "city": "Las Vegas", "state": "Nevada", "state_code": "NV", "phone": "+1 702-962-9550", "website": "http://mountainview-hospital.com/service/neurology-and-neurosurgery", "rating": "", "reviews": "", "place_id": "ChIJTzcev5rqyIAReMYr_pO2tnI", "latitude": 36.2167137, "longitude": -115.2494142, "subtypes": "Neurologist"}, {"name": "Dr. Michael P. Krieger, MD", "address": "Hualapai Commons, 9811 W Charleston Blvd, Las Vegas, NV 89117", "city": "Las Vegas", "state": "Nevada", "state_code": "NV", "phone": "+1 702-388-4244", "website": "", "rating": "", "reviews": "", "place_id": "ChIJ-4scL6K_yIARErNmacJgNLg", "latitude": 36.1578494, "longitude": -115.3116101, "subtypes": "Neurologist"}, {"name": "SHERIF HASSAN AL-HAWAREY", "address": "653 N Town Center Dr Suite 402, Las Vegas, NV 89144", "city": "Las Vegas", "state": "Nevada", "state_code": "NV", "phone": "+1 702-212-6277", "website": "", "rating": 4.2, "reviews": 6, "place_id": "ChIJVVWV78S_yIARFnl6h2Z3xbg", "latitude": 36.180788, "longitude": -115.3155206, "subtypes": "Neurologist"}, {"name": "Vascular and Neuroscience Institute | Las Vegas", "address": "3201 S Maryland Pkwy #318, Las Vegas, NV 89109", "city": "Las Vegas", "state": "Nevada", "state_code": "NV", "phone": "+1 702-930-8259", "website": "https://www.vni-california.com/%3Futm_campaign%3Dgmb", "rating": 4.5, "reviews": 10, "place_id": "ChIJHbUnnTfFyIARlfkGwF5G8ik", "latitude": 36.1317187, "longitude": -115.137824, "subtypes": "Neurologist"}, {"name": "Neurology and Epilepsy Specialists", "address": "6330 W Flamingo Rd, Las Vegas, NV 89103", "city": "Las Vegas", "state": "Nevada", "state_code": "NV", "phone": "+1 702-796-5505", "website": "https://www.neurologyvegas.com/", "rating": 3.8, "reviews": 10, "place_id": "ChIJzeX4rLTHyIARJ2jfsUF1Qng", "latitude": 36.1150297, "longitude": -115.2299062, "subtypes": "Neurologist"}, {"name": "Dr. Erek Helseth", "address": "3201 S Maryland Pkwy #318, Las Vegas, NV 89109", "city": "Las Vegas", "state": "Nevada", "state_code": "NV", "phone": "+1 702-707-6960", "website": "https://www.vnsc.org/las-vegas/dr-helseth/", "rating": 5, "reviews": 1, "place_id": "ChIJq6pqV4vEyIARp-nMIO0xJH8", "latitude": 36.1317178, "longitude": -115.1378939, "subtypes": "Neurologist"}, {"name": "Mazia Adam Shafi, MD", "address": "4475 S Eastern Ave, Las Vegas, NV 89119", "city": "Las Vegas", "state": "Nevada", "state_code": "NV", "phone": "+1 702-877-5088", "website": "https://www.optum.com/en/care/providers/nv/mazia-adam-shafi-md-1649773458.html", "rating": 4.6, "reviews": 12, "place_id": "ChIJR3UmgX3FyIARSYn54Qhs298", "latitude": 36.1077518, "longitude": -115.1205913, "subtypes": "Neurologist"}, {"name": "Babylyn Buena, MD", "address": "3131 La Canada St Suite 101, Las Vegas, NV 89169", "city": "Las Vegas", "state": "Nevada", "state_code": "NV", "phone": "+1 702-731-8115", "website": "http://sunrisehospital.com/service/nevada-neurosciences-institute-nni", "rating": 5, "reviews": 1, "place_id": "ChIJ_6FPxYzEyIAR0lnaFWEWOgc", "latitude": 36.1325978, "longitude": -115.1333714, "subtypes": "Neurologist"}, {"name": "Dr. Miracle E. Wangsuwana, DO", "address": "1707 W Charleston Blvd, Las Vegas, NV 89102", "city": "Las Vegas", "state": "Nevada", "state_code": "NV", "phone": "+1 702-671-5070", "website": "", "rating": 4.1, "reviews": 9, "place_id": "ChIJ_WwL2JLDyIARyHhy2W5YBzc", "latitude": 36.1580564, "longitude": -115.1643523, "subtypes": "Neurologist"}, {"name": "Dr. Cyndi Tran, DO", "address": "9280 W Sunset Rd, Las Vegas, NV 89148", "city": "Las Vegas", "state": "Nevada", "state_code": "NV", "phone": "+1 702-732-2600", "website": "", "rating": 4.7, "reviews": 13, "place_id": "ChIJO0p0zOrDyIARmSfs9nl2Cdw", "latitude": 36.0718284, "longitude": -115.2950169, "subtypes": "Neurologist"}, {"name": "Gary DeAndrea, MD", "address": "3131 La Canada St Suite 101, Las Vegas, NV 89169", "city": "Las Vegas", "state": "Nevada", "state_code": "NV", "phone": "+1 702-731-8115", "website": "http://sunrisehospital.com/service/nevada-neurosciences-institute-nni", "rating": 3, "reviews": 2, "place_id": "ChIJ7eTM2ozEyIARgA38Woj4-kg", "latitude": 36.132668, "longitude": -115.1333227, "subtypes": "Neurologist"}, {"name": "Russell J. Shah, MD", "address": "2810 W Charleston Blvd E47, Las Vegas, NV 89102", "city": "Las Vegas", "state": "Nevada", "state_code": "NV", "phone": "+1 702-644-0500", "website": "http://www.emgneurology.com/", "rating": 4.3, "reviews": 3, "place_id": "ChIJf7cMJObDyIAR7_9hHhU4EpQ", "latitude": 36.1594063, "longitude": -115.1795173, "subtypes": "Neurologist"}, {"name": "Edgar Evangelista MD", "address": "2110 E Flamingo Rd ste 201, Las Vegas, NV 89119", "city": "Las Vegas", "state": "Nevada", "state_code": "NV", "phone": "+1 702-800-7831", "website": "https://doctors.centennialhillshospital.com/provider/Edgar%2BB%2BEvangelista/2440674", "rating": 3.9, "reviews": 37, "place_id": "ChIJh8GP0p3RyIARIGiB4FuATjc", "latitude": 36.1155661, "longitude": -115.1228727, "subtypes": "Neurologist"}, {"name": "Dr. Robert Mazo", "address": "1707 W Charleston Blvd # 290, Las Vegas, NV 89102", "city": "Las Vegas", "state": "Nevada", "state_code": "NV", "phone": "+1 702-250-2500", "website": "", "rating": 1, "reviews": 4, "place_id": "ChIJrSBp2JLDyIARmbHbqXHGHpM", "latitude": 36.1580145, "longitude": -115.1643325, "subtypes": "Neurologist"}, {"name": "EREK KERK HELSETH", "address": "3196 S Maryland Pkwy #410, Las Vegas, NV 89109", "city": "Las Vegas", "state": "Nevada", "state_code": "NV", "phone": "+1 702-731-6000", "website": "", "rating": 5, "reviews": 1, "place_id": "ChIJq6pqV4vEyIARGBYlpnzsNcU", "latitude": 36.1319199, "longitude": -115.1358324, "subtypes": "Neurologist"}, {"name": "Areeba Siddiqui, MD", "address": "4475 S Eastern Ave, Las Vegas, NV 89119", "city": "Las Vegas", "state": "Nevada", "state_code": "NV", "phone": "+1 702-877-5199", "website": "https://www.smalv.com/locations-nav/providers/nv/areeba-siddiqui-md/1750879474.html", "rating": 5, "reviews": 2, "place_id": "ChIJf6Koo57FyIARfI1O_jp4fqY", "latitude": 36.107775, "longitude": -115.1206056, "subtypes": "Neurologist"}, {"name": "Dr. Alfreda I. Maller, MD", "address": "3196 S Maryland Pkwy, Las Vegas, NV 89169", "city": "Las Vegas", "state": "Nevada", "state_code": "NV", "phone": "+1 702-796-5505", "website": "", "rating": 2.8, "reviews": 32, "place_id": "ChIJa0x5C-zEyIARU02MExA6dL0", "latitude": 36.1320887, "longitude": -115.1358762, "subtypes": "Pediatric neurologist"}, {"name": "Babylyn Buena, APRN", "address": "4475 S Eastern Ave, Las Vegas, NV 89119", "city": "Las Vegas", "state": "Nevada", "state_code": "NV", "phone": "+1 702-877-5199", "website": "https://www.smalv.com/locations-nav/providers/nv/babylyn-buena-aprn/1386188993.html", "rating": "", "reviews": "", "place_id": "ChIJgdIniUnFyIARKNs_F5mJka0", "latitude": 36.1077518, "longitude": -115.1205913, "subtypes": "Neurologist"}, {"name": "Dr. Jessica Knirk", "address": "7751 W Flamingo Rd # A100, Las Vegas, NV 89147", "city": "Las Vegas", "state": "Nevada", "state_code": "NV", "phone": "+1 702-804-1212", "website": "https://www.cnsnevada.com/jessica-a-knirk-md/", "rating": 4.4, "reviews": 126, "place_id": "ChIJ4cBl_DfHyIARgoPnjSOL9w8", "latitude": 36.1142245, "longitude": -115.2597445, "subtypes": "Neurologist"}, {"name": "Nagy Abraham J MD", "address": "8285 W Arby Ave, Las Vegas, NV 89113", "city": "Las Vegas", "state": "Nevada", "state_code": "NV", "phone": "+1 702-432-3224", "website": "https://rymaps.xyz/business/nagy-abraham-j-md-3350p8", "rating": 3.8, "reviews": 20, "place_id": "ChIJqUGmnfLHyIARctvShRlQSDo", "latitude": 36.0583209, "longitude": -115.2721277, "subtypes": "Neurologist"}, {"name": "Bess Lee Chang", "address": "8530 W Sunset Rd #350, Las Vegas, NV 89113", "city": "Las Vegas", "state": "Nevada", "state_code": "NV", "phone": "+1 702-851-1065", "website": "", "rating": 4, "reviews": 5, "place_id": "ChIJf4in1YXHyIARqgo1C4hDtD4", "latitude": 36.0714072, "longitude": -115.2777014, "subtypes": "Neurologist"}, {"name": "Edgar Jay Evangelista", "address": "6040 Badura Ave #120, Las Vegas, NV 891184717", "city": "Las Vegas", "state": "Nevada", "state_code": "NV", "phone": "", "website": "", "rating": 5, "reviews": 1, "place_id": "ChIJs_johzrGyIARDA7yLOyExtc", "latitude": 36.0632248, "longitude": -115.2238007, "subtypes": "Neurologist"}, {"name": "Nidhi Mehta, MD", "address": "10001 S Eastern Ave # 203, Henderson, NV 89052", "city": "Henderson", "state": "Nevada", "state_code": "NV", "phone": "+1 702-616-5915", "website": "https://www.dignityhealth.org/ourdoctors/1982707774-Nidhi-Mehta", "rating": 4.4, "reviews": 12, "place_id": "ChIJ605HnQ7PyIARePF5KQ542Ao", "latitude": 36.0049325, "longitude": -115.11494, "subtypes": "Neurologist"}, {"name": "Dr. Frederick T. Boulware, MD", "address": "6410 Medical Center St Ste. A, Las Vegas, NV 89148", "city": "Las Vegas", "state": "Nevada", "state_code": "NV", "phone": "+1 702-796-8500", "website": "http://www.chopramd.com/", "rating": "", "reviews": "", "place_id": "ChIJk4xsZny4yIARWUPrboEx5o0", "latitude": 36.071974, "longitude": -115.2918151, "subtypes": "Neurologist"}, {"name": "Arlyn Valencia", "address": "7150 W Sunset Rd, Las Vegas, NV 89113", "city": "Las Vegas", "state": "Nevada", "state_code": "NV", "phone": "", "website": "", "rating": 5, "reviews": 6, "place_id": "ChIJq6rarbDHyIARP9ZSfW6j9TY", "latitude": 36.0709688, "longitude": -115.2475939, "subtypes": "Neurologist"}, {"name": "Jimmy John Novero, MD", "address": "4750 W Oakey Blvd, Las Vegas, NV 89102", "city": "Las Vegas", "state": "Nevada", "state_code": "NV", "phone": "+1 702-877-5199", "website": "https://www.optum.com/en/care/providers/nv/jimmy-john-nobleza-novero-md-1376502880.html", "rating": 5, "reviews": 1, "place_id": "ChIJzQJ_QSnByIARK99b9l0v5Js", "latitude": 36.1522964, "longitude": -115.2066191, "subtypes": "Neurologist"}, {"name": "Duncan Gilmour", "address": "2020 Wellness Wy #300, Las Vegas, NV 89106", "city": "Las Vegas", "state": "Nevada", "state_code": "NV", "phone": "+1 702-432-2233", "website": "https://www.lvneuro.com/content/dr-duncan-gilmour", "rating": 1, "reviews": 1, "place_id": "ChIJe5xDrevDyIAR4VsXjeYFVWE", "latitude": 36.1620936, "longitude": -115.1688472, "subtypes": "Neurologist"}, {"name": "Dr. Timothy W. West, MD", "address": "888 W Bonneville Ave, Las Vegas, NV 89106", "city": "Las Vegas", "state": "Nevada", "state_code": "NV", "phone": "+1 702-483-6000", "website": "http://my.clevelandclinic.org/", "rating": 3, "reviews": 1, "place_id": "ChIJpVYJNZbDyIARe23VWoDk_UE", "latitude": 36.1671898, "longitude": -115.1546977, "subtypes": "Neurologist"}, {"name": "Rooman Ahad", "address": "630 S Rancho Dr A, Las Vegas, NV 891064849", "city": "Las Vegas", "state": "Nevada", "state_code": "NV", "phone": "+1 702-998-9505", "website": "", "rating": 3, "reviews": 2, "place_id": "ChIJ__8_0OnDyIARTyLPWuALG7Q", "latitude": 36.1631147, "longitude": -115.1734458, "subtypes": "Neurologist"}, {"name": "Odinachi Oguh", "address": "888 W Bonneville Ave, Las Vegas, NV 89106", "city": "Las Vegas", "state": "Nevada", "state_code": "NV", "phone": "+1 702-331-7041", "website": "https://my.clevelandclinic.org/staff/24934-odinachi-oguh", "rating": 4, "reviews": 4, "place_id": "ChIJu25w6JfDyIARWo5_heHYklU", "latitude": 36.1671953, "longitude": -115.1547018, "subtypes": "Neurologist"}, {"name": "Forage John w MD", "address": "2350 W Charleston Blvd, Las Vegas, NV 89102", "city": "Las Vegas", "state": "Nevada", "state_code": "NV", "phone": "+1 702-877-5347", "website": "", "rating": 5, "reviews": 2, "place_id": "ChIJVa1c2-jDyIARxkHBIVM5H3o", "latitude": 36.1591904, "longitude": -115.1748106, "subtypes": "Neurologist"}, {"name": "Dr. Mouchir S. Harb, MD", "address": "6276 S Rainbow Blvd #100, Las Vegas, NV 89118", "city": "Las Vegas", "state": "Nevada", "state_code": "NV", "phone": "+1 702-220-5557", "website": "http://lvnsi.com/", "rating": 3.5, "reviews": 67, "place_id": "ChIJm8UxPwHHyIARWIy5KsfuJmw", "latitude": 36.074519, "longitude": -115.2410317, "subtypes": "Neurologist"}, {"name": "Dr. Venkatachalam Veerappan, MD", "address": "620 Shadow Ln, Las Vegas, NV 89106", "city": "Las Vegas", "state": "Nevada", "state_code": "NV", "phone": "+1 702-477-6572", "website": "", "rating": 4, "reviews": 4, "place_id": "ChIJO0p0zOrDyIAREIwmKtRuoJI", "latitude": 36.1638024, "longitude": -115.1657371, "subtypes": "Neurologist"}, {"name": "SHERIF HASSAN AL-HAWAREY", "address": "1409 E Lake Mead Blvd, North Las Vegas, NV 890307120", "city": "North Las Vegas", "state": "Nevada", "state_code": "NV", "phone": "+1 702-649-7711", "website": "", "rating": 3.7, "reviews": 3, "place_id": "ChIJ__8PGh7DyIARPlRb5HjYcl8", "latitude": 36.1947954, "longitude": -115.1226297, "subtypes": "Neurologist"}, {"name": "Estanislao Lydia B MD", "address": "1815 E Lake Mead Blvd # 314, North Las Vegas, NV 89030", "city": "North Las Vegas", "state": "Nevada", "state_code": "NV", "phone": "", "website": "", "rating": 5, "reviews": 3, "place_id": "ChIJGyXE2OHCyIARrElnFzJ4oa8", "latitude": 36.1956262, "longitude": -115.1217492, "subtypes": "Neurologist"}, {"name": "Ryan Walsh, MD, PhD", "address": "888 W Bonneville Ave, Las Vegas, NV 89106", "city": "Las Vegas", "state": "Nevada", "state_code": "NV", "phone": "+1 702-483-6000", "website": "https://my.clevelandclinic.org/staff/1026-r-matthew-walsh", "rating": 5, "reviews": 1, "place_id": "ChIJpVYJNZbDyIAREYF0WFM0Djc", "latitude": 36.1672805, "longitude": -115.1547629, "subtypes": "Neurologist"}, {"name": "Dr. Devraj Chavda, MD", "address": "6330 W Flamingo Rd, Las Vegas, NV 89103", "city": "Las Vegas", "state": "Nevada", "state_code": "NV", "phone": "+1 702-796-5505", "website": "", "rating": 5, "reviews": 8, "place_id": "ChIJ__-vDOzEyIARD9kSVBbWYqE", "latitude": 36.1150297, "longitude": -115.2299062, "subtypes": "Pediatric neurologist"}, {"name": "LE HANH HUA M.D.", "address": "888 W Bonneville Ave, Las Vegas, NV 89106", "city": "Las Vegas", "state": "Nevada", "state_code": "NV", "phone": "+1 702-483-6000", "website": "", "rating": "", "reviews": "", "place_id": "ChIJxyXV55fDyIARF-xoucSq34k", "latitude": 36.1672476, "longitude": -115.1546546, "subtypes": "Neurologist"}, {"name": "Kelly Schmidt, MD", "address": "3006 S Maryland Pkwy #765, Las Vegas, NV 89109", "city": "Las Vegas", "state": "Nevada", "state_code": "NV", "phone": "+1 702-731-8000", "website": "http://sunrisehospital.com/service/neurosurgery", "rating": 4.8, "reviews": 5, "place_id": "ChIJg8j8CozEyIARPZAr1rDNotw", "latitude": 36.135473, "longitude": -115.1353, "subtypes": "Neurosurgeon"}, {"name": "Intermountain Health Maryland Parkway Pediatric Neurosurgery Clinic", "address": "3196 S Maryland Pkwy #410, Las Vegas, NV 89109", "city": "Las Vegas", "state": "Nevada", "state_code": "NV", "phone": "+1 702-790-7970", "website": "https://intermountainhealthcare.org/locations/intermountain-pediatric-neurosurgery-las-vegas", "rating": 1, "reviews": 1, "place_id": "ChIJWTuge6zFyIAR0STS3xIXZsw", "latitude": 36.1319199, "longitude": -115.1358324, "subtypes": "Neurosurgeon"}, {"name": "Dr Conners", "address": "5701 W Charleston Blvd, Las Vegas, NV 89146", "city": "Las Vegas", "state": "Nevada", "state_code": "NV", "phone": "+1 702-877-9514", "website": "", "rating": "", "reviews": "", "place_id": "ChIJn6vmNRHByIARfWO_uRJUt7s", "latitude": 36.1587943, "longitude": -115.2199645, "subtypes": "Neurologist"}, {"name": "Dr. Malihe Rivaz", "address": "2020 Wellness Wy #300, Las Vegas, NV 89106", "city": "Las Vegas", "state": "Nevada", "state_code": "NV", "phone": "+1 702-432-2233", "website": "", "rating": "", "reviews": "", "place_id": "ChIJe5xDrevDyIARe7hhEtBV31g", "latitude": 36.1620936, "longitude": -115.1688472, "subtypes": "Neurologist"}, {"name": "Tamer Ammar", "address": "1800 W Charleston Blvd, Las Vegas, NV 89102", "city": "Las Vegas", "state": "Nevada", "state_code": "NV", "phone": "+1 702-383-2000", "website": "", "rating": "", "reviews": "", "place_id": "ChIJCacae-vDyIAR5UPpn2dSgMA", "latitude": 36.160338, "longitude": -115.1675595, "subtypes": "Neurologist"}, {"name": "Cummings Jeffrey L MD", "address": "888 W Bonneville Ave, Las Vegas, NV 89106", "city": "Las Vegas", "state": "Nevada", "state_code": "NV", "phone": "+1 702-483-6000", "website": "", "rating": "", "reviews": "", "place_id": "ChIJpVYJNZbDyIARohru9qNjHDU", "latitude": 36.1672476, "longitude": -115.1546547, "subtypes": "Neurologist"}, {"name": "Simon Farrow", "address": "2020 Wellness Wy #300, Las Vegas, NV 891064145", "city": "Las Vegas", "state": "Nevada", "state_code": "NV", "phone": "+1 702-432-2233", "website": "", "rating": "", "reviews": "", "place_id": "ChIJpS60CuyBt4cRZgL4oLw_iuY", "latitude": 36.1620936, "longitude": -115.1688472, "subtypes": "Neurologist"}, {"name": "Monica Chacon, MD", "address": "2380 W Horizon Ridge Pkwy Suite 120, Henderson, NV 89052", "city": "Henderson", "state": "Nevada", "state_code": "NV", "phone": "+1 702-247-9994", "website": "https://neurocnv.com/monica-chacon-md/", "rating": 4.2, "reviews": 193, "place_id": "ChIJ-7eroKPRyIARZDYCAvz-1fk", "latitude": 36.0065355, "longitude": -115.0913347, "subtypes": "Pediatric neurologist"}, {"name": "Dr. Lisa D. Cohen, MD", "address": "2430 W Horizon Ridge Pkwy, Henderson, NV 89052", "city": "Henderson", "state": "Nevada", "state_code": "NV", "phone": "+1 702-247-9994", "website": "http://neurocnv.com/", "rating": 2.7, "reviews": 3, "place_id": "ChIJO6VNXtvRyIARQtPaYkj0Oys", "latitude": 36.0062318, "longitude": -115.0926088, "subtypes": "Pediatric neurologist"}, {"name": "Dr. Steven A. Glyman, MD", "address": "880 Seven Hills Dr # 140, Henderson, NV 89052", "city": "Henderson", "state": "Nevada", "state_code": "NV", "phone": "+1 702-731-9110", "website": "", "rating": "", "reviews": "", "place_id": "ChIJBVKAZ3TOyIARJbDyuneMnwE", "latitude": 35.9957549, "longitude": -115.1215642, "subtypes": "Neurologist"}, {"name": "Katharine Miller", "address": "2430 W Horizon Ridge Pkwy, Henderson, NV 890522648", "city": "Henderson", "state": "Nevada", "state_code": "NV", "phone": "+1 702-247-9994", "website": "", "rating": 4.9, "reviews": 64, "place_id": "ChIJVVWldP3RyIARaQ4jz1gZVoo", "latitude": 36.0062318, "longitude": -115.0926088, "subtypes": "Neurophysiologist"}, {"name": "Dr. James S. Forage, MD", "address": "861 Coronado Center Dr # 200, Henderson, NV 89052", "city": "Henderson", "state": "Nevada", "state_code": "NV", "phone": "+1 702-896-0940", "website": "", "rating": 2.9, "reviews": 63, "place_id": "ChIJ7zPTIQzOyIAR708x9kCT_3A", "latitude": 36.0007362, "longitude": -115.112091, "subtypes": "Neurosurgeon"}, {"name": "SPINE: Jeffrey Gross, M.D.", "address": "1661 W Horizon Ridge Pkwy STE 280, Henderson, NV 89012", "city": "Henderson", "state": "Nevada", "state_code": "NV", "phone": "+1 949-364-6888", "website": "https://ifixspines.com/", "rating": 5, "reviews": 31, "place_id": "ChIJ81eRGh3RyIAR907FF7QuOaE", "latitude": 36.0141447, "longitude": -115.0584854, "subtypes": "Neurosurgeon"}, {"name": "Amalia Geller", "address": "10624 S Eastern Ave, Henderson, NV 89052", "city": "Henderson", "state": "Nevada", "state_code": "NV", "phone": "+1 702-800-5393", "website": "", "rating": "", "reviews": "", "place_id": "ChIJVVUVHwfOyIARmpxUe1O6flQ", "latitude": 35.9986212, "longitude": -115.1015505, "subtypes": "Neurologist"}, {"name": "Timothy Louie, MD, Swift Institute, Sparks", "address": "780 Vista Blvd #100, Sparks, NV 89434", "city": "Sparks", "state": "Nevada", "state_code": "NV", "phone": "+1 775-348-8800", "website": "https://theswiftinstitute.com/", "rating": 5, "reviews": 17, "place_id": "ChIJmYYtzIQ_mYARFlAlfcUrb-k", "latitude": 39.54144369999999, "longitude": -119.7029823, "subtypes": "Neurologist"}, {"name": "Michael Moore, MD", "address": "5590 Kietzke Ln Ste 101, Reno, NV 89511", "city": "Reno", "state": "Nevada", "state_code": "NV", "phone": "+1 775-323-2080", "website": "http://www.sierraneurosurgery.com/", "rating": 4.9, "reviews": 239, "place_id": "ChIJFyoXTjg_mYARNGA-juJLxzM", "latitude": 39.4629954, "longitude": -119.7873419, "subtypes": "Neurosurgeon"}, {"name": "Dr. Jay K. Morgan, MD", "address": "5070 Ion Dr #200, Sparks, NV 89436", "city": "Sparks", "state": "Nevada", "state_code": "NV", "phone": "+1 775-323-2080", "website": "http://www.sierraneurosurgery.com/", "rating": 4.9, "reviews": 69, "place_id": "ChIJXZ5rGlc5mYARqkQA60_Wk8I", "latitude": 39.5845439, "longitude": -119.7304479, "subtypes": "Neurosurgeon"}, {"name": "Dr. Dante F. Vacca, MD, FAANS", "address": "5070 Ion Dr #200, Sparks, NV 89436", "city": "Sparks", "state": "Nevada", "state_code": "NV", "phone": "+1 775-323-2080", "website": "http://www.sierraneurosurgery.com/", "rating": 4.9, "reviews": 81, "place_id": "ChIJRe51jqc5mYAR-oCF-vtOkKk", "latitude": 39.5845439, "longitude": -119.7304479, "subtypes": "Neurosurgeon"}, {"name": "Yen-Yi Peng, MD", "address": "500 Damonte Ranch Pkwy Suite 1030, Reno, NV 89521", "city": "Reno", "state": "Nevada", "state_code": "NV", "phone": "+1 775-432-6189", "website": "https://amityneurology.com/", "rating": 3.2, "reviews": 20, "place_id": "ChIJg6ZXsq5AmYAR-HxHFzdt62k", "latitude": 39.4198776, "longitude": -119.7520663, "subtypes": "Neurologist"}, {"name": "Michael H Song, MD", "address": "10791 Double R Blvd, Reno, NV 89521", "city": "Reno", "state": "Nevada", "state_code": "NV", "phone": "+1 775-312-8120", "website": "https://www.advancedneurosurgery.net/%3Futm_source%3Dgmb_auth", "rating": 4.8, "reviews": 161, "place_id": "ChIJWZWr7jBHmYARIRwTvj-UyRw", "latitude": 39.4260978, "longitude": -119.7519149, "subtypes": "Neurosurgeon"}, {"name": "Rima S. Rindler, MD", "address": "5070 Ion Dr #200, Sparks, NV 89436", "city": "Sparks", "state": "Nevada", "state_code": "NV", "phone": "+1 775-323-2080", "website": "http://www.sierraneurosurgery.com/", "rating": 5, "reviews": 25, "place_id": "ChIJnVTgIDA5mYAR-RIgcAv7UZ0", "latitude": 39.5845439, "longitude": -119.7304479, "subtypes": "Neurosurgeon"}, {"name": "Dr. Marshall Tolbert, MD", "address": "5070 Ion Dr #200, Sparks, NV 89436", "city": "Sparks", "state": "Nevada", "state_code": "NV", "phone": "+1 775-323-2080", "website": "https://www.sierraneurosurgery.com/", "rating": 4.9, "reviews": 45, "place_id": "ChIJwVrPAb85mYAR97WNRbQjeyA", "latitude": 39.5845439, "longitude": -119.7304479, "subtypes": "Neurosurgeon"}, {"name": "Dr. Christopher Demers, MD, FAANS", "address": "5070 Ion Dr #200, Sparks, NV 89436", "city": "Sparks", "state": "Nevada", "state_code": "NV", "phone": "+1 775-323-2080", "website": "http://www.sierraneurosurgery.com/", "rating": 5, "reviews": 48, "place_id": "ChIJP32nHHI5mYARvfxw75ZEieA", "latitude": 39.5845439, "longitude": -119.7304479, "subtypes": "Neurosurgeon"}, {"name": "Dr. Marshall Tolbert, MD", "address": "5590 Kietzke Ln Ste 101, Reno, NV 89511", "city": "Reno", "state": "Nevada", "state_code": "NV", "phone": "+1 775-323-2080", "website": "http://www.sierraneurosurgery.com/", "rating": 4.9, "reviews": 135, "place_id": "ChIJYR8rAYA_mYARQPT1b08p75o", "latitude": 39.4629954, "longitude": -119.7873419, "subtypes": "Neurosurgeon"}, {"name": "Bobby Niemann, MD", "address": "10539 Professional Cir Suite 200, Reno, NV 89521", "city": "Reno", "state": "Nevada", "state_code": "NV", "phone": "+1 775-445-5464", "website": "https://www.carsontahoe.com/bobby-niemann.html", "rating": 5, "reviews": 1, "place_id": "ChIJJf8RUoYVmYARZd3K22o7zac", "latitude": 39.4294294, "longitude": -119.7566785, "subtypes": "Neurologist"}, {"name": "Verena Samara, MD", "address": "10539 Professional Cir Suite 200, Reno, NV 89521", "city": "Reno", "state": "Nevada", "state_code": "NV", "phone": "+1 775-445-5464", "website": "https://www.carsontahoe.com/verena-samara.html", "rating": "", "reviews": "", "place_id": "ChIJCwgXOoEVmYARvvddr78mEso", "latitude": 39.4294294, "longitude": -119.7566785, "subtypes": "Neurologist"}, {"name": "Dr. James B. Ragland, MD", "address": "2219 5th St, Elko, NV 89801", "city": "Elko", "state": "Nevada", "state_code": "NV", "phone": "+1 775-777-9669", "website": "http://www.elkospine.com/", "rating": 3, "reviews": 2, "place_id": "ChIJ0yBZCQUHpoARnBWRbMZiC0s", "latitude": 40.8429795, "longitude": -115.7782748, "subtypes": "Neurologist"}, {"name": "Mullon Darlene MD", "address": "1995 Errecart Blvd # 110, Elko, NV 89801", "city": "Elko", "state": "Nevada", "state_code": "NV", "phone": "+1 775-738-8877", "website": "", "rating": "", "reviews": "", "place_id": "ChIJEbiqo5kApoARFFYCIpUTNpw", "latitude": 40.8216389, "longitude": -115.7302504, "subtypes": "Neurologist"}, {"name": "Jonathan W. Spivack, MD", "address": "75 Pringle Way Ste 401, Suite 401, Reno, NV 89502", "city": "Reno", "state": "Nevada", "state_code": "NV", "phone": "+1 775-982-2970", "website": "https://www.renown.org/doctor/jonathan_spivack/", "rating": 2.9, "reviews": 17, "place_id": "ChIJ2Uotca5AmYARHP_oDhVGo9Y", "latitude": 39.5264568, "longitude": -119.7948043, "subtypes": "Neurologist"}, {"name": "Dr. STEPHANIE C. SMITH", "address": "2385 E Prater Way, Sparks, NV 89434", "city": "Sparks", "state": "Nevada", "state_code": "NV", "phone": "+1 775-356-4888", "website": "http://www.nnmg.com/", "rating": "", "reviews": "", "place_id": "ChIJSzYjbqA-mYAR0MpKuNIYJBk", "latitude": 39.541959, "longitude": -119.6970407, "subtypes": "Neurologist"}, {"name": "Rodriguez Gerardo D MD", "address": "1190 Ryland St, Reno, NV 89502", "city": "Reno", "state": "Nevada", "state_code": "NV", "phone": "+1 775-322-7272", "website": "https://www.renown.org/find-a-doctor/gerardo-rodriguez-gomez", "rating": 4.8, "reviews": 17, "place_id": "ChIJX-mrN69AmYARtI_yheT5wHA", "latitude": 39.5234868, "longitude": -119.7952368, "subtypes": "Pediatric neurologist"}, {"name": "Gerard L Hershewe, DO", "address": "75 Pringle Way #605, Reno, NV 89502", "city": "Reno", "state": "Nevada", "state_code": "NV", "phone": "+1 775-329-4500", "website": "https://www.renown.org/find-a-doctor/gerard-hershewe", "rating": 4.6, "reviews": 35, "place_id": "ChIJB7E9aalAmYAREE_SXfjxeCc", "latitude": 39.5254136, "longitude": -119.7944069, "subtypes": "Neurologist"}, {"name": "Dr. Stephen P. Raps, MD", "address": "2345 E Prater Way # 107A, Sparks, NV 89434", "city": "Sparks", "state": "Nevada", "state_code": "NV", "phone": "+1 775-352-5300", "website": "http://www.nnmg.com/", "rating": "", "reviews": "", "place_id": "ChIJr3qWwZ8-mYARByXk16E_HxI", "latitude": 39.5390321, "longitude": -119.6976605, "subtypes": "Neurologist"}, {"name": "Renown Institute for Neurosciences", "address": "75 Pringle Way STE 401, Reno, NV 89502", "city": "Reno", "state": "Nevada", "state_code": "NV", "phone": "+1 775-982-2970", "website": "https://www.renown.org/locations/renown-institute-for-neurosciences/%3Futm_source%3DGMBlisting%26utm_medium%3Dorganic%26utm_campaign%3Dgmb", "rating": "", "reviews": "", "place_id": "ChIJtb0js65AmYARIQQSC2j9yUE", "latitude": 39.5263745, "longitude": -119.7952152, "subtypes": "Neurologist"}, {"name": "Lee M Gerwitz, MD", "address": "75 Pringle Way Ste 401, Suite 401, Reno, NV 89502", "city": "Reno", "state": "Nevada", "state_code": "NV", "phone": "+1 775-982-2970", "website": "https://www.renown.org/doctor/lee_gerwitz/", "rating": 4.6, "reviews": 11, "place_id": "ChIJo-mAypNBmYARAjficZjpxEg", "latitude": 39.5264568, "longitude": -119.7948043, "subtypes": "Neurologist"}, {"name": "Jonathan E Artz, MD", "address": "75 Pringle Way Ste 401, Suite 401, Reno, NV 89502", "city": "Reno", "state": "Nevada", "state_code": "NV", "phone": "+1 775-982-2970", "website": "https://www.renown.org/find-a-doctor/jonathan-artz", "rating": 5, "reviews": 8, "place_id": "ChIJ_UTQaaVBmYARCoCDHqjdBBY", "latitude": 39.5264568, "longitude": -119.7948043, "subtypes": "Neurologist"}, {"name": "Jorge Lopez", "address": "75 Pringle Way #401, Reno, NV 89502", "city": "Reno", "state": "Nevada", "state_code": "NV", "phone": "+1 775-982-2970", "website": "https://www.renown.org/", "rating": 5, "reviews": 2, "place_id": "ChIJvwfnsq5AmYARcIx_ypI_hpE", "latitude": 39.5264575, "longitude": -119.7953388, "subtypes": "Neurologist"}, {"name": "Dr. Rolando Ania", "address": "75 Pringle Way #401, Reno, NV 89502", "city": "Reno", "state": "Nevada", "state_code": "NV", "phone": "+1 775-982-5000", "website": "", "rating": 3.7, "reviews": 3, "place_id": "ChIJbwTssq5AmYARRATDPY88sOU", "latitude": 39.52643279999999, "longitude": -119.7948288, "subtypes": "Neurologist"}, {"name": "Kevin R Chysna, MD", "address": "75 Pringle Way #401, Reno, NV 89502", "city": "Reno", "state": "Nevada", "state_code": "NV", "phone": "+1 775-982-2970", "website": "https://www.renown.org/find-a-doctor/kevin-chysna", "rating": 5, "reviews": 3, "place_id": "ChIJ42dnTDdBmYAR3DyN8uMJ2rE", "latitude": 39.5264568, "longitude": -119.7948043, "subtypes": "Neurologist"}, {"name": "Dr. Melissa Bloch, MD", "address": "1000 Locust St, Reno, NV 89502", "city": "Reno", "state": "Nevada", "state_code": "NV", "phone": "+1 775-786-7200", "website": "http://www.reno.va.gov/", "rating": 5, "reviews": 3, "place_id": "ChIJC7-gWKNAmYARYKLe9XkdwVI", "latitude": 39.5163594, "longitude": -119.7993273, "subtypes": "Neurologist"}, {"name": "Melissa Pulver Bloch, MD", "address": "75 Pringle Way Ste 401, Suite 401, Reno, NV 89502", "city": "Reno", "state": "Nevada", "state_code": "NV", "phone": "+1 775-982-5000", "website": "https://www.renown.org/find-a-doctor/melissa-bloch", "rating": 5, "reviews": 1, "place_id": "ChIJ2Uotca5AmYARd8W_APWn0sA", "latitude": 39.5264568, "longitude": -119.7948043, "subtypes": "Neurologist"}, {"name": "Davee Thomas S MD", "address": "2385 E Prater Way Suite 200, Sparks, NV 89434", "city": "Sparks", "state": "Nevada", "state_code": "NV", "phone": "+1 775-323-6700", "website": "", "rating": "", "reviews": "", "place_id": "ChIJSzYjbqA-mYARJmIk7YOHFtA", "latitude": 39.5419469, "longitude": -119.6970107, "subtypes": "Neurologist"}, {"name": "George Kim Bigley, MD", "address": "75 Pringle Way # 910, Reno, NV 89502", "city": "Reno", "state": "Nevada", "state_code": "NV", "phone": "+1 775-324-2234", "website": "https://www.renown.org/find-a-doctor/george-bigley", "rating": 3.8, "reviews": 10, "place_id": "ChIJv5eT3q1AmYARFVrmenMj9e4", "latitude": 39.5254136, "longitude": -119.7944069, "subtypes": "Neurologist"}, {"name": "Advanced Neurosurgery", "address": "1470 Medical Pkwy #240, Carson City, NV 89703", "city": "Carson City", "state": "Nevada", "state_code": "NV", "phone": "+1 775-269-4717", "website": "http://www.advancedneurosurgery.net/", "rating": 4.1, "reviews": 14, "place_id": "ChIJD_6NBzILmYARBhB_a1chS6c", "latitude": 39.2009368, "longitude": -119.7855726, "subtypes": "Neurosurgeon"}, {"name": "Michael H Song, MD", "address": "1470 Medical Pkwy #240, Carson City, NV 89703", "city": "Carson City", "state": "Nevada", "state_code": "NV", "phone": "+1 775-323-6100", "website": "https://www.advancedneurosurgery.net/%3Futm_source%3Dgmb_auth", "rating": 4.5, "reviews": 8, "place_id": "ChIJD_6NBzILmYARyVOLd0kyuT8", "latitude": 39.2009368, "longitude": -119.7855726, "subtypes": "Neurosurgeon"}, {"name": "Michael Moore, MD", "address": "2874 N Carson St # 200, Carson City, NV 89706", "city": "Carson City", "state": "Nevada", "state_code": "NV", "phone": "+1 775-323-2080", "website": "http://www.sierraneurosurgery.com/", "rating": 4.9, "reviews": 24, "place_id": "ChIJR7LOoyILmYAR3PW1611v8EE", "latitude": 39.1853335, "longitude": -119.7709778, "subtypes": "Neurosurgeon"}, {"name": "Edward Perry III, MD, Swift Institute, Carson City Medical Pkwy", "address": "1470 Medical Pkwy #220, Carson City, NV 89703", "city": "Carson City", "state": "Nevada", "state_code": "NV", "phone": "+1 775-348-8800", "website": "https://theswiftinstitute.com/", "rating": 5, "reviews": 1, "place_id": "ChIJp6Ufry0LmYAR_XaWgmCtdkI", "latitude": 39.2008726, "longitude": -119.785564, "subtypes": "Neurosurgeon"}, {"name": "Aaron Heide", "address": "1761 College Pkwy Ste 115, Carson City, NV 89706", "city": "Carson City", "state": "Nevada", "state_code": "NV", "phone": "+1 775-357-9387", "website": "", "rating": "", "reviews": "", "place_id": "ChIJVVXlU_EKmYAR4VZqdfUPqCA", "latitude": 39.1897809, "longitude": -119.7487011, "subtypes": "Neurologist"}, {"name": "Advanced Neurosurgery", "address": "10791 Double R Blvd, Reno, NV 89521", "city": "Reno", "state": "Nevada", "state_code": "NV", "phone": "+1 775-312-8120", "website": "http://www.advancedneurosurgery.net/", "rating": 4.9, "reviews": 273, "place_id": "ChIJWZWr7jBHmYARu9D1u8Cr19w", "latitude": 39.4260902, "longitude": -119.7519226, "subtypes": "Neurosurgeon"}, {"name": "Christopher Young Way, DO", "address": "75 Pringle Way Ste 401, Suite 401, Reno, NV 89502", "city": "Reno", "state": "Nevada", "state_code": "NV", "phone": "+1 775-982-2970", "website": "", "rating": 1.8, "reviews": 11, "place_id": "ChIJp2m5wrdBmYART9lZl3Z-zQ0", "latitude": 39.52643279999999, "longitude": -119.7948288, "subtypes": "Neurologist"}, {"name": "Danny Truong, DO", "address": "75 Pringle Way, Reno, NV 89502", "city": "Reno", "state": "Nevada", "state_code": "NV", "phone": "", "website": "", "rating": "", "reviews": "", "place_id": "ChIJoejO6UBBmYARfME-hGkQvXI", "latitude": 39.5261807, "longitude": -119.7946832, "subtypes": "Neurologist"}, {"name": "Stacey B Knobler", "address": "3596 Baker Ln, Reno, NV 895095458", "city": "Reno", "state": "Nevada", "state_code": "NV", "phone": "", "website": "", "rating": 1, "reviews": 1, "place_id": "ChIJSbbI8HxAmYARmVdD6cKzM_s", "latitude": 39.4900908, "longitude": -119.7980101, "subtypes": "Neurologist"}, {"name": "Joseph Griffin Rebideaux, APRN", "address": "1155 Mill St W14 W14, Reno, NV 89502", "city": "Reno", "state": "Nevada", "state_code": "NV", "phone": "+1 775-982-7878", "website": "https://www.renown.org/find-a-doctor/joseph-rebideaux", "rating": "", "reviews": "", "place_id": "ChIJX6-cWwdBmYARshqosv6ZX10", "latitude": 39.5256288, "longitude": -119.7965681, "subtypes": "Neurologist"}, {"name": "Rubin Steven E MD", "address": "6119 Ridgeview Ct, Reno, NV 89519", "city": "Reno", "state": "Nevada", "state_code": "NV", "phone": "+1 775-329-1019", "website": "", "rating": 3, "reviews": 2, "place_id": "ChIJeTmH5WpAmYARz-BKkRVeP4c", "latitude": 39.472485, "longitude": -119.8099019, "subtypes": "Neurologist"}, {"name": "Jose A. Mari Acevedo, MD", "address": "1155 Mill St F7, Reno, NV 89502", "city": "Reno", "state": "Nevada", "state_code": "NV", "phone": "+1 775-982-7878", "website": "", "rating": "", "reviews": "", "place_id": "ChIJJXB4Gh1BmYARjmnP2Q8FoOk", "latitude": 39.5256288, "longitude": -119.7965681, "subtypes": "Neurologist"}, {"name": "Dr. John H. Peacock, MD", "address": "1000 Locust St, Reno, NV 89502", "city": "Reno", "state": "Nevada", "state_code": "NV", "phone": "+1 775-786-7200", "website": "http://www.reno.va.gov/", "rating": "", "reviews": "", "place_id": "ChIJC7-gWKNAmYARinSBGxVCEFY", "latitude": 39.5163594, "longitude": -119.7993273, "subtypes": "Neurologist"}, {"name": "ROLANDO ANIA", "address": "1155 Mill St, Reno, NV 89502", "city": "Reno", "state": "Nevada", "state_code": "NV", "phone": "+1 775-982-4100", "website": "", "rating": "", "reviews": "", "place_id": "ChIJ__-Pk65AmYARMpxZgA-vIow", "latitude": 39.5256288, "longitude": -119.7965681, "subtypes": "Neurologist"}, {"name": "Michael Ke", "address": "75 Pringle Way #401, Reno, NV 89502", "city": "Reno", "state": "Nevada", "state_code": "NV", "phone": "+1 775-982-5000", "website": "https://www.renown.org/find-a-doctor/michael-ke", "rating": "", "reviews": "", "place_id": "ChIJbwTssq5AmYARQPRqtlxXnrM", "latitude": 39.52643279999999, "longitude": -119.7948288, "subtypes": "Neurologist"}, {"name": "Dr. Tyler Cheung", "address": "75 Pringle Way #401, Reno, NV 89502", "city": "Reno", "state": "Nevada", "state_code": "NV", "phone": "", "website": "", "rating": "", "reviews": "", "place_id": "ChIJbwTssq5AmYARWrSDcGIua_0", "latitude": 39.52643279999999, "longitude": -119.7948288, "subtypes": "Neurologist"}, {"name": "Dr. Stephen P. Raps, MD", "address": "1000 Locust St, Reno, NV 89502", "city": "Reno", "state": "Nevada", "state_code": "NV", "phone": "+1 775-786-7200", "website": "http://www.reno.va.gov/", "rating": "", "reviews": "", "place_id": "ChIJC7-gWKNAmYARJCTI0RXHsNc", "latitude": 39.5163594, "longitude": -119.7993273, "subtypes": "Neurologist"}, {"name": "Anita Venkataramana", "address": "1155 Mill St, Reno, NV 895021576", "city": "Reno", "state": "Nevada", "state_code": "NV", "phone": "+1 775-982-5000", "website": "", "rating": "", "reviews": "", "place_id": "ChIJQwkkJ69AmYARX9PHCuHEiiI", "latitude": 39.5243718, "longitude": -119.7957326, "subtypes": "Neurologist"}, {"name": "Travis Scott Smith, DO", "address": "1155 Mill St, Reno, NV 89502", "city": "Reno", "state": "Nevada", "state_code": "NV", "phone": "+1 775-982-7878", "website": "", "rating": "", "reviews": "", "place_id": "ChIJRXvr9gpBmYAR2QwCm4FsJJI", "latitude": 39.5256288, "longitude": -119.7965681, "subtypes": "Neurologist"}, {"name": "Maria V Recio Restrepo, MD", "address": "Center for Advanced Medicine, 75 Pringle Way STE 401, Reno, NV 89502", "city": "Reno", "state": "Nevada", "state_code": "NV", "phone": "+1 775-982-2970", "website": "https://www.renown.org/doctor/maria_recio%2Brestrepo/%3Futm_source%3DGMBlisting%26utm_medium%3Dorganic", "rating": "", "reviews": "", "place_id": "ChIJL1EihPBBmYARMqx_Gp-zLw0", "latitude": 39.5254136, "longitude": -119.7944069, "subtypes": "Neurologist"}, {"name": "Adel Aziz, MD", "address": "75 Pringle Way #401, Reno, NV 89502", "city": "Reno", "state": "Nevada", "state_code": "NV", "phone": "+1 775-982-2970", "website": "", "rating": "", "reviews": "", "place_id": "ChIJDT3csq5AmYARx1YI8U5KqwU", "latitude": 39.52643279999999, "longitude": -119.7948288, "subtypes": "Neurologist"}, {"name": "Dr. David C. Leppla, MD", "address": "85 Kirman Ave, Reno, NV 89502", "city": "Reno", "state": "Nevada", "state_code": "NV", "phone": "+1 775-323-2080", "website": "", "rating": 5, "reviews": 1, "place_id": "ChIJv5eT3q1AmYARnA6nLJncuXk", "latitude": 39.526224, "longitude": -119.7987841, "subtypes": "Neurosurgeon"}, {"name": "Reddy a N MD", "address": "880 Ryland St, Reno, NV 89502", "city": "Reno", "state": "Nevada", "state_code": "NV", "phone": "+1 775-329-4600", "website": "http://www.giconsultants.com/", "rating": "", "reviews": "", "place_id": "ChIJQRPYxLFAmYAR2w_w2EBvtk4", "latitude": 39.5233833, "longitude": -119.8010282, "subtypes": "Neurologist"}, {"name": "Justine Diane Brink, DO", "address": "Center for Advanced Medicine, 75 Pringle Way STE 401, Reno, NV 89502", "city": "Reno", "state": "Nevada", "state_code": "NV", "phone": "+1 775-982-2970", "website": "", "rating": "", "reviews": "", "place_id": "ChIJP71kceNBmYARt7z88fgdtWs", "latitude": 39.5254136, "longitude": -119.7944069, "subtypes": "Neurologist"}, {"name": "Madjid Keyvani, MD", "address": "75 Pringle Way STE 401, Reno, NV 89502", "city": "Reno", "state": "Nevada", "state_code": "NV", "phone": "+1 775-982-5000", "website": "https://www.renown.org/find-a-doctor/madjid-keyvani", "rating": "", "reviews": "", "place_id": "ChIJLRwbMJhBmYAR81rHnfS3j5Q", "latitude": 39.5253458, "longitude": -119.7944699, "subtypes": "Neurologist"}, {"name": "Dr. Nidhi Mehta, MD", "address": "1000 Locust St #111, Reno, NV 89502", "city": "Reno", "state": "Nevada", "state_code": "NV", "phone": "+1 775-786-7200", "website": "http://www.reno.va.gov/", "rating": "", "reviews": "", "place_id": "ChIJC7-gWKNAmYARrwWtYqSh2Oc", "latitude": 39.5163594, "longitude": -119.7993273, "subtypes": "Neurologist"}, {"name": "Dr. John H. Peacock, MD", "address": "1500 E 2nd St, Reno, NV 89502", "city": "Reno", "state": "Nevada", "state_code": "NV", "phone": "", "website": "", "rating": "", "reviews": "", "place_id": "ChIJB7E9aalAmYARH0_FFnMq2hA", "latitude": 39.52686449999999, "longitude": -119.7932027, "subtypes": "Neurologist"}, {"name": "Mitchell B. Strominger, MD", "address": "1500 E 2nd St #300, Reno, NV 89502", "city": "Reno", "state": "Nevada", "state_code": "NV", "phone": "+1 775-982-6270", "website": "https://www.renown.org/doctor/mitchell_strominger/", "rating": 3, "reviews": 6, "place_id": "ChIJpT6q_hRBmYAR0-Rye_bxBvA", "latitude": 39.5268648, "longitude": -119.7932799, "subtypes": "Neurologist"}, {"name": "Dapra David MD", "address": "236 W 6th St UNIT 407, Reno, NV 89503", "city": "Reno", "state": "Nevada", "state_code": "NV", "phone": "+1 775-329-3168", "website": "", "rating": "", "reviews": "", "place_id": "ChIJQ3USNzFHmYARD08qO9oVu9E", "latitude": 39.5312559, "longitude": -119.818507, "subtypes": "Neurologist"}, {"name": "Dr. John K. Lovell, MD", "address": "6900 N Pecos Rd, North Las Vegas, NV 89086", "city": "North Las Vegas", "state": "Nevada", "state_code": "NV", "phone": "+1 702-791-9000", "website": "http://www.va.gov/providerinfo/LASVEGAS/detail.asp%3Fproviderid%3D4624", "rating": 4, "reviews": 1, "place_id": "ChIJ1ZNEziboyIARvezAtC_z3e8", "latitude": 36.2850843, "longitude": -115.0943738, "subtypes": "Neurologist"}, {"name": "Dr. Anthony R. Dicamillo, DO", "address": "620 Shadow Ln, Las Vegas, NV 89106", "city": "Las Vegas", "state": "Nevada", "state_code": "NV", "phone": "+1 702-388-4512", "website": "", "rating": 1, "reviews": 1, "place_id": "ChIJO0p0zOrDyIARjJs6Z0_H26A", "latitude": 36.1638024, "longitude": -115.1657371, "subtypes": "Neurologist"}, {"name": "Stuart S Md Kaplan", "address": "3061 S Maryland Pkwy #200, Las Vegas, NV 89109", "city": "Las Vegas", "state": "Nevada", "state_code": "NV", "phone": "", "website": "", "rating": 5, "reviews": 1, "place_id": "ChIJd_QSo4vEyIARcvBZFZUhbqY", "latitude": 36.1341027, "longitude": -115.1373046, "subtypes": "Neurosurgeon"}, {"name": "Santos H. Yu, M.D.", "address": "1397 S Loop Rd, Pahrump, NV 89048", "city": "Pahrump", "state": "Nevada", "state_code": "NV", "phone": "+1 775-727-5500", "website": "", "rating": 4.5, "reviews": 40, "place_id": "ChIJVVWVWOc5xoARN7K8cnKY0T0", "latitude": 36.199383, "longitude": -115.9703579, "subtypes": "Neurologist"}, {"name": "Hua Wang, MD", "address": "75 Pringle Way Ste 401, Suite 401, Reno, NV 89502", "city": "Reno", "state": "Nevada", "state_code": "NV", "phone": "+1 775-982-2970", "website": "https://www.renown.org/find-a-doctor/1982865135-hua-wang-md", "rating": "", "reviews": "", "place_id": "ChIJwWPXjTtBmYARolmxwjuIOMw", "latitude": 39.5264568, "longitude": -119.7948043, "subtypes": "Neurologist"}, {"name": "Carson Tahoe Neurology - Minden", "address": "925 Ironwood Dr #2102, Minden, NV 89423", "city": "Minden", "state": "Nevada", "state_code": "NV", "phone": "+1 775-445-5464", "website": "https://www.carsontahoe.com/carson-tahoe-neurology-minden-minden.html", "rating": "", "reviews": "", "place_id": "ChIJpQ-DJvO9mYARn4_uaaGPtq0", "latitude": 38.9627902, "longitude": -119.778304, "subtypes": "Neurologist"}, {"name": "Tri-State Neurology: Muhammad Nayer, M.D.", "address": "178 N Pecos Rd #200, Henderson, NV 89074", "city": "Henderson", "state": "Nevada", "state_code": "NV", "phone": "+1 702-342-0231", "website": "https://www.tsneurology.com/%3Futm_source%3Dgmb_auth", "rating": 4.3, "reviews": 31, "place_id": "ChIJxfam1OBAzoARkE4AA1Tz22w", "latitude": 36.0411758, "longitude": -115.0984039, "subtypes": "Neurologist"}, {"name": "Neurology & Epilepsy center", "address": "1546 W Warm Springs Rd STE 130, Henderson, NV 89014", "city": "Henderson", "state": "Nevada", "state_code": "NV", "phone": "+1 702-852-1155", "website": "https://www.neurologyepilepsycenter.com/", "rating": 3.7, "reviews": 20, "place_id": "ChIJD4p-kinRyIARASpRwfSwR0U", "latitude": 36.0567386, "longitude": -115.0522282, "subtypes": "Neurologist"}, {"name": "Carson Tahoe Neurology", "address": "1470 Medical Pkwy #280, Carson City, NV 89703", "city": "Carson City", "state": "Nevada", "state_code": "NV", "phone": "+1 775-445-5464", "website": "https://www.carsontahoe.com/carson-tahoe-neurology.html", "rating": 5, "reviews": 2, "place_id": "ChIJK22SVa4LmYAR5FChnENtBSI", "latitude": 39.2009459, "longitude": -119.7855893, "subtypes": "Neurologist"}, {"name": "Neeharika Thottempudi, MD", "address": "1470 Medical Pkwy #280, Carson City, NV 89703", "city": "Carson City", "state": "Nevada", "state_code": "NV", "phone": "+1 775-445-5464", "website": "https://www.carsontahoe.com/neeharika-thottempudi.html", "rating": 4.6, "reviews": 9, "place_id": "ChIJNZbGBGcLmYARFO1NUe-yUOg", "latitude": 39.2009459, "longitude": -119.7855893, "subtypes": "Neurologist"}, {"name": "Battle Born Brain and Spine", "address": "1525 Vista Ln, Carson City, NV 89703", "city": "Carson City", "state": "Nevada", "state_code": "NV", "phone": "+1 775-227-2720", "website": "https://www.battlebornbrainandspine.com/contact/", "rating": 3, "reviews": 4, "place_id": "ChIJAQDAXSkLmYARVulBSq3_RKA", "latitude": 39.197799, "longitude": -119.7826833, "subtypes": "Neurosurgeon"}, {"name": "Lagios John P MD", "address": "915 Mountain St, Carson City, NV 89703", "city": "Carson City", "state": "Nevada", "state_code": "NV", "phone": "+1 775-885-9400", "website": "", "rating": 4.3, "reviews": 6, "place_id": "ChIJC6JiX7sKmYARw6kU4RlaaLk", "latitude": 39.1697446, "longitude": -119.7715569, "subtypes": "Neurologist"}, {"name": "Burton Tabaac, MD", "address": "1470 Medical Pkwy #280, Carson City, NV 89703", "city": "Carson City", "state": "Nevada", "state_code": "NV", "phone": "+1 775-445-5464", "website": "https://www.carsontahoe.com/burton-tabaac.html", "rating": 4.3, "reviews": 6, "place_id": "ChIJmUAfry0LmYARWuK61t0Nyqs", "latitude": 39.2009459, "longitude": -119.7855893, "subtypes": "Neurologist"}, {"name": "Doyle Timothy J MD", "address": "923 Mountain St, Carson City, NV 89703", "city": "Carson City", "state": "Nevada", "state_code": "NV", "phone": "+1 775-884-4446", "website": "https://www.carsontahoe.com/timothy-doyle-j-3.html", "rating": 5, "reviews": 6, "place_id": "ChIJY-L5aLsKmYARp2sVXhH_HW8", "latitude": 39.16992219999999, "longitude": -119.7724162, "subtypes": "Neurologist"}, {"name": "Carson Tahoe Neurology - Minden", "address": "925 Ironwood Dr #2102, Minden, NV 89423", "city": "Minden", "state": "Nevada", "state_code": "NV", "phone": "+1 775-445-5464", "website": "https://www.carsontahoe.com/carson-tahoe-neurology-minden-minden.html", "rating": "", "reviews": "", "place_id": "ChIJpQ-DJvO9mYARn4_uaaGPtq0", "latitude": 38.9627902, "longitude": -119.778304, "subtypes": "Neurologist"}, {"name": "Advanced Neurosurgery", "address": "1470 Medical Pkwy #240, Carson City, NV 89703", "city": "Carson City", "state": "Nevada", "state_code": "NV", "phone": "+1 775-269-4717", "website": "http://www.advancedneurosurgery.net/", "rating": 4.1, "reviews": 14, "place_id": "ChIJD_6NBzILmYARBhB_a1chS6c", "latitude": 39.2009368, "longitude": -119.7855726, "subtypes": "Neurosurgeon"}]