[{"name": "Dr. Marrero Alier", "address": "40 Weldon St, Moncton, NB E1C 5V8", "city": "Moncton", "state": "New Brunswick", "state_code": "", "phone": "+1 506-869-3600", "website": "", "rating": 4.8, "reviews": 24, "place_id": "ChIJFTjkHT25oEwRfJI1neq6RBk", "latitude": 46.0866951, "longitude": -64.7872352, "subtypes": "Neurologist"}, {"name": "Saint-John Neurology", "address": "299 Metcalf St, Saint John, NB E2K 4P8", "city": "Saint John", "state": "New Brunswick", "state_code": "", "phone": "", "website": "", "rating": 5, "reviews": 2, "place_id": "ChIJsyoHnrezp0wRZjKfDoudPoQ", "latitude": 45.2761381, "longitude": -66.07676099999999, "subtypes": "Neurologist"}, {"name": "Dr. Marrero Alier", "address": "40 Weldon St, Moncton, NB E1C 5V8", "city": "Moncton", "state": "New Brunswick", "state_code": "", "phone": "+1 506-869-3600", "website": "", "rating": 4.8, "reviews": 24, "place_id": "ChIJFTjkHT25oEwRfJI1neq6RBk", "latitude": 46.0866951, "longitude": -64.7872352, "subtypes": "Neurologist"}, {"name": "Dr. Abdellah Neurologist", "address": "1600 Main St, Moncton, NB E1E 1G5", "city": "Moncton", "state": "New Brunswick", "state_code": "", "phone": "+1 506-870-2883", "website": "", "rating": 1, "reviews": 1, "place_id": "ChIJ2zJbErG5oEwRS6Pt96-EkPg", "latitude": 46.0816404, "longitude": -64.79364939999999, "subtypes": "Neurologist"}, {"name": "Dr. Ernest Clevinger", "address": "515 Youghall Dr, Bathurst, NB E2A 4X7", "city": "Bathurst", "state": "New Brunswick", "state_code": "", "phone": "+1 506-546-4699", "website": "", "rating": 4.2, "reviews": 10, "place_id": "ChIJW85I_Bm5oEwRxYnSnJ0jXn4", "latitude": 47.65284339999999, "longitude": -65.6577911, "subtypes": "Neurologist"}, {"name": "Dr. Hermen Vonkeman Urologist ( not Neurologist)", "address": "500 Water St, Miramichi, NB E1V 3G5", "city": "Miramichi", "state": "New Brunswick", "state_code": "", "phone": "+1 506-627-7007", "website": "", "rating": "", "reviews": "", "place_id": "ChIJp4AD2rqKoUwRYIinyq4owpk", "latitude": 47.0035104, "longitude": -65.542003, "subtypes": "Neurologist"}, {"name": "Saint-John Neurology", "address": "299 Metcalf St, Saint John, NB E2K 4P8", "city": "Saint John", "state": "New Brunswick", "state_code": "", "phone": "", "website": "", "rating": 5, "reviews": 2, "place_id": "ChIJsyoHnrezp0wRZjKfDoudPoQ", "latitude": 45.2761381, "longitude": -66.07676099999999, "subtypes": "Neurologist"}, {"name": "Saint-John Neurology", "address": "299 Metcalf St, Saint John, NB E2K 4P8", "city": "Saint John", "state": "New Brunswick", "state_code": "", "phone": "", "website": "", "rating": 5, "reviews": 2, "place_id": "ChIJsyoHnrezp0wRZjKfDoudPoQ", "latitude": 45.2761381, "longitude": -66.07676099999999, "subtypes": "Neurologist"}]