[{"name": "Daniel Shibuya, MD", "address": "601 Dr Martin Luther King Jr Ave NE, Albuquerque, NM 87102", "city": "Albuquerque", "state": "New Mexico", "state_code": "NM", "phone": "+1 505-727-8000", "website": "https://lovelace.com/find-a-provider/provider/1275639304%3Futm_source%3Dpg-google%26utm_medium%3Dorganic%26utm_campaign%3Dpg-listings", "rating": 4.8, "reviews": 50, "place_id": "ChIJx-fKuKQMIocRfoUFdG1D-Rs", "latitude": 35.0861468, "longitude": -106.6399527, "subtypes": "Neurologist"}, {"name": "Vanessa Sanjuan, MD", "address": "500 Walter St NE, Albuquerque, NM 87102", "city": "Albuquerque", "state": "New Mexico", "state_code": "NM", "phone": "+1 505-727-5910", "website": "https://lovelace.com/find-a-provider/provider/1386958825%3Futm_source%3Dpg-google%26utm_medium%3Dorganic%26utm_campaign%3Dpg-listings", "rating": 4.7, "reviews": 23, "place_id": "ChIJw1olv6QMIocRxJlQXyTwUyk", "latitude": 35.0870971, "longitude": -106.6398836, "subtypes": "Neurologist"}, {"name": "Dr. Janice E. Knoefel, MD", "address": "1501 San Pedro Dr SE #41, Albuquerque, NM 87108", "city": "Albuquerque", "state": "New Mexico", "state_code": "NM", "phone": "+1 505-265-1711", "website": "http://www.albuquerque.va.gov/", "rating": 5, "reviews": 2, "place_id": "ChIJFYzFuE0KIocRSXyU7WFjfMw", "latitude": 35.0551352, "longitude": -106.5815458, "subtypes": "Neurologist"}, {"name": "Dr. Meeta Cardon", "address": "University of New Mexico, 1, DEPT OF, Albuquerque, NM 87131", "city": "Albuquerque", "state": "New Mexico", "state_code": "NM", "phone": "+1 505-272-9351", "website": "", "rating": 5, "reviews": 2, "place_id": "ChIJySFLC1sLIocRd3r9yrm735o", "latitude": 35.09, "longitude": -106.62, "subtypes": "Neurologist"}, {"name": "Dr. Jose A. Padin-Rosado, MD", "address": "2211 Lomas Blvd NE, Albuquerque, NM 87106", "city": "Albuquerque", "state": "New Mexico", "state_code": "NM", "phone": "+1 505-272-3160", "website": "https://hsc.unm.edu/directory/padin-rosado-jose.html", "rating": 3.7, "reviews": 3, "place_id": "ChIJax4ZyFwLIocRbOs7sTP3T1E", "latitude": 35.0887134, "longitude": -106.6157298, "subtypes": "Neurologist"}, {"name": "Sarah Pirio Richardson", "address": "2211 Lomas Blvd NE, Albuquerque, NM 87106", "city": "Albuquerque", "state": "New Mexico", "state_code": "NM", "phone": "+1 505-272-0760", "website": "https://hsc.unm.edu/directory/piriorichardson-sarah.html", "rating": 5, "reviews": 1, "place_id": "ChIJsdkus1wLIocRF6gjSPkCs3s", "latitude": 35.0881658, "longitude": -106.6173752, "subtypes": "Neurologist"}, {"name": "Dr. Mark L. Berger, MD", "address": "4273 Montgomery Blvd NE, Albuquerque, NM 87109", "city": "Albuquerque", "state": "New Mexico", "state_code": "NM", "phone": "+1 505-944-7555", "website": "http://www.newmexiconeurology.com/", "rating": 2, "reviews": 39, "place_id": "ChIJ3TV2vel0IocR3wB41Hh_Df4", "latitude": 35.1318547, "longitude": -106.5971748, "subtypes": "Neurologist"}, {"name": "Karen Lecomte, MD", "address": "2539 Medical Dr Complex A, #104, Alamogordo, NM 88310", "city": "Alamogordo", "state": "New Mexico", "state_code": "NM", "phone": "+1 575-446-5840", "website": "https://www.christushealth.org/find-a-doctor/karen-lecomte-36056%3Futm_source%3DGBP%26utm_medium%3Dorganic%26utm_campaign%3DGBP-listing", "rating": 4.5, "reviews": 264, "place_id": "ChIJ98OhJyRR4IYRqRTrUwKDUWs", "latitude": 32.9247847, "longitude": -105.9326931, "subtypes": "Neurologist"}, {"name": "John Simmons, MD", "address": "2050 N Scenic Dr, Alamogordo, NM 88310", "city": "Alamogordo", "state": "New Mexico", "state_code": "NM", "phone": "+1 575-434-0901", "website": "https://www.christushealth.org/find-a-doctor/john-simmons-85962%3Futm_source%3DGBP%26utm_medium%3Dorganic%26utm_campaign%3DGBP-listing", "rating": 4.5, "reviews": 73, "place_id": "ChIJ6xfSkwNQ4IYRBtQ4ZDkaX5A", "latitude": 32.9148175, "longitude": -105.9254552, "subtypes": "Neurologist"}, {"name": "Jennifer Smith, CNP", "address": "2579 N Scenic Dr Suite B, Alamogordo, NM 88310", "city": "Alamogordo", "state": "New Mexico", "state_code": "NM", "phone": "+1 575-446-5840", "website": "", "rating": 4.8, "reviews": 14, "place_id": "ChIJ4XbSQSxR4IYRKR8Qvg2mqZ8", "latitude": 32.9242943, "longitude": -105.932329, "subtypes": "Neurologist"}, {"name": "John Simmons, MD", "address": "2474 Indian Wells Rd # B, Alamogordo, NM 88310", "city": "Alamogordo", "state": "New Mexico", "state_code": "NM", "phone": "+1 575-434-6000", "website": "https://www.christushealth.org/find-a-doctor/john-simmons-85962%3Futm_source%3DGBP%26utm_medium%3Dorganic%26utm_campaign%3DGBP-listing", "rating": "", "reviews": "", "place_id": "ChIJ1eXobAtR4IYRV4qUKtugrfg", "latitude": 32.9147804, "longitude": -105.9304786, "subtypes": "Neurologist"}, {"name": "John Paul Simmons", "address": "2559 Medical Dr F, Alamogordo, NM 88310", "city": "Alamogordo", "state": "New Mexico", "state_code": "NM", "phone": "+1 575-446-5365", "website": "", "rating": "", "reviews": "", "place_id": "ChIJK5MHZjdQ4IYREIQakRliF-I", "latitude": 32.9243531, "longitude": -105.9340442, "subtypes": "Neurologist"}, {"name": "Leonel Perez-Limonte, M.D.", "address": "2420 W Pierce St #101, Carlsbad, NM 88220", "city": "Carlsbad", "state": "New Mexico", "state_code": "NM", "phone": "+1 575-628-0107", "website": "https://www.pecosvalleydocs.com/doctors-providers/perezlimonte-leonel-md-8815%3Futm_source%3Dgmb%26utm_medium%3Dhomepage%26utm_campaign%3Dbiz-listings", "rating": 4.6, "reviews": 153, "place_id": "ChIJj1bZcUS42YgRxtPvoiXOFfs", "latitude": 32.4420022, "longitude": -104.2569663, "subtypes": "Neurologist"}, {"name": "Laura Waymire", "address": "2300 E 30th St #102, Farmington, NM 87401", "city": "Farmington", "state": "New Mexico", "state_code": "NM", "phone": "+1 505-609-6790", "website": "", "rating": 5, "reviews": 4, "place_id": "ChIJrQ2vPRKPO4cRpMQtQ8jEJmY", "latitude": 36.7571509, "longitude": -108.1759562, "subtypes": "Neurologist"}, {"name": "Dr. Michelle L. Raphael", "address": "407 S Schwartz Ave, Farmington, NM 87401", "city": "Farmington", "state": "New Mexico", "state_code": "NM", "phone": "+1 505-609-6595", "website": "", "rating": "", "reviews": "", "place_id": "ChIJNRceVPWPO4cRpkt2Zx-E6lE", "latitude": 36.7265461, "longitude": -108.2161548, "subtypes": "Neurologist"}, {"name": "Presbyterian Neurology at Rust Physician Office Building", "address": "Enter Ronda Rd, Physician Office Building, 2400 Unser Blvd SE Level 1, Suite 19100, Rio Rancho, NM 87124", "city": "Rio Rancho", "state": "New Mexico", "state_code": "NM", "phone": "+1 505-823-8777", "website": "https://www.phs.org/doctors-services/neuroscience/neurology/rio-rancho%3Futm_source%3Dgmb%26utm_medium%3Dorganic%26utm_campaign%3Dlisting%26utm_content%3D_loc_rr_rmc_neurology__103", "rating": 2.5, "reviews": 8, "place_id": "ChIJ7Z7Q_2NxIocRwLnEK0OIJgQ", "latitude": 35.2192496, "longitude": -106.6933354, "subtypes": "Neurologist"}, {"name": "Dr Wei Dai, DO | Neurologist | Presbyterian Neurology in Rio Rancho", "address": "2400 Unser Blvd SE, Rio Rancho, NM 87124", "city": "Rio Rancho", "state": "New Mexico", "state_code": "NM", "phone": "+1 505-291-2730", "website": "https://www2.phs.org/providers/weiwei-dai/1417248469%3Futm_source%3Dgmb%26utm_medium%3Dorganic%26utm_campaign%3Dlisting%26utm_content%3Dprov_neuro_dai_1417248469", "rating": 3.3, "reviews": 20, "place_id": "ChIJh1uDlZRwIocRViJAWQND1tE", "latitude": 35.2192594, "longitude": -106.6928397, "subtypes": "Neurologist"}, {"name": "Dr Alan Dobson, MD | Neurologist | Presbyterian Neurology in Rio Rancho", "address": "2400 Unser Blvd SE, Rio Rancho, NM 87124", "city": "Rio Rancho", "state": "New Mexico", "state_code": "NM", "phone": "+1 505-823-8777", "website": "https://www2.phs.org/providers/alan-dobson/1174729404%3Futm_source%3Dgmb%26utm_medium%3Dorganic%26utm_campaign%3Dlisting%26utm_content%3Dprov_neuro_dobson_1174729404", "rating": "", "reviews": "", "place_id": "ChIJq6qqql0LIocR8vY--5dmNbs", "latitude": 35.2193461, "longitude": -106.6932433, "subtypes": "Neurologist"}, {"name": "CHRISTUS St. Vincent Neurology Specialists", "address": "1631 Hospital Dr Suite #100, Santa Fe, NM 87505", "city": "Santa Fe", "state": "New Mexico", "state_code": "NM", "phone": "+1 505-913-4780", "website": "https://www.christushealth.org/locations/st-vincent-neurology%3Futm_source%3DGBP%26utm_medium%3Dorganic%26utm_campaign%3DGBP-listing", "rating": 3.9, "reviews": 8, "place_id": "ChIJEXA-6wRRGIcRiH66-LEdmhY", "latitude": 35.6613362, "longitude": -105.9480379, "subtypes": "Neurologist"}, {"name": "CHRISTUS St. Vincent Neurosurgical Associates", "address": "465 St Michaels Dr Suite 107, Santa Fe, NM 87505", "city": "Santa Fe", "state": "New Mexico", "state_code": "NM", "phone": "+1 505-988-3233", "website": "https://www.christushealth.org/locations/neurosurgical-associates%3Futm_source%3DGBP%26utm_medium%3Dorganic%26utm_campaign%3DGBP-listing", "rating": 2.9, "reviews": 14, "place_id": "ChIJjR0k2YxQGIcRPo2Wc246nIo", "latitude": 35.659526, "longitude": -105.947064, "subtypes": "Neurologist"}, {"name": "Sarah Stone, MD", "address": "1631 Hospital Dr Suite #100, Santa Fe, NM 87505", "city": "Santa Fe", "state": "New Mexico", "state_code": "NM", "phone": "+1 505-913-4780", "website": "https://www.christushealth.org/find-a-doctor/sarah-stone-21682%3Futm_source%3DGBP%26utm_medium%3Dorganic%26utm_campaign%3DGBP-listing", "rating": 4.4, "reviews": 14, "place_id": "ChIJNdQ_Ob5RGIcRiwM59kOTR_I", "latitude": 35.6612707, "longitude": -105.9479038, "subtypes": "Neurologist"}, {"name": "William Wengs, MD", "address": "1631 Hospital Dr Suite #100, Santa Fe, NM 87505", "city": "Santa Fe", "state": "New Mexico", "state_code": "NM", "phone": "+1 505-913-4780", "website": "https://www.christushealth.org/find-a-doctor/William-Wengs-63649%3Futm_source%3DGBP%26utm_medium%3Dorganic%26utm_campaign%3DGBP-listing", "rating": 3.8, "reviews": 51, "place_id": "ChIJkcAynpJQGIcR8CRLImo2K6o", "latitude": 35.6612772, "longitude": -105.9479923, "subtypes": "Neurologist"}, {"name": "Marshall Watson, MD", "address": "465 St Michaels Dr Ste. 107, Santa Fe, NM 87505", "city": "Santa Fe", "state": "New Mexico", "state_code": "NM", "phone": "+1 505-988-3233", "website": "https://www.christushealth.org/find-a-doctor/Marshall-Watson-61374%3Futm_source%3DGBP%26utm_medium%3Dorganic%26utm_campaign%3DGBP-listing", "rating": 4.7, "reviews": 45, "place_id": "ChIJ--unYF5RGIcRGcrWtxt6I0Y", "latitude": 35.6511374, "longitude": -105.9505263, "subtypes": "Neurosurgeon"}, {"name": "Presbyterian Neurosurgery in Santa Fe at Santa Fe Medical Center", "address": "4801 Beckner Rd, Santa Fe, NM 87507", "city": "Santa Fe", "state": "New Mexico", "state_code": "NM", "phone": "+1 505-772-2000", "website": "https://www.phs.org/doctors-services/surgery/neurosurgery/santa-fe%3Futm_source%3Dgmb%26utm_medium%3Dorganic%26utm_campaign%3Dlisting%26utm_content%3D_loc_sf_sfmc_neurosurgery__234", "rating": "", "reviews": "", "place_id": "ChIJO7EH-chbGIcRGnNd66Q0MTg", "latitude": 35.6160207, "longitude": -106.0253287, "subtypes": "Neurosurgeon"}, {"name": "Neal Hermanowicz, MD", "address": "465 St. Michael's Drive Suite #116, Santa Fe, NM 87505", "city": "Santa Fe", "state": "New Mexico", "state_code": "NM", "phone": "+1 505-913-4780", "website": "https://www.christushealth.org/st-vincent/find-a-doctor/neal-hermanowicz%3Futm_source%3Dorganic%26utm_medium%3DGMB%26utm_campaign%3Dwebsite%26y_source%3D1_MTY2NjgzNDYtNzE1LWxvY2F0aW9uLndlYnNpdGU%253D", "rating": 3, "reviews": 4, "place_id": "ChIJdUpNHC9RGIcR7tV4T9sppy8", "latitude": 35.6595036, "longitude": -105.94713, "subtypes": "Neurologist"}, {"name": "Wendy Dimmette Md", "address": "1101 Douglas Ave, Las Vegas, NM 87701", "city": "Las Vegas", "state": "New Mexico", "state_code": "NM", "phone": "", "website": "", "rating": "", "reviews": "", "place_id": "ChIJQZf1IoB3GYcRQSLdezf65oQ", "latitude": 35.5927736, "longitude": -105.2211012, "subtypes": "Neurologist"}, {"name": "Kieve Carola A MD", "address": "700 Friedman Ave, Las Vegas, NM 87701", "city": "Las Vegas", "state": "New Mexico", "state_code": "NM", "phone": "+1 505-454-5100", "website": "", "rating": "", "reviews": "", "place_id": "ChIJ8WPz2Yd3GYcR2qmSxItY6io", "latitude": 35.6028955, "longitude": -105.221996, "subtypes": "Neurologist"}, {"name": "Heba Samara", "address": "400 Military Heights Pl, Roswell, NM 88201", "city": "Roswell", "state": "New Mexico", "state_code": "NM", "phone": "+1 575-627-9110", "website": "https://kymeramedical.com/heba-samara/", "rating": 3.7, "reviews": 3, "place_id": "ChIJq6rqB_lu4oYR5qG9L3c2jew", "latitude": 33.4219393, "longitude": -104.5275679, "subtypes": "Neurologist"}, {"name": "Dr. James F. Vanpelt, MD", "address": "313 W Country Club Rd STE 10, Roswell, NM 88201", "city": "Roswell", "state": "New Mexico", "state_code": "NM", "phone": "+1 575-622-0816", "website": "", "rating": 5, "reviews": 1, "place_id": "ChIJ02vH5_hu4oYR4HPZUYXY05Y", "latitude": 33.42421849999999, "longitude": -104.5263282, "subtypes": "Neurologist"}, {"name": "Phillips Christopher MD", "address": "407 S Schwartz Ave # 101, Farmington, NM 87401", "city": "Farmington", "state": "New Mexico", "state_code": "NM", "phone": "+1 505-609-6770", "website": "", "rating": "", "reviews": "", "place_id": "ChIJNRceVPWPO4cRI8bdOIEUda4", "latitude": 36.7265087, "longitude": -108.2145553, "subtypes": "Neurologist"}, {"name": "Mrs. Laura Marcu Buck", "address": "2300 E 30th St #102, Farmington, NM 87401", "city": "Farmington", "state": "New Mexico", "state_code": "NM", "phone": "+1 505-609-2256", "website": "", "rating": "", "reviews": "", "place_id": "ChIJrQ2vPRKPO4cRofZyiL4r8cY", "latitude": 36.7573983, "longitude": -108.1768173, "subtypes": "Neurologist"}, {"name": "Presbyterian Neurology in Albuquerque on Pan American Fwy", "address": "6100 Pan American Fwy NE UNIT 340, Albuquerque, NM 87109", "city": "Albuquerque", "state": "New Mexico", "state_code": "NM", "phone": "+1 505-823-8777", "website": "https://www.phs.org/doctors-services/neuroscience/neurology/pan-american%3Futm_source%3Dgmb%26utm_medium%3Dorganic%26utm_campaign%3Dlisting%26utm_content%3D_loc_abq_panam_neurology__102", "rating": 2.5, "reviews": 36, "place_id": "ChIJfQpdJp4LIocRCBBfS4Oq6fg", "latitude": 35.1550012, "longitude": -106.5861607, "subtypes": "Neurologist"}, {"name": "Dr Baljinder Sandhu, MD | Neurologist | Presbyterian Neurology in Albuquerque", "address": "6100 Pan American NE, Albuquerque, NM 87109", "city": "Albuquerque", "state": "New Mexico", "state_code": "NM", "phone": "+1 505-823-8777", "website": "https://www2.phs.org/providers/baljinder-sandhu/1124167135%3Futm_source%3Dgmb%26utm_medium%3Dorganic%26utm_campaign%3Dlisting%26utm_content%3Dprov_neuro_sandhu_1124167135", "rating": 3.2, "reviews": 44, "place_id": "ChIJq72WLr4KIocRWrPuRm2_08w", "latitude": 35.1548601, "longitude": -106.5860837, "subtypes": "Neurologist"}, {"name": "Timothy Ownbey, D.O.", "address": "2440 Louisiana Blvd NE, Albuquerque, NM 87110", "city": "Albuquerque", "state": "New Mexico", "state_code": "NM", "phone": "+1 505-389-1991", "website": "http://www.nsabq.com/", "rating": 3.9, "reviews": 47, "place_id": "ChIJ3TV2vel0IocRC5pD7BV2NAI", "latitude": 35.1070032, "longitude": -106.5674404, "subtypes": "Neurologist"}, {"name": "Dr. Amanda L. Deligtisch, MD", "address": "2211 Lomas Blvd NE, Albuquerque, NM 87106", "city": "Albuquerque", "state": "New Mexico", "state_code": "NM", "phone": "+1 505-272-9494", "website": "https://hsc.unm.edu/directory/deligtisch-amanda.html", "rating": 3, "reviews": 4, "place_id": "ChIJE2V8QkMLIocRh_Ar3iZJCdg", "latitude": 35.0881658, "longitude": -106.6173752, "subtypes": "Neurologist"}, {"name": "Gurule Manuel A MD", "address": "3874 Masthead St NE, Albuquerque, NM 87109", "city": "Albuquerque", "state": "New Mexico", "state_code": "NM", "phone": "+1 505-944-7555", "website": "https://newmexiconeurology.com/about", "rating": 2.7, "reviews": 34, "place_id": "ChIJq6qqqq51IocRdwzpgI9yaEE", "latitude": 35.1660666, "longitude": -106.6003075, "subtypes": "Neurologist"}, {"name": "Dr. John C. Adair, MD", "address": "2211 Lomas Blvd NE, Albuquerque, NM 87106", "city": "Albuquerque", "state": "New Mexico", "state_code": "NM", "phone": "+1 505-272-3160", "website": "https://hsc.unm.edu/directory/adair-john.html", "rating": 5, "reviews": 2, "place_id": "ChIJax4ZyFwLIocR7aOmUBeBDiU", "latitude": 35.0879816, "longitude": -106.6172609, "subtypes": "Neurologist"}, {"name": "Kader Abdelerahman, MD", "address": "500 Walter St NE, Albuquerque, NM 87102", "city": "Albuquerque", "state": "New Mexico", "state_code": "NM", "phone": "+1 505-727-5910", "website": "https://lovelace.com/find-a-provider/provider/1003058157%3Futm_source%3Dpg-google%26utm_medium%3Dorganic%26utm_campaign%3Dpg-listings", "rating": 4.4, "reviews": 28, "place_id": "ChIJw1olv6QMIocRI2vM4IZd1LA", "latitude": 35.0870971, "longitude": -106.6398836, "subtypes": "Neurologist"}, {"name": "Dr Elaine Edmonds, MD,PhD | Neurologist | Presbyterian Neurology in Albuquerque", "address": "6100 Pan American Fwy NE, Albuquerque, NM 87109", "city": "Albuquerque", "state": "New Mexico", "state_code": "NM", "phone": "+1 505-823-8777", "website": "https://www2.phs.org/providers/elaine-edmonds/1164437620%3Futm_source%3Dgmb%26utm_medium%3Dorganic%26utm_campaign%3Dlisting%26utm_content%3Dprov_neuro_edmonds_1164437620", "rating": 3.3, "reviews": 3, "place_id": "ChIJax4ZyFwLIocR-ZOLzYb48_8", "latitude": 35.1548602, "longitude": -106.5860841, "subtypes": "Neurologist"}, {"name": "Nishiena Gandhi, MD", "address": "2901 Transport St, Albuquerque, NM 87106", "city": "Albuquerque", "state": "New Mexico", "state_code": "NM", "phone": "+1 505-262-7250", "website": "https://www.optum.com/en/care/providers/nm/nishiena-gandhi-md-1669527438.html", "rating": 4.4, "reviews": 21, "place_id": "ChIJz4bjTK0LIocRewCCfrvgcdM", "latitude": 35.0533784, "longitude": -106.6362508, "subtypes": "Neurologist"}, {"name": "Dr Alfred Van Baak, MD | Neurologist | Presbyterian Neurology in Albuquerque", "address": "6100 Pan American Fwy NE UNIT 340, Albuquerque, NM 87109", "city": "Albuquerque", "state": "New Mexico", "state_code": "NM", "phone": "+1 505-563-6399", "website": "https://www2.phs.org/providers/alfred-baak/1528355153%3Futm_source%3Dgmb%26utm_medium%3Dorganic%26utm_campaign%3Dlisting%26utm_content%3Dprov_neuro_van_1528355153", "rating": 4.3, "reviews": 6, "place_id": "ChIJKWUR9MwNIocRrvSwsoG0k74", "latitude": 35.1548602, "longitude": -106.5860841, "subtypes": "Neurologist"}, {"name": "Presbyterian Pediatric Neurology in Albuquerque at Presbyterian Hospital", "address": "201 Cedar St SE #5640, Albuquerque, NM 87106", "city": "Albuquerque", "state": "New Mexico", "state_code": "NM", "phone": "+1 505-563-6530", "website": "https://www.phs.org/doctors-services/childrens-health/pediatric-neurology/presbyterian%3Futm_source%3Dgmb%26utm_medium%3Dorganic%26utm_campaign%3Dlisting%26utm_content%3D_loc_abq_ph_pedspecneuro__138", "rating": 5, "reviews": 1, "place_id": "ChIJl86d-v4NIocRlvaTZ2YQl8I", "latitude": 35.0816144, "longitude": -106.6354914, "subtypes": "Pediatric neurologist"}, {"name": "Dr J George Quintana, MD | Neurologist | Presbyterian Neurology in Albuquerque", "address": "6100 Pan American Fwy NE, Albuquerque, NM 87109", "city": "Albuquerque", "state": "New Mexico", "state_code": "NM", "phone": "+1 505-823-8777", "website": "https://www2.phs.org/providers/j-quintana/1831291590%3Futm_source%3Dgmb%26utm_medium%3Dorganic%26utm_campaign%3Dlisting%26utm_content%3Dprov_neuro_quintana_1831291590", "rating": "", "reviews": "", "place_id": "ChIJV-SsJCt1IocRimGcFX6RjsA", "latitude": 35.1548602, "longitude": -106.5860841, "subtypes": "Neurologist"}, {"name": "Dr James Reese Jr, MD | Pediatric Neurologist | Presbyterian Children's Care in Albuquerque", "address": "201 Cedar St SE, Albuquerque, NM 87106", "city": "Albuquerque", "state": "New Mexico", "state_code": "NM", "phone": "+1 505-563-6530", "website": "https://www2.phs.org/providers/james-reese/1467581272%3Futm_source%3Dgmb%26utm_medium%3Dorganic%26utm_campaign%3Dlisting%26utm_content%3Dprov_pedsneuro_reese_1467581272", "rating": 5, "reviews": 1, "place_id": "ChIJu2UecicNIocRQkBsn2UM8eY", "latitude": 35.0816144, "longitude": -106.6354914, "subtypes": "Pediatric neurologist"}, {"name": "Presbyterian Neurosurgery in Albuquerque at Presbyterian Hospital", "address": "201 Cedar St SE Suite 6630, Albuquerque, NM 87106", "city": "Albuquerque", "state": "New Mexico", "state_code": "NM", "phone": "+1 505-563-6399", "website": "https://www.phs.org/doctors-services/surgery/neurosurgery/presbyterian%3Futm_source%3Dgmb%26utm_medium%3Dorganic%26utm_campaign%3Dlisting%26utm_content%3D_loc_abq_ph_neurosurgery__105", "rating": 4.2, "reviews": 6, "place_id": "ChIJhV_sU58MIocR7g9hs7QMHxU", "latitude": 35.0812558, "longitude": -106.6356933, "subtypes": "Neurosurgeon"}, {"name": "Dr Abby Kunz, MD | Pediatric Neurologist | Presbyterian Children's Care in Albuquerque", "address": "201 Cedar St SE, Albuquerque, NM 87106", "city": "Albuquerque", "state": "New Mexico", "state_code": "NM", "phone": "+1 505-563-6530", "website": "https://www.phs.org/doctors-services/childrens-health/pediatric-neurology/%3Futm_source%3Dgmb%26utm_medium%3Dorganic%26utm_campaign%3Dlisting%26utm_content%3Dprov_pedsneuro_kunz_1316031792", "rating": 4.3, "reviews": 11, "place_id": "ChIJhV_sU58MIocR0jpQaQ0S6Wo", "latitude": 35.0816144, "longitude": -106.6354914, "subtypes": "Pediatric neurologist"}, {"name": "Dr. John A. Campa III, MD", "address": "7520 Montgomery Blvd NE building e-4, Albuquerque, NM 87109", "city": "Albuquerque", "state": "New Mexico", "state_code": "NM", "phone": "+1 505-508-1543", "website": "http://paindiagnosis.net/", "rating": 3.9, "reviews": 7, "place_id": "ChIJzxJbaqQKIocRkInAUEqmnvk", "latitude": 35.1298256, "longitude": -106.5603869, "subtypes": "Neurologist"}, {"name": "Marjama-Lyons Jill M MD", "address": "7000 Jefferson St NE, Albuquerque, NM 87109", "city": "Albuquerque", "state": "New Mexico", "state_code": "NM", "phone": "+1 505-797-3771", "website": "", "rating": 4, "reviews": 8, "place_id": "ChIJXQtmclB0IocR-uzH7_DnxHM", "latitude": 35.1603532, "longitude": -106.5923546, "subtypes": "Neurologist"}, {"name": "Dr. Atta Rehman, MD", "address": "3855 Foothills Rd, Las Cruces, NM 88011", "city": "Las Cruces", "state": "New Mexico", "state_code": "NM", "phone": "+1 575-532-8561", "website": "", "rating": 1, "reviews": 1, "place_id": "ChIJtW4ZakU93oYRw2wDQYj27xw", "latitude": 32.3205227, "longitude": -106.7364103, "subtypes": "Neurologist"}, {"name": "Dr. Elbin Orellana", "address": "3751 Del Rey Blvd, Las Cruces, NM 88012", "city": "Las Cruces", "state": "New Mexico", "state_code": "NM", "phone": "+1 575-382-3500", "website": "", "rating": "", "reviews": "", "place_id": "ChIJdc-ldVc83oYRa_sPs7wanPQ", "latitude": 32.3567352, "longitude": -106.7737392, "subtypes": "Neurologist"}, {"name": "Dr. Emilio T. Rivera, MD", "address": "205 Boutz Rd # 1, Las Cruces, NM 88005", "city": "Las Cruces", "state": "New Mexico", "state_code": "NM", "phone": "+1 575-532-7033", "website": "", "rating": "", "reviews": "", "place_id": "ChIJbyKymzEW3oYRvXq7yBJWvwM", "latitude": 32.2890935, "longitude": -106.7776963, "subtypes": "Neurologist"}, {"name": "Barneclo Nick PHD", "address": "2610 Sunset Pl, Las Cruces, NM 88011", "city": "Las Cruces", "state": "New Mexico", "state_code": "NM", "phone": "+1 575-541-1110", "website": "", "rating": "", "reviews": "", "place_id": "ChIJ92Xr-Bw93oYRz0uT6o1bAPU", "latitude": 32.3460838, "longitude": -106.7562797, "subtypes": "Neurologist"}, {"name": "Dr. Charles O. Ogunro, MD", "address": "811 Lexington Rd, Clovis, NM 88101", "city": "Clovis", "state": "New Mexico", "state_code": "NM", "phone": "+1 575-769-3070", "website": "", "rating": 5, "reviews": 1, "place_id": "ChIJL3fE6RLeAocR32YTwRVYZO8", "latitude": 34.4212562, "longitude": -103.1957096, "subtypes": "Neurologist"}, {"name": "Jeffrey Nelson, MD", "address": "1600 N Main St, Lovington, NM 88260", "city": "Lovington", "state": "New Mexico", "state_code": "NM", "phone": "+1 575-396-6611", "website": "https://nor-lea.org/jeffrey-nelson%3Futm_source%3DGMBSocialClimb%26utm_medium%3DJeffreyNelson%252CMD", "rating": 4.9, "reviews": 194, "place_id": "ChIJg-rGuXLa_IYRyN1lLyznWD8", "latitude": 32.9641419, "longitude": -103.3479531, "subtypes": "Neurologist"}, {"name": "Jacqueline Nelson, CNP", "address": "1600 Main St, Lovington, NM 88260", "city": "Lovington", "state": "New Mexico", "state_code": "NM", "phone": "+1 575-396-6611", "website": "https://nor-lea.org/jacquie-marinovich%3Futm_source%3DGMBSocialClimb%26utm_medium%3DJacquelineNelson%252CCNP", "rating": 5, "reviews": 56, "place_id": "ChIJg0mSy9jb_IYR8KBDEBlIo60", "latitude": 32.9641419, "longitude": -103.3479531, "subtypes": "Neurologist"}, {"name": "Caballar-Gonza Flor J MD", "address": "1901 Redrock Dr, Gallup, NM 87301", "city": "Gallup", "state": "New Mexico", "state_code": "NM", "phone": "+1 505-863-7000", "website": "", "rating": "", "reviews": "", "place_id": "ChIJw2a0C2PeJIcRIYpfUbmDeeI", "latitude": 35.5073833, "longitude": -108.7271284, "subtypes": "Neurologist"}, {"name": "Dr. Douglas Barrett", "address": "6100 Pan American Fwy NE, Albuquerque, NM 87109", "city": "Albuquerque", "state": "New Mexico", "state_code": "NM", "phone": "+1 505-823-1010", "website": "", "rating": 3.9, "reviews": 9, "place_id": "ChIJh3_0tVV0IocRRCLY9kqBtzI", "latitude": 35.1548601, "longitude": -106.5860837, "subtypes": "Neurologist"}, {"name": "Dr. Leonel Perez-Limonte", "address": "612 N 13th St, Artesia, NM 88210", "city": "Artesia", "state": "New Mexico", "state_code": "NM", "phone": "+1 575-736-8390", "website": "", "rating": 5, "reviews": 1, "place_id": "ChIJDQ9cVSd444YRhU50x1wcGF4", "latitude": 32.847925, "longitude": -104.4117943, "subtypes": "Neurologist"}, {"name": "Brian Warmus", "address": "1100 Central Ave SE, Albuquerque, NM 871064930", "city": "Albuquerque", "state": "New Mexico", "state_code": "NM", "phone": "+1 505-841-1234", "website": "", "rating": 5, "reviews": 1, "place_id": "ChIJ__8_-KEMIocR2kS12_09YkE", "latitude": 35.0817941, "longitude": -106.6349329, "subtypes": "Neurologist"}, {"name": "RAWAN M. TARAWNEH", "address": "2211 Lomas Blvd NE, Albuquerque, NM 871062745", "city": "Albuquerque", "state": "New Mexico", "state_code": "NM", "phone": "+1 505-272-2111", "website": "", "rating": 5, "reviews": 1, "place_id": "ChIJsdkus1wLIocR1jQPcPIgDi8", "latitude": 35.0881658, "longitude": -106.6173752, "subtypes": "Neurologist"}, {"name": "Saleem Al Mawed, MD", "address": "500 Walter St NE, Albuquerque, NM 87102", "city": "Albuquerque", "state": "New Mexico", "state_code": "NM", "phone": "+1 505-727-5910", "website": "https://lovelace.com/find-a-provider/provider/1811314826%3Futm_source%3Dpg-google%26utm_medium%3Dorganic%26utm_campaign%3Dpg-listings", "rating": 5, "reviews": 3, "place_id": "ChIJCWmW4sQNIocRrillDv0LE1U", "latitude": 35.0870971, "longitude": -106.6398836, "subtypes": "Neurologist"}, {"name": "Kader Abdelerahman, MD", "address": "601 Dr Martin Luther King Jr Ave NE, Albuquerque, NM 87102", "city": "Albuquerque", "state": "New Mexico", "state_code": "NM", "phone": "+1 505-727-8000", "website": "https://lovelace.com/find-a-provider/provider/1003058157%3Futm_source%3Dpg-google%26utm_medium%3Dorganic%26utm_campaign%3Dpg-listings", "rating": "", "reviews": "", "place_id": "ChIJz_rbrKYNIocRAKGEB4kG2gw", "latitude": 35.0861468, "longitude": -106.6399527, "subtypes": "Neurologist"}, {"name": "Dr. Corey C. Ford, MD", "address": "915 Camino de Salud, Albuquerque, NM 87131", "city": "Albuquerque", "state": "New Mexico", "state_code": "NM", "phone": "+1 505-272-0760", "website": "", "rating": 3.3, "reviews": 3, "place_id": "ChIJKbfboqkMIocR4HPZff9twao", "latitude": 35.096779, "longitude": -106.6319338, "subtypes": "Neurologist"}, {"name": "Dr. Leslie A. Morrison, MD", "address": "2211 Lomas Blvd NE, Albuquerque, NM 87106", "city": "Albuquerque", "state": "New Mexico", "state_code": "NM", "phone": "+1 505-272-3160", "website": "", "rating": 5, "reviews": 1, "place_id": "ChIJax4ZyFwLIocRV7tz5Tc0MVo", "latitude": 35.0876557, "longitude": -106.6176789, "subtypes": "Neurologist"}, {"name": "Whisler Sandra L MD", "address": "Parking lot, Msc10 5590, Albuquerque, NM 87131", "city": "Albuquerque", "state": "New Mexico", "state_code": "NM", "phone": "+1 505-272-2111", "website": "http://hospitals.unm.edu/", "rating": 5, "reviews": 2, "place_id": "ChIJySFLC1sLIocREuyx9zflBTg", "latitude": 35.09, "longitude": -106.62, "subtypes": "Pediatric neurologist"}, {"name": "Vanessa Sanjuan, MD", "address": "601 Dr Martin Luther King Jr Ave NE, Albuquerque, NM 87102", "city": "Albuquerque", "state": "New Mexico", "state_code": "NM", "phone": "+1 505-727-8000", "website": "https://lovelace.com/find-a-provider/provider/1386958825%3Futm_source%3Dpg-google%26utm_medium%3Dorganic%26utm_campaign%3Dpg-listings", "rating": 3, "reviews": 2, "place_id": "ChIJU1XF1r0KIocRV-1mSngkuSI", "latitude": 35.0859644, "longitude": -106.6374951, "subtypes": "Neurologist"}, {"name": "Dr. Seema Bansal", "address": "2211 Lomas Blvd NE, Albuquerque, NM 87106", "city": "Albuquerque", "state": "New Mexico", "state_code": "NM", "phone": "+1 505-272-2111", "website": "", "rating": "", "reviews": "", "place_id": "ChIJsdkus1wLIocRNXY_oxm3iq4", "latitude": 35.0881658, "longitude": -106.6173752, "subtypes": "Neurologist"}, {"name": "Tobias Kulik", "address": "2211 Lomas Blvd NE, Albuquerque, NM 871062745", "city": "Albuquerque", "state": "New Mexico", "state_code": "NM", "phone": "+1 505-272-2111", "website": "", "rating": "", "reviews": "", "place_id": "ChIJsdkus1wLIocR6C4riUfDw8g", "latitude": 35.0881658, "longitude": -106.6173752, "subtypes": "Neurologist"}, {"name": "Daniel Shibuya, MD", "address": "500 Walter St NE, Albuquerque, NM 87102", "city": "Albuquerque", "state": "New Mexico", "state_code": "NM", "phone": "+1 505-727-5910", "website": "https://lovelace.com/find-a-provider/provider/1275639304%3Futm_source%3Dpg-google%26utm_medium%3Dorganic%26utm_campaign%3Dpg-listings", "rating": "", "reviews": "", "place_id": "ChIJFRRcbLgNIocRIJ1X00Z9Axg", "latitude": 35.087123, "longitude": -106.6398923, "subtypes": "Neurologist"}, {"name": "John P Phillips", "address": "2211 Lomas Blvd NE, Albuquerque, NM 87106", "city": "Albuquerque", "state": "New Mexico", "state_code": "NM", "phone": "+1 505-272-3160", "website": "https://vivo.health.unm.edu/display/n5967", "rating": 5, "reviews": 1, "place_id": "ChIJax4ZyFwLIocR14jS5UM4xfs", "latitude": 35.0879816, "longitude": -106.6172609, "subtypes": "Neurologist"}, {"name": "Dr. Ellen Marder", "address": "University of New Mexico, Albuquerque, NM 87131", "city": "Albuquerque", "state": "New Mexico", "state_code": "NM", "phone": "+1 505-272-3160", "website": "", "rating": "", "reviews": "", "place_id": "ChIJySFLC1sLIocRADb7LUgR4_E", "latitude": 35.09, "longitude": -106.62, "subtypes": "Neurologist"}, {"name": "Elaine Edmonds", "address": "University of New Mexico, #2211, Albuquerque, NM 87131", "city": "Albuquerque", "state": "New Mexico", "state_code": "NM", "phone": "+1 505-272-3160", "website": "", "rating": "", "reviews": "", "place_id": "ChIJySFLC1sLIocRlLGYC5okviw", "latitude": 35.09, "longitude": -106.62, "subtypes": "Neurologist"}, {"name": "Dr. Annapoorna Bhat Ramachandra", "address": "2211 Lomas Blvd NE #1-MIDDLE, Albuquerque, NM 87106", "city": "Albuquerque", "state": "New Mexico", "state_code": "NM", "phone": "+1 480-977-3277", "website": "", "rating": "", "reviews": "", "place_id": "ChIJsdkus1wLIocRDJ-vdrgGY2c", "latitude": 35.0881658, "longitude": -106.6173752, "subtypes": "Neurologist"}, {"name": "Burton Erik V MD", "address": "Pete and Nancy Domenici Hall, 1101 Yale Blvd NE room 1040B, Albuquerque, NM 87106", "city": "Albuquerque", "state": "New Mexico", "state_code": "NM", "phone": "+1 505-272-0760", "website": "", "rating": "", "reviews": "", "place_id": "ChIJq6qqql0LIocRJbp61sN0AdA", "latitude": 35.0949568, "longitude": -106.6213107, "subtypes": "Neurologist"}, {"name": "Dr. Kader Abdelerahman", "address": "2211 Lomas Blvd NE, Albuquerque, NM 87106", "city": "Albuquerque", "state": "New Mexico", "state_code": "NM", "phone": "+1 505-272-2111", "website": "", "rating": "", "reviews": "", "place_id": "ChIJsdkus1wLIocREKmF4lvPAbM", "latitude": 35.0881658, "longitude": -106.6173752, "subtypes": "Neurologist"}, {"name": "Leonel Perez-Limonte, M.D.", "address": "2420 W Pierce St #101, Carlsbad, NM 88220", "city": "Carlsbad", "state": "New Mexico", "state_code": "NM", "phone": "+1 575-628-0107", "website": "https://www.pecosvalleydocs.com/doctors-providers/perezlimonte-leonel-md-8815%3Futm_source%3Dgmb%26utm_medium%3Dhomepage%26utm_campaign%3Dbiz-listings", "rating": 4.6, "reviews": 153, "place_id": "ChIJj1bZcUS42YgRxtPvoiXOFfs", "latitude": 32.4420022, "longitude": -104.2569663, "subtypes": "Neurologist"}, {"name": "Mailin Quinones Jimenez, MSN, APRN, FNP-C", "address": "2420 W Pierce St #101, Carlsbad, NM 88220", "city": "Carlsbad", "state": "New Mexico", "state_code": "NM", "phone": "+1 575-628-0107", "website": "https://www.pecosvalleydocs.com/doctors-providers/quinones-jimenez-mailin-msn-aprn-fnpc-9339%3Futm_source%3Dgmb%26utm_medium%3Dhomepage%26utm_campaign%3Dbiz-listings", "rating": 4.7, "reviews": 59, "place_id": "ChIJJ6Pysxx544YRhf9TjAqoC-s", "latitude": 32.4420022, "longitude": -104.2569663, "subtypes": "Neurologist"}]