[{"name": "Zeljka Chobanov, MD", "address": "520 Eaton Ave # 102, Hamilton, OH 45013", "city": "Hamilton", "state": "Ohio", "state_code": "OH", "phone": "+1 513-867-7400", "website": "https://ketteringhealth.org/doctors/zeljka-chobanov-1619937158/", "rating": "", "reviews": "", "place_id": "ChIJAQAQ9RpHQIgRX6Tn0TLZgWg", "latitude": 39.41432289999999, "longitude": -84.57319199999999, "subtypes": "Neurologist"}, {"name": "Dr. Ashraf S. Nassef, MD", "address": "1010 Cereal Ave, Hamilton, OH 45013", "city": "Hamilton", "state": "Ohio", "state_code": "OH", "phone": "+1 513-943-1000", "website": "", "rating": 4, "reviews": 2, "place_id": "ChIJ31TAURpHQIgR38EL_OpD7y4", "latitude": 39.4149839, "longitude": -84.5724252, "subtypes": "Neurologist"}, {"name": "Osborn Crystal MD", "address": "1345 N Fountain Blvd, Springfield, OH 45504", "city": "Springfield", "state": "Ohio", "state_code": "OH", "phone": "+1 937-399-9500", "website": "", "rating": "", "reviews": "", "place_id": "ChIJkTVm0wZbP4gRdrP3YWM7ths", "latitude": 39.9420068, "longitude": -83.8102974, "subtypes": "Neurologist"}, {"name": "Amrit Chadha", "address": "651 S Limestone St, Springfield, OH 45505", "city": "Springfield", "state": "Ohio", "state_code": "OH", "phone": "+1 937-324-1111", "website": "https://www.rockinghorsecenter.org/staff/dr-amrit-chadha/", "rating": 1, "reviews": 1, "place_id": "ChIJGaUSMspbP4gRa81QVVCmzTQ", "latitude": 39.9165001, "longitude": -83.809468, "subtypes": "Neurologist"}, {"name": "Arthur P Dick Neurology Inc: Straka Janet L", "address": "1104 Forest Rd, Lakewood, OH 44107", "city": "Lakewood", "state": "Ohio", "state_code": "OH", "phone": "+1 216-529-7014", "website": "", "rating": 4.7, "reviews": 9, "place_id": "ChIJW_Odt4zyMIgRIT-UUXA3g8o", "latitude": 41.4897042, "longitude": -81.8290899, "subtypes": "Neurologist"}, {"name": "Dr. Devon S. Conway, MD", "address": "14519 Detroit Ave, Lakewood, OH 44107", "city": "Lakewood", "state": "Ohio", "state_code": "OH", "phone": "+1 216-445-7132", "website": "", "rating": 4, "reviews": 1, "place_id": "ChIJK-r5RxTyMIgRTvN9xlrvANM", "latitude": 41.4843837, "longitude": -81.7965068, "subtypes": "Neurologist"}, {"name": "Stojic Andrey S MD", "address": "14519 Detroit Ave, Lakewood, OH 44107", "city": "Lakewood", "state": "Ohio", "state_code": "OH", "phone": "+1 216-521-4200", "website": "https://my.clevelandclinic.org/staff/13784-andrey-stojic", "rating": 3.7, "reviews": 3, "place_id": "ChIJK-r5RxTyMIgRcp6nI7ofNCo", "latitude": 41.4841828, "longitude": -81.7962814, "subtypes": "Neurologist"}, {"name": "Ramahi Amani A MD", "address": "12900 Lake Ave APT 1522, Lakewood, OH 44107", "city": "Lakewood", "state": "Ohio", "state_code": "OH", "phone": "+1 216-287-5583", "website": "", "rating": "", "reviews": "", "place_id": "ChIJ4diGBSfyMIgRehEZaoR9LxA", "latitude": 41.4937547, "longitude": -81.7802981, "subtypes": "Neurologist"}, {"name": "Harinoor Mann, MD", "address": "75 Arch St # 201, Akron, OH 44304", "city": "Akron", "state": "Ohio", "state_code": "OH", "phone": "+1 330-375-7055", "website": "https://mychart.summahealth.org/mychart/app/providers/HarinoorMannMD/WP-243E0ybtm8U02epYSh9TFcJw-3D-3D-245KWgJFobuwgf8vZuwgxDv0ohFNsQHxwhgRYmlEOOF1s-3D%3Futm_source%3Dlocal-listing%26utm_medium%3Dorganic%26utm_campaign%3Dwebsite-link", "rating": 4.7, "reviews": 50, "place_id": "ChIJH3F4rmopMYgRwwtvfBIyznM", "latitude": 41.0804708, "longitude": -81.4993496, "subtypes": "Neurologist"}, {"name": "Yonatan Spolter", "address": "857 Graham Rd, Cuyahoga Falls, OH 442211170", "city": "Cuyahoga Falls", "state": "Ohio", "state_code": "OH", "phone": "", "website": "https://my.clevelandclinic.org/staff/21301-yonatan-spolter", "rating": 3.7, "reviews": 3, "place_id": "ChIJVVVVDKgnMYgRZxBC42LhFq0", "latitude": 41.1650619, "longitude": -81.48230509999999, "subtypes": "Neurologist"}, {"name": "Ted Weissfeld", "address": "857 Graham Rd, Cuyahoga Falls, OH 44221", "city": "Cuyahoga Falls", "state": "Ohio", "state_code": "OH", "phone": "+1 330-334-4620", "website": "https://my.clevelandclinic.org/staff/23714-ted-weissfeld", "rating": 4, "reviews": 1, "place_id": "ChIJVVVVDKgnMYgR63xcISSAT3k", "latitude": 41.1669999, "longitude": -81.48105, "subtypes": "Neurologist"}, {"name": "Aaron A Cochran, DO", "address": "75 Arch St # 201, Akron, OH 44304", "city": "Akron", "state": "Ohio", "state_code": "OH", "phone": "+1 234-867-6321", "website": "https://physicians.summahealth.org/provider/Aaron%2BA%2BCochran/236635%3Futm_source%3Dlocal-listing%26utm_medium%3Dorganic%26utm_campaign%3Dwebsite-link", "rating": 5, "reviews": 12, "place_id": "ChIJyYL9zibXMIgRK_k7EuA3fe0", "latitude": 41.0804708, "longitude": -81.4993496, "subtypes": "Neurologist"}, {"name": "Jose M Casanova, MD", "address": "500 Portage Lakes Drive b, Akron, OH 44319", "city": "Akron", "state": "Ohio", "state_code": "OH", "phone": "+1 234-867-6626", "website": "https://mychart.summahealth.org/mychart/app/providers/JoseCasanovaMD/WP-24kK8Ofy97sAU3U2lOJ5Weyw-3D-3D-24qSYJosQIibBcM1jgCbTdJZS8Bu18LJK5htZO4foYtUs-3D%3Futm_source%3Dlocal-listing%26utm_medium%3Dorganic%26utm_campaign%3Dwebsite-link", "rating": 4.7, "reviews": 126, "place_id": "ChIJa1emmonVMIgR_88SsIk2jhg", "latitude": 40.9959186, "longitude": -81.53662969999999, "subtypes": "Neurologist"}, {"name": "Dr. Toomas Anton", "address": "1900 23rd St, Cuyahoga Falls, OH 44223", "city": "Cuyahoga Falls", "state": "Ohio", "state_code": "OH", "phone": "+1 330-926-3322", "website": "https://www.wrhpi.org/toomas-anton-md", "rating": 5, "reviews": 10, "place_id": "ChIJb2N-kpHQNogROhpP58jDSzU", "latitude": 41.1334245, "longitude": -81.5105512, "subtypes": "Neurosurgeon"}, {"name": "James R Bavis Jr., MD", "address": "201 5th St NE #16, Barberton, OH 44203", "city": "Barberton", "state": "Ohio", "state_code": "OH", "phone": "+1 330-615-3070", "website": "https://mychart.summahealth.org/mychart/app/providers/JamesBavisMD/WP-24rc-2BXwzGYgvGEQVPs4c71Tg-3D-3D-24uZ-2FMINQyaUikw41tpdmtkGZE-2ByvIxRPB8g-2FAOEBtIak-3D%3Futm_source%3Dlocal-listing%26utm_medium%3Dorganic%26utm_campaign%3Dwebsite-link", "rating": 4.5, "reviews": 83, "place_id": "ChIJaVhdfDLRNogRzHYUucWxakY", "latitude": 41.0159254, "longitude": -81.5895041, "subtypes": "Neurologist"}, {"name": "Hasan Askari, MD", "address": "75 Arch St # 201, Akron, OH 44304", "city": "Akron", "state": "Ohio", "state_code": "OH", "phone": "+1 330-375-7055", "website": "https://mychart.summahealth.org/mychart/app/providers/HasanAskariMD/WP-24xPoqVocgBrEH2Vv22XZj1w-3D-3D-24ylZl77Y8nTu2DLC-2FhJdPStdnh0sV6y24T1OG4Qyzhw4-3D%3Futm_source%3Dlocal-listing%26utm_medium%3Dorganic%26utm_campaign%3Dwebsite-link", "rating": 5, "reviews": 4, "place_id": "ChIJ0bjDggU_z4kRTtGLDWg_MJM", "latitude": 41.0804976, "longitude": -81.49937419999999, "subtypes": "Neurologist"}, {"name": "Yazid Alrajeh", "address": "525 E Market St, Akron, OH 44304", "city": "Akron", "state": "Ohio", "state_code": "OH", "phone": "", "website": "", "rating": 5, "reviews": 1, "place_id": "ChIJAQAA384pMYgRZpOIiStTaf8", "latitude": 41.0801893, "longitude": -81.5004891, "subtypes": "Neurologist"}, {"name": "Neurology & Neuroscience Associates: Dorsett III Roswell B DO", "address": "701 White Pond Dr STE 300, Akron, OH 44320", "city": "Akron", "state": "Ohio", "state_code": "OH", "phone": "+1 330-572-1011", "website": "https://www.unityhealthnetwork.org/roswell-b-dorsett-iii-do", "rating": 4.1, "reviews": 7, "place_id": "ChIJR9p6GyfXMIgRSxGkhY-DFVc", "latitude": 41.097327, "longitude": -81.5875532, "subtypes": "Neurologist"}, {"name": "Mita S Deoras, MD", "address": "75 Arch St # 201, Akron, OH 44304", "city": "Akron", "state": "Ohio", "state_code": "OH", "phone": "+1 330-375-7055", "website": "https://mychart.summahealth.org/mychart/app/providers/MitaDeorasMD/WP-24-2FGXvgtFAJhVuuH9a-2BkubRw-3D-3D-24iwlEV86UF6RS8mflLkfQ-2BJ7UGq5qU77aCT8NWBxnrJY-3D%3Futm_source%3Dlocal-listing%26utm_medium%3Dorganic%26utm_campaign%3Dwebsite-link", "rating": 5, "reviews": 2, "place_id": "ChIJQ0znwibXMIgRrzS2fekxFIM", "latitude": 41.0804976, "longitude": -81.49937419999999, "subtypes": "Neurologist"}, {"name": "Lawrence M. Saltis, MD", "address": "701 White Pond Dr STE 300, Akron, OH 44320", "city": "Akron", "state": "Ohio", "state_code": "OH", "phone": "+1 330-572-1011", "website": "https://www.unityhealthnetwork.org/lawrence-m-saltis-md", "rating": 3.3, "reviews": 16, "place_id": "ChIJR9p6GyfXMIgR1qatT8Nt2cU", "latitude": 41.0972485, "longitude": -81.5875739, "subtypes": "Neurologist"}, {"name": "Susana M Bowling, MD", "address": "75 Arch St # 201, Akron, OH 44304", "city": "Akron", "state": "Ohio", "state_code": "OH", "phone": "+1 330-375-7055", "website": "https://mychart.summahealth.org/mychart/app/providers/SusanaBowlingMD/WP-24PrNYnMu0oE8GKF8KE6XIUg-3D-3D-243zM7xvu9VUnKgw0ggQ6T-2BaUiG1ARtcPhGfwM3e-2BSLHE-3D%3Futm_source%3Dlocal-listing%26utm_medium%3Dorganic%26utm_campaign%3Dwebsite-link", "rating": 4.3, "reviews": 6, "place_id": "ChIJCQAA384pMYgRzA6MFNOILqo", "latitude": 41.0804708, "longitude": -81.4993496, "subtypes": "Neurologist"}, {"name": "Aashish Anand, MD", "address": "75 Arch St # 201, Akron, OH 44304", "city": "Akron", "state": "Ohio", "state_code": "OH", "phone": "+1 330-375-7055", "website": "https://mychart.summahealth.org/mychart/app/providers/AashishAnandMD/WP-24oQCYKb2j7SqxEslcDkSrjg-3D-3D-24mrfIP7iYg6I1ojrGagt4cBPYn-2Bu0cyJGOpRoznoHHjw-3D%3Futm_source%3Dlocal-listing%26utm_medium%3Dorganic%26utm_campaign%3Dwebsite-link", "rating": 4.8, "reviews": 5, "place_id": "ChIJGXsyE7ApMYgRsTosjoW0a0Y", "latitude": 41.0804708, "longitude": -81.4993496, "subtypes": "Neurologist"}, {"name": "Dr. Selwyn-Lloyd E. McPherson", "address": "3632 W Market St #102, Fairlawn, OH 44333", "city": "Fairlawn", "state": "Ohio", "state_code": "OH", "phone": "+1 330-836-5333", "website": "https://www.uhhospitals.org/doctors/McPherson-SelwynLloyd-1881673168", "rating": 1.8, "reviews": 5, "place_id": "ChIJAQAAACXXMIgRWliJNzUoytk", "latitude": 41.1336557, "longitude": -81.63093839999999, "subtypes": "Neurologist"}, {"name": "Hugh J. Miller, MD", "address": "701 White Pond Dr STE 300, Akron, OH 44320", "city": "Akron", "state": "Ohio", "state_code": "OH", "phone": "+1 330-572-1011", "website": "http://www.nnadoc.com/", "rating": 2.3, "reviews": 16, "place_id": "ChIJR9p6GyfXMIgRojr7Mz4126k", "latitude": 41.0972485, "longitude": -81.5875739, "subtypes": "Neurologist"}, {"name": "Akron Children's Pediatric Neurology, Akron", "address": "215 W Bowery St Level 4, Akron, OH 44308", "city": "Akron", "state": "Ohio", "state_code": "OH", "phone": "+1 330-543-8050", "website": "https://www.akronchildrens.org/locations/Neurology-Akron.html%3Fy_source%3D1_MTM0MDEzODAtNzE1LWxvY2F0aW9uLndlYnNpdGU%253D", "rating": 2.5, "reviews": 4, "place_id": "ChIJ500EdLDXMIgRD_HdAMamsjU", "latitude": 41.078549, "longitude": -81.524456, "subtypes": "Pediatric neurologist"}, {"name": "Alexander P Venizelos, MD", "address": "75 Arch St # 201, Akron, OH 44304", "city": "Akron", "state": "Ohio", "state_code": "OH", "phone": "+1 330-375-7055", "website": "https://mychart.summahealth.org/mychart/app/providers/AlexanderVenizelosMD/WP-24fK9VHdogAVUJBSLZZlJ-2F4g-3D-3D-24XWdWG9tiJwPXV2RiS2hTM8v2qTPZI-2BikDcSBSqcRVvU-3D%3Futm_source%3Dlocal-listing%26utm_medium%3Dorganic%26utm_campaign%3Dwebsite-link", "rating": 5, "reviews": 4, "place_id": "ChIJUyaWptkpMYgRlCr4fWRCwzQ", "latitude": 41.0804708, "longitude": -81.4993496, "subtypes": "Neurologist"}, {"name": "Marvin Sih, MD", "address": "Medical Arts, 6847 N Chestnut St #325, Ravenna, OH 44266", "city": "Ravenna", "state": "Ohio", "state_code": "OH", "phone": "+1 330-297-2401", "website": "https://www.uhhospitals.org/doctors/Sih-Marvin-1326238304%3Futm_campaign%3DSih_Marvin_6847_N_Chestnut_St%26utm_source%3Dyext%26utm_medium%3Dlocallisting%26utm_content%3Dwebsite_url", "rating": 2.5, "reviews": 6, "place_id": "ChIJuTiHhMI5MYgRe2hadeb_M0Q", "latitude": 41.175411, "longitude": -81.2494243, "subtypes": "Neurologist"}, {"name": "Abdalla Abdalla A MD", "address": "1 Perkins Square, Akron, OH 44302", "city": "Akron", "state": "Ohio", "state_code": "OH", "phone": "+1 330-543-1000", "website": "http://www.akronchildrens.org/", "rating": 2.3, "reviews": 3, "place_id": "ChIJy89iTiXWMIgRZNuNgHvY6js", "latitude": 41.0789912, "longitude": -81.52667989999999, "subtypes": "Neurologist"}, {"name": "Dr. Thiruvengadam Kulasekaran, MD", "address": "300 Locust St #150, Akron, OH 44302", "city": "Akron", "state": "Ohio", "state_code": "OH", "phone": "+1 330-253-2113", "website": "", "rating": 3.9, "reviews": 10, "place_id": "ChIJcYA98C_WMIgRROq3esC8cn8", "latitude": 41.0802223, "longitude": -81.5261448, "subtypes": "Pediatric neurologist"}, {"name": "Dr. Maria Cristina C. Victorio, MD", "address": "1 Perkins Square, Akron, OH 44302", "city": "Akron", "state": "Ohio", "state_code": "OH", "phone": "+1 330-543-8050", "website": "https://www.akronchildrens.org/people/M-Cristina-Victorio-MD.html", "rating": 5, "reviews": 3, "place_id": "ChIJy89iTiXWMIgR7hDZqZv6l2Y", "latitude": 41.0789912, "longitude": -81.52667989999999, "subtypes": "Pediatric neurologist"}, {"name": "Alisha Bauer, MSN, APRN-CNP", "address": "215 W Bowery St Level 4, Akron, OH 44308", "city": "Akron", "state": "Ohio", "state_code": "OH", "phone": "+1 330-543-8050", "website": "https://www.akronchildrens.org/people/Alisha-Bauer.html%3Fy_source%3D1_MTM0MDAyMjUtNzE1LWxvY2F0aW9uLndlYnNpdGU%253D", "rating": 5, "reviews": 1, "place_id": "ChIJ20AcyS3XMIgRsQ8WWfu2oi8", "latitude": 41.078549, "longitude": -81.524456, "subtypes": "Neurologist"}, {"name": "Dr. Robert Friedman, MD", "address": "444 N Main St, Akron, OH 44310", "city": "Akron", "state": "Ohio", "state_code": "OH", "phone": "+1 330-655-3800", "website": "", "rating": "", "reviews": "", "place_id": "ChIJsZeFXCgoMYgRbNnAUga8Xa4", "latitude": 41.0972686, "longitude": -81.51357449999999, "subtypes": "Neurologist"}, {"name": "Bruce H. Cohen, MD, FAAN", "address": "215 W Bowery St Suite 4400, Akron, OH 44308", "city": "Akron", "state": "Ohio", "state_code": "OH", "phone": "+1 330-543-8050", "website": "https://www.akronchildrens.org/people/Bruce-H-Cohen-MD.html%3Fy_source%3D1_MTM0MDA2MDEtNzE1LWxvY2F0aW9uLndlYnNpdGU%253D", "rating": 5, "reviews": 6, "place_id": "ChIJe5VYcCXWMIgRYXmDnZnj57g", "latitude": 41.078549, "longitude": -81.524456, "subtypes": "Pediatric neurologist"}, {"name": "Wahid Rashidzada, MD", "address": "75 Arch St # 201, Akron, OH 44304", "city": "Akron", "state": "Ohio", "state_code": "OH", "phone": "+1 330-375-7055", "website": "https://physicians.summahealth.org/provider/wahid%2Brashidzada/1364491%3Futm_source%3Dlocal-listing%26utm_medium%3Dorganic%26utm_campaign%3Dwebsite-link", "rating": "", "reviews": "", "place_id": "ChIJjS807SYpMYgRasq6OKxtq-U", "latitude": 41.0804708, "longitude": -81.4993496, "subtypes": "Neurologist"}, {"name": "Shawnelle Contini, MSHS, PA-C", "address": "215 W Bowery St Level 4, Akron, OH 44308", "city": "Akron", "state": "Ohio", "state_code": "OH", "phone": "+1 330-543-8050", "website": "https://www.akronchildrens.org/people/Shawnelle-Contini.html%3Fy_source%3D1_MTM0MDA1MjItNzE1LWxvY2F0aW9uLndlYnNpdGU%253D", "rating": "", "reviews": "", "place_id": "ChIJk92DtvfXMIgRhwnoVAW-_XM", "latitude": 41.078549, "longitude": -81.524456, "subtypes": "Neurologist"}, {"name": "Nikita P Dedhia, MD", "address": "75 Arch St # 201, Akron, OH 44304", "city": "Akron", "state": "Ohio", "state_code": "OH", "phone": "+1 330-375-7055", "website": "https://mychart.summahealth.org/mychart/app/providers/NikitaDedhiaMD/WP-242Rkl8FQXIXvVVn2bvoHHKQ-3D-3D-24xNw-2Fv116GoHrBB1nAeHvu1-2Bqd3a-2B9PM5-2FIXp-2B49Vu6s-3D%3Futm_source%3Dlocal-listing%26utm_medium%3Dorganic%26utm_campaign%3Dwebsite-link", "rating": "", "reviews": "", "place_id": "ChIJ4dFEOI4pMYgRt38If9ZKKUU", "latitude": 41.0804708, "longitude": -81.4993496, "subtypes": "Neurologist"}, {"name": "Michael DiSano, MD", "address": "215 W Bowery St Level 4, Akron, OH 44308", "city": "Akron", "state": "Ohio", "state_code": "OH", "phone": "+1 330-543-8050", "website": "https://www.akronchildrens.org/people/Michael-DiSano.html%3Fy_source%3D1_MTQ4ODg3ODItNzE1LWxvY2F0aW9uLndlYnNpdGU%253D", "rating": 5, "reviews": 1, "place_id": "ChIJRdgO_unXMIgRuigDNF1cWpo", "latitude": 41.0784673, "longitude": -81.5241376, "subtypes": "Pediatric neurologist"}, {"name": "Akron Children's NeuroDevelopmental Science Center, Akron", "address": "215 W Bowery St Level 4, Akron, OH 44308", "city": "Akron", "state": "Ohio", "state_code": "OH", "phone": "+1 330-543-8050", "website": "https://www.akronchildrens.org/locations/NeuroDevelopmental-Science-Center.html%3Fy_source%3D1_MTM0MDEzNzYtNzE1LWxvY2F0aW9uLndlYnNpdGU%253D", "rating": 2.3, "reviews": 6, "place_id": "ChIJu2kQI3DXMIgRl1K5pB4y2lE", "latitude": 41.078549, "longitude": -81.524456, "subtypes": "Pediatric neurologist"}, {"name": "Sariha Moyen, MD", "address": "215 W Bowery St Level 4, Akron, OH 44308", "city": "Akron", "state": "Ohio", "state_code": "OH", "phone": "+1 330-543-8050", "website": "https://www.akronchildrens.org/people/Sariha-Moyen.html%3Fy_source%3D1_MjAyODE3MDQ2Mi03MTUtbG9jYXRpb24ud2Vic2l0ZQ%253D%253D", "rating": "", "reviews": "", "place_id": "ChIJ6cvyoTDXMIgRZI5gz9srlss", "latitude": 41.078549, "longitude": -81.524456, "subtypes": "Pediatric neurologist"}, {"name": "Joel Katz, DO", "address": "215 W Bowery St Level 4, Akron, OH 44308", "city": "Akron", "state": "Ohio", "state_code": "OH", "phone": "+1 330-543-8050", "website": "https://www.akronchildrens.org/people/Joel-Katz.html%3Fy_source%3D1_MTQ3MDY5NDMtNzE1LWxvY2F0aW9uLndlYnNpdGU%253D", "rating": 5, "reviews": 3, "place_id": "ChIJD-xsrXHXMIgRX1l9-VI3ICo", "latitude": 41.0784673, "longitude": -81.5241376, "subtypes": "Neurosurgeon"}, {"name": "Kristina Muhleman, MSN, APRN-CNP", "address": "215 W Bowery St Level 4, Akron, OH 44308", "city": "Akron", "state": "Ohio", "state_code": "OH", "phone": "+1 330-543-8050", "website": "https://www.akronchildrens.org/people/Kristina-Muhleman.html%3Fy_source%3D1_MTM0MDAyOTMtNzE1LWxvY2F0aW9uLndlYnNpdGU%253D", "rating": "", "reviews": "", "place_id": "ChIJ76F-RcDXMIgRnFPX-JduyE0", "latitude": 41.078549, "longitude": -81.524456, "subtypes": "Neurologist"}, {"name": "Akron Children's Pediatric Neurosurgery", "address": "215 W Bowery St Level 4, Akron, OH 44308", "city": "Akron", "state": "Ohio", "state_code": "OH", "phone": "+1 330-543-8050", "website": "https://www.akronchildrens.org/locations/Neurosurgery.html%3Fy_source%3D1_MTM0MDEzNDgtNzE1LWxvY2F0aW9uLndlYnNpdGU%253D", "rating": 5, "reviews": 1, "place_id": "ChIJnxDy7HLXMIgRzMfzpefpmS8", "latitude": 41.0794725, "longitude": -81.5251619, "subtypes": "Neurosurgeon"}, {"name": "Tsulee Chen, MD", "address": "215 W Bowery St Level 4, Akron, OH 44308", "city": "Akron", "state": "Ohio", "state_code": "OH", "phone": "+1 330-543-8050", "website": "https://www.akronchildrens.org/people/Tsulee-Chen-MD.html%3Fy_source%3D1_MTM0MDAzMDUtNzE1LWxvY2F0aW9uLndlYnNpdGU%253D", "rating": 5, "reviews": 2, "place_id": "ChIJ-8OSdiXWMIgRc7Suq_cBk0E", "latitude": 41.078549, "longitude": -81.524456, "subtypes": "Pediatric neurologist"}, {"name": "Gwyneth Hughes, MD", "address": "215 W Bowery St Level 4, Akron, OH 44308", "city": "Akron", "state": "Ohio", "state_code": "OH", "phone": "+1 330-543-8050", "website": "https://www.akronchildrens.org/people/Gwyneth-Hughes-MD.html%3Fy_source%3D1_MTM0MDA0OTItNzE1LWxvY2F0aW9uLndlYnNpdGU%253D", "rating": 3.7, "reviews": 3, "place_id": "ChIJ-8OSdiXWMIgR7zqdOzpIpkc", "latitude": 41.078549, "longitude": -81.524456, "subtypes": "Pediatric neurologist"}, {"name": "Amanda Delaratta, MSN, APRN-CNP", "address": "215 W Bowery St Level 4, Akron, OH 44308", "city": "Akron", "state": "Ohio", "state_code": "OH", "phone": "+1 330-543-8050", "website": "https://www.akronchildrens.org/people/Amanda-Delaratta.html%3Fy_source%3D1_MTM0MDAyNDEtNzE1LWxvY2F0aW9uLndlYnNpdGU%253D", "rating": "", "reviews": "", "place_id": "ChIJDYWsJebXMIgRwUbCIg9FJTs", "latitude": 41.078549, "longitude": -81.524456, "subtypes": "Neurologist"}, {"name": "Dr. Mourad Abdelmessih, MD", "address": "1916 Tamarack Rd, Newark, OH 43055", "city": "Newark", "state": "Ohio", "state_code": "OH", "phone": "+1 740-522-6110", "website": "https://www.mid-ohioneurology.com/doctors/mourad-abdelmessih-md", "rating": 3.8, "reviews": 19, "place_id": "ChIJ0cUqGHIWOIgRYF0b--Vn274", "latitude": 40.0406733, "longitude": -82.4648083, "subtypes": "Neurologist"}, {"name": "Licking Memorial Neurology and Sleep Medicine", "address": "15 McMillen Dr, Newark, OH 43055", "city": "Newark", "state": "Ohio", "state_code": "OH", "phone": "", "website": "", "rating": "", "reviews": "", "place_id": "ChIJea60WAAXOIgRvw5INa08QrM", "latitude": 40.0464156, "longitude": -82.4536814, "subtypes": "Neurologist"}, {"name": "Deren Huang", "address": "150 McMillen Dr, Newark, OH 43055", "city": "Newark", "state": "Ohio", "state_code": "OH", "phone": "+1 220-564-4824", "website": "", "rating": "", "reviews": "", "place_id": "ChIJAQBwnz0WOIgR1pKQYj1jb0o", "latitude": 40.050139, "longitude": -82.45229959999999, "subtypes": "Neurologist"}, {"name": "Dr. Punit Agrawal", "address": "1916 Tamarack Rd, Newark, OH 43055", "city": "Newark", "state": "Ohio", "state_code": "OH", "phone": "+1 740-522-6110", "website": "", "rating": "", "reviews": "", "place_id": "ChIJdbkEfHIWOIgRy6uIn0Ti81E", "latitude": 40.0406733, "longitude": -82.4648084, "subtypes": "Neurologist"}, {"name": "Sun Linquan MD", "address": "1272 W Main St # 2, Newark, OH 43055", "city": "Newark", "state": "Ohio", "state_code": "OH", "phone": "+1 740-348-7985", "website": "", "rating": "", "reviews": "", "place_id": "ChIJy5E7BTwWOIgRw8zOVwUjd78", "latitude": 40.0480919, "longitude": -82.44881099999999, "subtypes": "Neurologist"}, {"name": "Cleveland Clinic: Hussain Dulara MD", "address": "5 Severance Cir # 304, Cleveland Heights, OH 44118", "city": "Cleveland Heights", "state": "Ohio", "state_code": "OH", "phone": "+1 216-291-1220", "website": "", "rating": 1, "reviews": 1, "place_id": "ChIJ06VxjcX9MIgRwLzgkDS1aHI", "latitude": 41.5159169, "longitude": -81.5485119, "subtypes": "Neurologist"}, {"name": "Craciun Atanase MD", "address": "9500 Euclid Ave, Cleveland, OH 44195", "city": "Cleveland", "state": "Ohio", "state_code": "OH", "phone": "+1 800-223-2273", "website": "http://my.clevelandclinic.org/", "rating": 5, "reviews": 12, "place_id": "ChIJUXh0BJn7MIgR8yU217Y_4PE", "latitude": 41.5023317, "longitude": -81.62236349999999, "subtypes": "Neurologist"}, {"name": "Advanced Neurology and Neuro Health and Wellness: Dr. Peter A. Cutri, DO", "address": "12000 McCracken Rd # 357, Garfield Heights, OH 44125", "city": "Garfield Heights", "state": "Ohio", "state_code": "OH", "phone": "+1 216-223-6350", "website": "https://my.clevelandclinic.org/staff/95768-peter-cutri", "rating": 4.7, "reviews": 3, "place_id": "ChIJBbwhpcYCMYgRyVw0OQFzktA", "latitude": 41.421234, "longitude": -81.599288, "subtypes": "Neurologist"}, {"name": "Dr. Chen Yan", "address": "9500 Euclid Ave, Cleveland, OH 44195", "city": "Cleveland", "state": "Ohio", "state_code": "OH", "phone": "+1 216-444-2200", "website": "https://my.clevelandclinic.org/staff/27006-chen-yan", "rating": 5, "reviews": 5, "place_id": "ChIJYbyMdZn7MIgRUMTzM945U-0", "latitude": 41.502539, "longitude": -81.6210658, "subtypes": "Neurologist"}, {"name": "M. Shazam Hussain, MD", "address": "G Building, 9500 Euclid Ave, Cleveland, OH 44195", "city": "Cleveland", "state": "Ohio", "state_code": "OH", "phone": "+1 216-445-1383", "website": "http://my.clevelandclinic.org/staff_directory/staff_display%3FDoctorID%3D8810", "rating": 5, "reviews": 4, "place_id": "ChIJ89_haJn7MIgRNQn3MTCfp7A", "latitude": 41.5015195, "longitude": -81.62080449999999, "subtypes": "Neurologist"}, {"name": "Dr. Dileep R. Nair, MD", "address": "9500 Euclid Ave, Cleveland, OH 44106", "city": "Cleveland", "state": "Ohio", "state_code": "OH", "phone": "+1 216-444-2560", "website": "https://my.clevelandclinic.org/staff/3046-dileep-nair", "rating": 4.6, "reviews": 9, "place_id": "ChIJUXh0BJn7MIgRopfP42SZqaA", "latitude": 41.5025982, "longitude": -81.6211125, "subtypes": "Neurologist"}, {"name": "Kuenzler Rebecca MD", "address": "G Building, 9500 Euclid Ave # S 90, Cleveland, OH 44195", "city": "Cleveland", "state": "Ohio", "state_code": "OH", "phone": "+1 216-444-7293", "website": "http://my.clevelandclinic.org/", "rating": 3.7, "reviews": 3, "place_id": "ChIJUXh0BJn7MIgRdGhHf-B2_XQ", "latitude": 41.5013723, "longitude": -81.620719, "subtypes": "Neurologist"}, {"name": "Sophia Sundararajan, MD", "address": "11100 Euclid Ave Bolwell 5th Floor, Cleveland, OH 44106", "city": "Cleveland", "state": "Ohio", "state_code": "OH", "phone": "+1 216-844-2724", "website": "https://www.uhhospitals.org/doctors/Sundararajan-Sophia-1639197031%3Futm_campaign%3DSundararajan_Sophia_11100_Euclid_Ave%26utm_source%3Dyext%26utm_medium%3Dlocallisting%26utm_content%3Dwebsite_url", "rating": 3, "reviews": 8, "place_id": "ChIJ38BKiTH7MIgRH-GAltw2PdM", "latitude": 41.5078296, "longitude": -81.6060135, "subtypes": "Neurologist"}, {"name": "Lederman Richard J MD", "address": "9500 Euclid Ave, Cleveland, OH 44106", "city": "Cleveland", "state": "Ohio", "state_code": "OH", "phone": "+1 216-444-5545", "website": "", "rating": 5, "reviews": 3, "place_id": "ChIJUXh0BJn7MIgRlee0xxkASY8", "latitude": 41.5024373, "longitude": -81.62148959999999, "subtypes": "Neurologist"}, {"name": "Dr. Stephen D. Samples, MD", "address": "9500 Euclid Ave, Cleveland, OH 44106", "city": "Cleveland", "state": "Ohio", "state_code": "OH", "phone": "+1 216-444-2200", "website": "http://my.clevelandclinic.org/", "rating": 3.4, "reviews": 10, "place_id": "ChIJUXh0BJn7MIgRbLepk1R52KI", "latitude": 41.5025982, "longitude": -81.6211125, "subtypes": "Neurologist"}, {"name": "Neil Cherian, MD", "address": "9500 Euclid Ave, Cleveland, OH 44195", "city": "Cleveland", "state": "Ohio", "state_code": "OH", "phone": "+1 216-636-5860", "website": "https://my.clevelandclinic.org/staff/4127-neil-cherian", "rating": 2.8, "reviews": 11, "place_id": "ChIJUXh0BJn7MIgR2JLWPbedAA0", "latitude": 41.5017684, "longitude": -81.62130359999999, "subtypes": "Neurologist"}, {"name": "Dr. Mary R. Rensel, MD", "address": "9500 Euclid Ave, Cleveland, OH 44106", "city": "Cleveland", "state": "Ohio", "state_code": "OH", "phone": "+1 800-223-2273", "website": "", "rating": 4.3, "reviews": 6, "place_id": "ChIJUXh0BJn7MIgREL26Ac1UFvg", "latitude": 41.5024373, "longitude": -81.62148959999999, "subtypes": "Neurologist"}, {"name": "Dr. Eric P. Baron, DO", "address": "9500 Euclid Ave, Cleveland, OH 44106", "city": "Cleveland", "state": "Ohio", "state_code": "OH", "phone": "+1 330-225-8886", "website": "http://my.clevelandclinic.org/", "rating": 3.4, "reviews": 10, "place_id": "ChIJUXh0BJn7MIgRpcQ1bu-VVc0", "latitude": 41.5025982, "longitude": -81.6211125, "subtypes": "Neurologist"}, {"name": "Hayder Kadhim MD", "address": "1730 W 25th St, Cleveland, OH 44113", "city": "Cleveland", "state": "Ohio", "state_code": "OH", "phone": "+1 216-771-3413", "website": "http://www.premierphysicians.net/", "rating": 3.7, "reviews": 7, "place_id": "ChIJRd4_lG7wMIgRLUGD1enxEhI", "latitude": 41.4871005, "longitude": -81.7074531, "subtypes": "Neurologist"}, {"name": "Imad Najm, MD", "address": "9500 Euclid Ave, Cleveland, OH 44195", "city": "Cleveland", "state": "Ohio", "state_code": "OH", "phone": "+1 216-636-5860", "website": "https://my.clevelandclinic.org/staff/2465-imad-najm", "rating": 4.1, "reviews": 9, "place_id": "ChIJUXh0BJn7MIgRFVlnsKh4MNw", "latitude": 41.5024362, "longitude": -81.6211458, "subtypes": "Neurologist"}, {"name": "Lindenberg Judah MD", "address": "12000 McCracken Rd # 357, Cleveland, OH 44125", "city": "Cleveland", "state": "Ohio", "state_code": "OH", "phone": "+1 216-332-0920", "website": "https://my.clevelandclinic.org/staff/92002-judah-lindenberg", "rating": 5, "reviews": 1, "place_id": "ChIJifXpYHzjMIgRnsN-PuuzilM", "latitude": 41.421234, "longitude": -81.599288, "subtypes": "Neurologist"}, {"name": "Roda Michelle DO", "address": "29001 Cedar Rd Suite 201, Cleveland, OH 44124", "city": "Cleveland", "state": "Ohio", "state_code": "OH", "phone": "+1 440-442-6000", "website": "", "rating": 3.5, "reviews": 23, "place_id": "ChIJj1L0S0oCMYgRgARVlOCUpMI", "latitude": 41.502118, "longitude": -81.475641, "subtypes": "Neurologist"}, {"name": "Stephen Hantus, MD", "address": "9500 Euclid Ave, Cleveland, OH 44195", "city": "Cleveland", "state": "Ohio", "state_code": "OH", "phone": "+1 216-636-5860", "website": "https://my.clevelandclinic.org/staff/9014-stephen-hantus", "rating": 5, "reviews": 4, "place_id": "ChIJ28ra5Ib7MIgRBhnIlp2o6FE", "latitude": 41.5025982, "longitude": -81.6211125, "subtypes": "Neurologist"}, {"name": "Dr. Robert A. Bermel, MD", "address": "9500 Euclid Ave, Cleveland, OH 44106", "city": "Cleveland", "state": "Ohio", "state_code": "OH", "phone": "+1 216-444-8600", "website": "http://my.clevelandclinic.org/", "rating": 3.3, "reviews": 7, "place_id": "ChIJUXh0BJn7MIgRA3ZqACIfZ_k", "latitude": 41.5025982, "longitude": -81.6211125, "subtypes": "Neurologist"}, {"name": "Cleveland Clinic Willoughby: Rudolph Joseph N MD", "address": "2570 SOM Ctr Rd, Willoughby Hills, OH 44094", "city": "Willoughby Hills", "state": "Ohio", "state_code": "OH", "phone": "+1 440-943-2500", "website": "http://my.clevelandclinic.org/", "rating": 5, "reviews": 4, "place_id": "ChIJNd5o8aYAMYgRLP4AllxepcY", "latitude": 41.59767799999999, "longitude": -81.4418942, "subtypes": "Neurologist"}, {"name": "Miller Daniel MD", "address": "11100 Euclid Ave, Cleveland, OH 44106", "city": "Cleveland", "state": "Ohio", "state_code": "OH", "phone": "+1 216-844-7380", "website": "", "rating": 5, "reviews": 1, "place_id": "ChIJWT-P5Yj7MIgR6-dXd7Vw-e4", "latitude": 41.5076487, "longitude": -81.6058718, "subtypes": "Neurologist"}, {"name": "Max Wiznitzer, MD", "address": "11100 Euclid Ave 8th Floor, Cleveland, OH 44106", "city": "Cleveland", "state": "Ohio", "state_code": "OH", "phone": "+1 216-844-1443", "website": "https://www.uhhospitals.org/doctors/Wiznitzer-Max-1033136015%3Futm_campaign%3DWiznitzer_Max_11100_Euclid_Ave%26utm_source%3Dyext%26utm_medium%3Dlocallisting%26utm_content%3Dwebsite_url", "rating": 4.1, "reviews": 14, "place_id": "ChIJ75lrie77MIgRTP3sfOjSxqs", "latitude": 41.5078296, "longitude": -81.6060135, "subtypes": "Pediatric neurologist"}, {"name": "Dr. Ajit A. Krishnaney, MD", "address": "9500 Euclid Ave, Cleveland, OH 44106", "city": "Cleveland", "state": "Ohio", "state_code": "OH", "phone": "+1 216-636-5860", "website": "https://my.clevelandclinic.org/staff/6631-ajit-krishnaney", "rating": 5, "reviews": 10, "place_id": "ChIJUXh0BJn7MIgR5Pj4oDXqHwQ", "latitude": 41.502551, "longitude": -81.6214402, "subtypes": "Neurosurgeon"}, {"name": "Dr. Silvia B. Neme, MD", "address": "9500 Euclid Ave, Cleveland, OH 44195", "city": "Cleveland", "state": "Ohio", "state_code": "OH", "phone": "+1 216-444-2020", "website": "http://my.clevelandclinic.org/", "rating": 3.7, "reviews": 3, "place_id": "ChIJvXUGZ0r-MIgR2a4kTNTEiSM", "latitude": 41.50463999999999, "longitude": -81.62162699999999, "subtypes": "Neurologist"}, {"name": "Dr. Augusto C. Juguilon, MD", "address": "6800 Ridge Rd, Parma, OH 44129", "city": "Parma", "state": "Ohio", "state_code": "OH", "phone": "+1 440-842-1744", "website": "https://neuromedplus.com/OurPhysicians.html", "rating": 4.7, "reviews": 3, "place_id": "ChIJcdOGBSrpMIgRCrngMW4pZCc", "latitude": 41.3797372, "longitude": -81.7351972, "subtypes": "Neurologist"}, {"name": "Dr. Daniel Ontaneda, MD", "address": "9500 Euclid Ave, Cleveland, OH 44106", "city": "Cleveland", "state": "Ohio", "state_code": "OH", "phone": "+1 216-444-2200", "website": "http://my.clevelandclinic.org/", "rating": 5, "reviews": 1, "place_id": "ChIJUXh0BJn7MIgRp7SlIbYc88E", "latitude": 41.5026388, "longitude": -81.6210615, "subtypes": "Neurologist"}, {"name": "UHMP Neurology Robert F. Richardson, Jr.", "address": "88 Center Rd # 230, Bedford, OH 44146", "city": "Bedford", "state": "Ohio", "state_code": "OH", "phone": "+1 440-735-4264", "website": "https://www.uhhospitals.org/doctors/Richardson-Robert-1285671578", "rating": 4, "reviews": 16, "place_id": "ChIJb0__pUr9MIgROu3r-2BEa5w", "latitude": 41.3952436, "longitude": -81.5357753, "subtypes": "Neurologist"}, {"name": "Hesham Abboud, MD", "address": "11100 Euclid Ave Bolwell 5th Floor, Cleveland, OH 44106", "city": "Cleveland", "state": "Ohio", "state_code": "OH", "phone": "+1 216-844-2724", "website": "https://www.uhhospitals.org/doctors/Abboud-Hesham-1720318355%3Futm_campaign%3DAbboud_Hesham_11100_Euclid_Ave%26utm_source%3Dyext%26utm_medium%3Dlocallisting%26utm_content%3Dwebsite_url", "rating": 4.4, "reviews": 9, "place_id": "ChIJmWq9kQb7MIgRKrpbr0gRR10", "latitude": 41.5078296, "longitude": -81.6060135, "subtypes": "Neurologist"}, {"name": "Dashefsky Larry H MD", "address": "6803 Mayfield Rd # 409, Mayfield Heights, OH 44124", "city": "Mayfield Heights", "state": "Ohio", "state_code": "OH", "phone": "+1 440-449-2000", "website": "https://weence.com/medical/doctors/cleveland/dashefsky-larry-h-md/", "rating": 3.3, "reviews": 4, "place_id": "ChIJ424-Av4DMYgRbkhnJiwTlKA", "latitude": 41.5207858, "longitude": -81.4327599, "subtypes": "Neurologist"}, {"name": "Dr. Fareeha Ashraf, MD", "address": "11100 Euclid Ave, Cleveland, OH 44106", "city": "Cleveland", "state": "Ohio", "state_code": "OH", "phone": "+1 216-844-8071", "website": "", "rating": "", "reviews": "", "place_id": "ChIJWT-P5Yj7MIgRTntAm7-7vhM", "latitude": 41.5075749, "longitude": -81.60581859999999, "subtypes": "Neurologist"}, {"name": "Dr. Asim M. Shahid, MD", "address": "11100 Euclid Ave # 526, Cleveland, OH 44106", "city": "Cleveland", "state": "Ohio", "state_code": "OH", "phone": "+1 216-844-1439", "website": "", "rating": 5, "reviews": 2, "place_id": "ChIJWT-P5Yj7MIgRkOCruT3RIYs", "latitude": 41.5076487, "longitude": -81.6058718, "subtypes": "Neurologist"}, {"name": "Bashar Katirji, MD", "address": "11100 Euclid Ave Bolwell 5th Floor, Cleveland, OH 44106", "city": "Cleveland", "state": "Ohio", "state_code": "OH", "phone": "+1 216-844-2724", "website": "https://www.uhhospitals.org/doctors/Katirji-Bashar-1700808011%3Futm_campaign%3DKatirji_Bashar_11100_Euclid_Ave%26utm_source%3Dyext%26utm_medium%3Dlocallisting%26utm_content%3Dwebsite_url", "rating": 3.4, "reviews": 5, "place_id": "ChIJp6DJ9dP7MIgRjyMvQrZQJzw", "latitude": 41.5078296, "longitude": -81.6060135, "subtypes": "Neurologist"}, {"name": "Krystal Tomei, MD - UH Cleveland Medical Center", "address": "11100 Euclid Ave, Cleveland, OH 44106", "city": "Cleveland", "state": "Ohio", "state_code": "OH", "phone": "+1 216-844-5741", "website": "https://www.uhhospitals.org/doctors/Tomei-Krystal-1659505170%3Futm_source%3Dyext%26utm_medium%3Dlocallisting", "rating": 5, "reviews": 7, "place_id": "ChIJg2e90Oz7MIgR0prOZ9fZstk", "latitude": 41.505311, "longitude": -81.60584709999999, "subtypes": "Neurosurgeon"}, {"name": "Michael Morgan, MD, PhD", "address": "11100 Euclid Ave Bolwell Ste 3200, Cleveland, OH 44106", "city": "Cleveland", "state": "Ohio", "state_code": "OH", "phone": "+1 216-844-3937", "website": "https://www.uhhospitals.org/doctors/Morgan-Michael-1700014784%3Futm_campaign%3DMorgan_Michael_11100_Euclid_Ave%26utm_source%3Dyext%26utm_medium%3Dlocallisting%26utm_content%3Dwebsite_url", "rating": 3.3, "reviews": 11, "place_id": "ChIJoShRSoj7MIgRogyFg5MkoF0", "latitude": 41.5058139, "longitude": -81.60654559999999, "subtypes": "Neurologist"}, {"name": "Mann Donald C MD", "address": "1611 S Green Rd #4, Cleveland, OH 44121", "city": "Cleveland", "state": "Ohio", "state_code": "OH", "phone": "+1 216-381-2673", "website": "", "rating": 1, "reviews": 1, "place_id": "ChIJHa9auvf9MIgR9ZA8qIE0q_w", "latitude": 41.5155835, "longitude": -81.51852629999999, "subtypes": "Neurologist"}, {"name": "Yin Hu, MD", "address": "11100 Euclid Ave Bolwell 5th Floor, Cleveland, OH 44106", "city": "Cleveland", "state": "Ohio", "state_code": "OH", "phone": "+1 216-844-9000", "website": "https://www.uhhospitals.org/doctors/Hu-Yin-1477750768%3Futm_campaign%3DHu_Yin_11100_Euclid_Ave%26utm_source%3Dyext%26utm_medium%3Dlocallisting%26utm_content%3Dwebsite_url", "rating": 5, "reviews": 4, "place_id": "ChIJ57lHIoX7MIgRcRUsAUFwFqk", "latitude": 41.5078296, "longitude": -81.6060135, "subtypes": "Neurosurgeon"}, {"name": "Toth Gabor MD", "address": "9500 Euclid Ave, Cleveland, OH 44195", "city": "Cleveland", "state": "Ohio", "state_code": "OH", "phone": "+1 216-444-2020", "website": "http://my.clevelandclinic.org/", "rating": "", "reviews": "", "place_id": "ChIJUXh0BJn7MIgR--dvSGLl9OU", "latitude": 41.5025982, "longitude": -81.6211125, "subtypes": "Neurologist"}, {"name": "Alessandro Serra, MD, PhD", "address": "11100 Euclid Ave Bolwell 5th Floor, Cleveland, OH 44106", "city": "Cleveland", "state": "Ohio", "state_code": "OH", "phone": "+1 216-844-2724", "website": "https://www.uhhospitals.org/doctors/Serra-Alessandro-1730332438%3Futm_campaign%3DSerra_Alessandro_11100_Euclid_Ave%26utm_source%3Dyext%26utm_medium%3Dlocallisting%26utm_content%3Dwebsite_url", "rating": 5, "reviews": 2, "place_id": "ChIJm5ZWy877MIgRSqvx1QteSz4", "latitude": 41.5078296, "longitude": -81.6060135, "subtypes": "Neurologist"}, {"name": "Natalie Limoges, DO", "address": "11100 Euclid Ave # 1200, Cleveland, OH 44106", "city": "Cleveland", "state": "Ohio", "state_code": "OH", "phone": "+1 866-844-2273", "website": "https://www.uhhospitals.org/doctors/Limoges-Natalie-1063801207%3Futm_campaign%3DLimoges_Natalie_11100_Euclid_Ave%26utm_source%3Dyext%26utm_medium%3Dlocallisting%26utm_content%3Dwebsite_url", "rating": "", "reviews": "", "place_id": "ChIJ6XRXFtH7MIgRSvkCNlNGpYA", "latitude": 41.5076487, "longitude": -81.6058718, "subtypes": "Pediatric neurologist"}, {"name": "Walter Benjamin L MD", "address": "11100 Euclid Ave, Cleveland, OH 44106", "city": "Cleveland", "state": "Ohio", "state_code": "OH", "phone": "+1 216-844-8285", "website": "", "rating": "", "reviews": "", "place_id": "ChIJww_5RZj7MIgR94cU7fjBBs8", "latitude": 41.5075749, "longitude": -81.60581859999999, "subtypes": "Neurologist"}, {"name": "Evan Uhrhammer, PA-C", "address": "11100 Euclid Ave Ste 170, Cleveland, OH 44106", "city": "Cleveland", "state": "Ohio", "state_code": "OH", "phone": "+1 216-844-3691", "website": "https://www.uhhospitals.org/doctors/Uhrhammer-Evan-1902773732%3Futm_campaign%3DUhrhammer_Evan_11100_Euclid_Ave%26utm_source%3Dyext%26utm_medium%3Dlocallisting%26utm_content%3Dwebsite_url", "rating": "", "reviews": "", "place_id": "ChIJ38Wnvnz7MIgRzXSBwHvq33k", "latitude": 41.50770079999999, "longitude": -81.605924, "subtypes": "Pediatric neurologist"}, {"name": "Camilla Kilbane, MD", "address": "11100 Euclid Ave Bolwell 5th Floor, Cleveland, OH 44106", "city": "Cleveland", "state": "Ohio", "state_code": "OH", "phone": "+1 216-844-2724", "website": "https://www.uhhospitals.org/doctors/Kilbane-Camilla-1659526093%3Futm_campaign%3DKilbane_Camilla_11100_Euclid_Ave%26utm_source%3Dyext%26utm_medium%3Dlocallisting%26utm_content%3Dwebsite_url", "rating": 5, "reviews": 2, "place_id": "ChIJqd954aP7MIgRfRaK-RkSVI8", "latitude": 41.5078296, "longitude": -81.6060135, "subtypes": "Neurologist"}, {"name": "Jennifer Sweet, MD", "address": "11100 Euclid Ave Bolwell 5th Floor, Cleveland, OH 44106", "city": "Cleveland", "state": "Ohio", "state_code": "OH", "phone": "+1 216-844-9000", "website": "https://www.uhhospitals.org/doctors/Sweet-Jennifer-1790011229%3Futm_campaign%3DSweet_Jennifer_11100_Euclid_Ave%26utm_source%3Dyext%26utm_medium%3Dlocallisting%26utm_content%3Dwebsite_url", "rating": 4.2, "reviews": 5, "place_id": "ChIJpSICh5T7MIgRkhEi5Nm-x_w", "latitude": 41.5078296, "longitude": -81.6060135, "subtypes": "Neurosurgeon"}, {"name": "Komal Sawlani, MD", "address": "11100 Euclid Ave Bolwell 5th Floor, Cleveland, OH 44106", "city": "Cleveland", "state": "Ohio", "state_code": "OH", "phone": "+1 216-844-2724", "website": "https://www.uhhospitals.org/doctors/Sawlani-Komal-1366736209%3Futm_campaign%3DSawlani_Komal_11100_Euclid_Ave%26utm_source%3Dyext%26utm_medium%3Dlocallisting%26utm_content%3Dwebsite_url", "rating": "", "reviews": "", "place_id": "ChIJA0IPfXj7MIgRrhK5MUrWgvk", "latitude": 41.5078296, "longitude": -81.6060135, "subtypes": "Neurologist"}, {"name": "Dr. Brian B. Koo, MD", "address": "11100 Euclid Ave, Cleveland, OH 44106", "city": "Cleveland", "state": "Ohio", "state_code": "OH", "phone": "+1 216-844-5785", "website": "", "rating": "", "reviews": "", "place_id": "ChIJww_5RZj7MIgRB8Wr6J3uLuo", "latitude": 41.5076487, "longitude": -81.6058718, "subtypes": "Neurologist"}, {"name": "Tyler Reimschisel, MD", "address": "11100 Euclid Ave Lakeside, Ste 1500, Cleveland, OH 44106", "city": "Cleveland", "state": "Ohio", "state_code": "OH", "phone": "+1 216-844-3936", "website": "https://www.uhhospitals.org/doctors/Reimschisel-Tyler-1922024223%3Futm_campaign%3DReimschisel_Tyler_11100_Euclid_Ave%26utm_source%3Dyext%26utm_medium%3Dlocallisting%26utm_content%3Dwebsite_url", "rating": "", "reviews": "", "place_id": "ChIJ0-nDE1_7MIgRzcUYnX7A6Vw", "latitude": 41.5066542, "longitude": -81.6053337, "subtypes": "Pediatric neurologist"}, {"name": "Dr. Gerald E. Grossman, MD", "address": "11100 Euclid Ave, Cleveland, OH 44106", "city": "Cleveland", "state": "Ohio", "state_code": "OH", "phone": "+1 216-844-8925", "website": "", "rating": "", "reviews": "", "place_id": "ChIJWT-P5Yj7MIgRU92J6ZoWmtQ", "latitude": 41.5075749, "longitude": -81.60581859999999, "subtypes": "Neurologist"}, {"name": "Savannah Peters, CNP", "address": "11100 Euclid Ave Bolwell 5th Floor, Cleveland, OH 44106", "city": "Cleveland", "state": "Ohio", "state_code": "OH", "phone": "+1 216-844-3192", "website": "https://www.uhhospitals.org/doctors/Peters-Savannah-1518823954%3Futm_campaign%3DPeters_Savannah_11100_Euclid_Ave%26utm_source%3Dyext%26utm_medium%3Dlocallisting%26utm_content%3Dwebsite_url", "rating": "", "reviews": "", "place_id": "ChIJedNgNCT7MIgRWDpV8KOiRZI", "latitude": 41.5066397, "longitude": -81.60643619999999, "subtypes": "Neurologist"}, {"name": "Neel Fotedar, MD", "address": "11100 Euclid Ave Bolwell 5th Floor, Cleveland, OH 44106", "city": "Cleveland", "state": "Ohio", "state_code": "OH", "phone": "+1 216-844-3192", "website": "https://www.uhhospitals.org/doctors/Fotedar-Neel-1821440603%3Futm_campaign%3DFotedar_Neel_11100_Euclid_Ave%26utm_source%3Dyext%26utm_medium%3Dlocallisting%26utm_content%3Dwebsite_url", "rating": "", "reviews": "", "place_id": "ChIJqwYPIkL7MIgRFx2PB-OsJ5A", "latitude": 41.5066397, "longitude": -81.60643619999999, "subtypes": "Neurologist"}, {"name": "Cleveland Clinic Health System: Khan Sara MD", "address": "9500 Euclid Ave, Cleveland, OH 44106", "city": "Cleveland", "state": "Ohio", "state_code": "OH", "phone": "+1 216-444-2200", "website": "http://www.ccf.org/", "rating": "", "reviews": "", "place_id": "ChIJUXh0BJn7MIgR_b_5zy3qeSc", "latitude": 41.5025982, "longitude": -81.6211125, "subtypes": "Neurologist"}, {"name": "Faisal Al-shaibi, MD", "address": "11100 Euclid Ave Bolwell 5th Floor, Cleveland, OH 44106", "city": "Cleveland", "state": "Ohio", "state_code": "OH", "phone": "+1 216-844-3192", "website": "https://www.uhhospitals.org/doctors/Al-shaibi-Faisal-1376154906%3Futm_campaign%3DAl-shaibi_Faisal_11100_Euclid_Ave%26utm_source%3Dyext%26utm_medium%3Dlocallisting%26utm_content%3Dwebsite_url", "rating": "", "reviews": "", "place_id": "ChIJr7t-n1P7MIgRFM9SyBNF-RM", "latitude": 41.5066397, "longitude": -81.60643619999999, "subtypes": "Neurologist"}, {"name": "Deborah Reed, MD", "address": "11100 Euclid Ave Bolwell 5th Floor, Cleveland, OH 44106", "city": "Cleveland", "state": "Ohio", "state_code": "OH", "phone": "+1 216-844-2724", "website": "https://www.uhhospitals.org/doctors/Reed-Deborah-1891808135%3Futm_campaign%3DReed_Deborah_11100_Euclid_Ave%26utm_source%3Dyext%26utm_medium%3Dlocallisting%26utm_content%3Dwebsite_url", "rating": 2, "reviews": 3, "place_id": "ChIJFWbEIFX7MIgRTXbtZ7NYd_E", "latitude": 41.5078296, "longitude": -81.6060135, "subtypes": "Neurologist"}, {"name": "Bashar Katirji, MD", "address": "1611 S Green Rd Ste 300, South Euclid, OH 44121", "city": "South Euclid", "state": "Ohio", "state_code": "OH", "phone": "+1 216-844-3192", "website": "https://www.uhhospitals.org/doctors/Katirji-Bashar-1700808011%3Futm_campaign%3DKatirji_Bashar_1611_S_Green_Rd%26utm_source%3Dyext%26utm_medium%3Dlocallisting%26utm_content%3Dwebsite_url", "rating": 1, "reviews": 1, "place_id": "ChIJZ7BC3MH9MIgRAWqZE9MIoa8", "latitude": 41.5155729, "longitude": -81.5182669, "subtypes": "Neurologist"}, {"name": "Alexis Santangelo, CNP", "address": "11100 Euclid Ave Bolwell 5th Floor, Cleveland, OH 44106", "city": "Cleveland", "state": "Ohio", "state_code": "OH", "phone": "+1 216-844-3192", "website": "https://www.uhhospitals.org/doctors/Santangelo-Alexis-1881078624%3Futm_campaign%3DSantangelo_Alexis_11100_Euclid_Ave%26utm_source%3Dyext%26utm_medium%3Dlocallisting%26utm_content%3Dwebsite_url", "rating": "", "reviews": "", "place_id": "ChIJt8o6EDT7MIgRhbmqwxiPxV0", "latitude": 41.506367, "longitude": -81.6043394, "subtypes": "Neurologist"}, {"name": "Buczek Marek MD", "address": "11100 Euclid Ave, Cleveland, OH 44106", "city": "Cleveland", "state": "Ohio", "state_code": "OH", "phone": "+1 440-250-5303", "website": "", "rating": "", "reviews": "", "place_id": "ChIJWT-P5Yj7MIgRHmLScman15k", "latitude": 41.5076487, "longitude": -81.6058718, "subtypes": "Neurologist"}, {"name": "Rupin Singh, MD", "address": "11100 Euclid Ave Bolwell 5th Floor, Cleveland, OH 44106", "city": "Cleveland", "state": "Ohio", "state_code": "OH", "phone": "+1 216-844-3192", "website": "https://www.uhhospitals.org/doctors/Singh-Rupin-1235698028%3Futm_campaign%3DSingh_Rupin_11100_Euclid_Ave%26utm_source%3Dyext%26utm_medium%3Dlocallisting%26utm_content%3Dwebsite_url", "rating": "", "reviews": "", "place_id": "ChIJU-ZcNjv7MIgRwczZxWrapdI", "latitude": 41.5066397, "longitude": -81.60643619999999, "subtypes": "Neurologist"}, {"name": "Dr. Stephen M. Maricich, MD", "address": "11100 Euclid Ave, Cleveland, OH 44106", "city": "Cleveland", "state": "Ohio", "state_code": "OH", "phone": "+1 216-844-3691", "website": "http://www.uhhospitals.org/", "rating": "", "reviews": "", "place_id": "ChIJWT-P5Yj7MIgR-Tlw9SvWR9U", "latitude": 41.5075749, "longitude": -81.60581859999999, "subtypes": "Neurologist"}, {"name": "S Hoffer, MD", "address": "11100 Euclid Ave Bolwell 5th Floor, Cleveland, OH 44106", "city": "Cleveland", "state": "Ohio", "state_code": "OH", "phone": "+1 216-844-9000", "website": "https://www.uhhospitals.org/doctors/Hoffer-S-1104023142%3Futm_campaign%3DHoffer_S_11100_Euclid_Ave%26utm_source%3Dyext%26utm_medium%3Dlocallisting%26utm_content%3Dwebsite_url", "rating": 3.3, "reviews": 6, "place_id": "ChIJm3Y_1-L7MIgRXlmzt_SHJDk", "latitude": 41.5078296, "longitude": -81.6060135, "subtypes": "Neurosurgeon"}, {"name": "Dr. Joshua Freedman, MD", "address": "11100 Euclid Ave, Cleveland, OH 44106", "city": "Cleveland", "state": "Ohio", "state_code": "OH", "phone": "+1 216-844-1000", "website": "", "rating": "", "reviews": "", "place_id": "ChIJWT-P5Yj7MIgRwA_TpQedou8", "latitude": 41.5075749, "longitude": -81.60581859999999, "subtypes": "Neurologist"}, {"name": "Jennifer Hohman, CNP", "address": "11100 Euclid Ave Bolwell 5th Floor, Cleveland, OH 44106", "city": "Cleveland", "state": "Ohio", "state_code": "OH", "phone": "+1 216-844-3192", "website": "https://www.uhhospitals.org/doctors/Hohman-Jennifer-1649026279%3Futm_campaign%3DHohman_Jennifer_11100_Euclid_Ave%26utm_source%3Dyext%26utm_medium%3Dlocallisting%26utm_content%3Dwebsite_url", "rating": "", "reviews": "", "place_id": "ChIJrR7UyOP7MIgRwpns-ZFB1Zw", "latitude": 41.50614789999999, "longitude": -81.6053558, "subtypes": "Neurologist"}, {"name": "Dr. Nuttawan Vongveeranonchai", "address": "11100 Euclid Ave, Cleveland, OH 44106", "city": "Cleveland", "state": "Ohio", "state_code": "OH", "phone": "+1 216-844-1000", "website": "http://www.uhhospitals.org/", "rating": "", "reviews": "", "place_id": "ChIJRW1Kn4n7MIgRTrDWK5On4GY", "latitude": 41.5077348, "longitude": -81.60592009999999, "subtypes": "Neurologist"}, {"name": "Luisa Londono-Hurtado, MD", "address": "11100 Euclid Ave Bolwell 5th Floor, Cleveland, OH 44106", "city": "Cleveland", "state": "Ohio", "state_code": "OH", "phone": "+1 216-844-3192", "website": "https://www.uhhospitals.org/doctors/Londono-Hurtado-Luisa-1962949263%3Futm_campaign%3DLondono-Hurtado_Luisa_11100_Euclid_Ave%26utm_source%3Dyext%26utm_medium%3Dlocallisting%26utm_content%3Dwebsite_url", "rating": "", "reviews": "", "place_id": "ChIJAbIK9L37MIgRxeSCRa2AhwU", "latitude": 41.5066397, "longitude": -81.60643619999999, "subtypes": "Neurologist"}, {"name": "Anthony Zampino, MD", "address": "11100 Euclid Ave Bolwell 5th Floor, Cleveland, OH 44106", "city": "Cleveland", "state": "Ohio", "state_code": "OH", "phone": "+1 216-844-3192", "website": "https://www.uhhospitals.org/doctors/Zampino-Anthony-1427518505%3Futm_campaign%3DZampino_Anthony_11100_Euclid_Ave%26utm_source%3Dyext%26utm_medium%3Dlocallisting%26utm_content%3Dwebsite_url", "rating": "", "reviews": "", "place_id": "ChIJAd_GIKL7MIgRmfZsDzKOZ6I", "latitude": 41.5066397, "longitude": -81.60643619999999, "subtypes": "Neurologist"}, {"name": "University Hospitals: Einstein Douglas B MD", "address": "11100 Euclid Ave, Cleveland, OH 44106", "city": "Cleveland", "state": "Ohio", "state_code": "OH", "phone": "+1 216-844-1000", "website": "http://www.uhhospitals.org/", "rating": "", "reviews": "", "place_id": "ChIJWT-P5Yj7MIgRkVen4v7xeTY", "latitude": 41.5075749, "longitude": -81.60581859999999, "subtypes": "Neurologist"}, {"name": "Dr. C Kent Smith, MD", "address": "11100 Euclid Ave, Cleveland, OH 44106", "city": "Cleveland", "state": "Ohio", "state_code": "OH", "phone": "+1 216-844-3791", "website": "", "rating": "", "reviews": "", "place_id": "ChIJWT-P5Yj7MIgRDvRrG9USUMI", "latitude": 41.5076487, "longitude": -81.6058718, "subtypes": "Neurologist"}, {"name": "Syed Tanvir MD", "address": "11100 Euclid Ave, Cleveland, OH 44106", "city": "Cleveland", "state": "Ohio", "state_code": "OH", "phone": "+1 216-844-3192", "website": "", "rating": "", "reviews": "", "place_id": "ChIJWT-P5Yj7MIgRn_qhHPFOnbY", "latitude": 41.5076487, "longitude": -81.6058718, "subtypes": "Neurologist"}, {"name": "Naveen George, DO", "address": "11100 Euclid Ave Bolwell 5th Floor, Cleveland, OH 44106", "city": "Cleveland", "state": "Ohio", "state_code": "OH", "phone": "+1 216-844-2724", "website": "https://www.uhhospitals.org/doctors/George-Naveen-1114376498%3Futm_campaign%3DGeorge_Naveen_11100_Euclid_Ave%26utm_source%3Dyext%26utm_medium%3Dlocallisting%26utm_content%3Dwebsite_url", "rating": "", "reviews": "", "place_id": "ChIJc-zwLHP7MIgR5nIEMyzXp8U", "latitude": 41.5063876, "longitude": -81.6060408, "subtypes": "Neurologist"}, {"name": "Marissa Layman, PA-C", "address": "11100 Euclid Ave Lakeside, Ste 1500, Cleveland, OH 44106", "city": "Cleveland", "state": "Ohio", "state_code": "OH", "phone": "+1 216-844-3936", "website": "https://www.uhhospitals.org/doctors/Layman-Marissa-1780427492%3Futm_campaign%3DLayman_Marissa_11100_Euclid_Ave%26utm_source%3Dyext%26utm_medium%3Dlocallisting%26utm_content%3Dwebsite_url", "rating": "", "reviews": "", "place_id": "ChIJcbBqhTP7MIgRGM5TSrXXCPI", "latitude": 41.5066642, "longitude": -81.605327, "subtypes": "Pediatric neurologist"}, {"name": "Alan Lerner, MD", "address": "11100 Euclid Ave, Cleveland, OH 44106", "city": "Cleveland", "state": "Ohio", "state_code": "OH", "phone": "+1 216-844-2724", "website": "https://www.uhhospitals.org/doctors/Lerner-Alan-1093733511%3Futm_campaign%3DLerner_Alan_11100_Euclid_Ave%26utm_source%3Dyext%26utm_medium%3Dlocallisting%26utm_content%3Dwebsite_url", "rating": "", "reviews": "", "place_id": "ChIJGwpfn2n7MIgRBHSHevwAZTg", "latitude": 41.5056677, "longitude": -81.6052697, "subtypes": "Neurologist"}, {"name": "David Preston, MD", "address": "11100 Euclid Ave Bolwell 5th Floor, Cleveland, OH 44106", "city": "Cleveland", "state": "Ohio", "state_code": "OH", "phone": "+1 216-844-2724", "website": "https://www.uhhospitals.org/doctors/Preston-David-1316965791%3Futm_campaign%3DPreston_David_11100_Euclid_Ave%26utm_source%3Dyext%26utm_medium%3Dlocallisting%26utm_content%3Dwebsite_url", "rating": "", "reviews": "", "place_id": "ChIJW_cMvXX7MIgRMd2kLJYHtQs", "latitude": 41.5078296, "longitude": -81.6060135, "subtypes": "Neurologist"}, {"name": "Amrou Sarraj, MD", "address": "11100 Euclid Ave Bolwell 5th Floor, Cleveland, OH 44106", "city": "Cleveland", "state": "Ohio", "state_code": "OH", "phone": "+1 216-844-3192", "website": "https://www.uhhospitals.org/doctors/Sarraj-Amrou-1518264514%3Futm_campaign%3DSarraj_Amrou_11100_Euclid_Ave%26utm_source%3Dyext%26utm_medium%3Dlocallisting%26utm_content%3Dwebsite_url", "rating": "", "reviews": "", "place_id": "ChIJIZVKTIj7MIgRf_u3wHqKG9k", "latitude": 41.5078296, "longitude": -81.6060135, "subtypes": "Neurologist"}, {"name": "Yi Li, MD", "address": "11100 Euclid Ave 1st Floor, Cleveland, OH 44106", "city": "Cleveland", "state": "Ohio", "state_code": "OH", "phone": "+1 216-844-3951", "website": "https://www.uhhospitals.org/doctors/Li-Yi-1245897107%3Futm_campaign%3DLi_Yi_11100_Euclid_Ave%26utm_source%3Dyext%26utm_medium%3Dlocallisting%26utm_content%3Dwebsite_url", "rating": "", "reviews": "", "place_id": "ChIJ2ddjLAT7MIgRkgOCJE3ZZYM", "latitude": 41.5078296, "longitude": -81.6060135, "subtypes": "Neurologist"}, {"name": "Alexander Wang, MD", "address": "11100 Euclid Ave Bolwell 5th Floor, Cleveland, OH 44106", "city": "Cleveland", "state": "Ohio", "state_code": "OH", "phone": "+1 216-844-3192", "website": "https://www.uhhospitals.org/doctors/Wang-Alexander-1972967487%3Futm_campaign%3DWang_Alexander_11100_Euclid_Ave%26utm_source%3Dyext%26utm_medium%3Dlocallisting%26utm_content%3Dwebsite_url", "rating": "", "reviews": "", "place_id": "ChIJ2wbGm6n7MIgR1l4KPEMXoT8", "latitude": 41.5066397, "longitude": -81.60643619999999, "subtypes": "Neurologist"}, {"name": "Lima Memorial Health System Neurology", "address": "1005 Bellefontaine Ave # 350, Lima, OH 45804", "city": "Lima", "state": "Ohio", "state_code": "OH", "phone": "+1 419-998-8200", "website": "https://www.limamemorial.org/patient-resources/find-a-location/Location/lima-memorial-health-system-neurology%3Fback%3Dtrue%23contentTop", "rating": 4.2, "reviews": 11, "place_id": "ChIJ3ecROBHyPogR_XbLQM1r-hg", "latitude": 40.7356989, "longitude": -84.0846565, "subtypes": "Neurologist"}, {"name": "Gerald T. Riess, MD", "address": "1005 Bellefontaine Ave # 350, Lima, OH 45804", "city": "Lima", "state": "Ohio", "state_code": "OH", "phone": "+1 419-998-8200", "website": "https://www.limamemorial.org/patient-resources/find-a-location/Location/lima-memorial-health-system-neurology%3Fback%3Dtrue%23contentTop", "rating": 4, "reviews": 11, "place_id": "ChIJzbccqiztPogR28Ees1yxgow", "latitude": 40.7365131, "longitude": -84.0865663, "subtypes": "Neurologist"}, {"name": "Dr. Marietta J. Medel, MD", "address": "1005 Bellefontaine Ave # 225, Lima, OH 45804", "city": "Lima", "state": "Ohio", "state_code": "OH", "phone": "+1 419-221-3385", "website": "", "rating": 2.6, "reviews": 5, "place_id": "ChIJ3ecROBHyPogR1PqVD_iSJqg", "latitude": 40.7357802, "longitude": -84.0847101, "subtypes": "Neurologist"}, {"name": "Dayton Center for Neurological Disorders", "address": "2510 Commons Blvd #276, Beavercreek, OH 45431", "city": "Beavercreek", "state": "Ohio", "state_code": "OH", "phone": "+1 937-439-6186", "website": "https://www.dcndinc.com/", "rating": 4.9, "reviews": 297, "place_id": "ChIJf-gIvlidQIgRtXPek7fK7Bs", "latitude": 39.7622679, "longitude": -84.0588428, "subtypes": "Neurologist"}, {"name": "Neurology Diagnostics, Inc. (this site closed - use Centerville office)", "address": "8605 N Dixie Dr Suite B, Dayton, OH 45414", "city": "Dayton", "state": "Ohio", "state_code": "OH", "phone": "+1 937-224-8200", "website": "https://www.neurologydiagnostics.com/%3Futm_source%3Dgmb_auth", "rating": 4.6, "reviews": 98, "place_id": "ChIJexu4IBN-P4gR-xPTuugwQOk", "latitude": 39.8561325, "longitude": -84.1994934, "subtypes": "Neurologist"}, {"name": "Dayton Center for Neurological Disorders, Beavercreek:Dr. Nicole Alexander", "address": "2510 Commons Blvd #276, Beavercreek, OH 45431", "city": "Beavercreek", "state": "Ohio", "state_code": "OH", "phone": "+1 937-439-6186", "website": "https://www.dcndinc.com/%3Futm_source%3Dgmb_auth", "rating": 5, "reviews": 46, "place_id": "ChIJhefMjJGdQIgRLJ0lRDpZVGs", "latitude": 39.7622679, "longitude": -84.0588428, "subtypes": "Neurologist"}, {"name": "Jon P. Durrani, DO", "address": "1975 Miamisburg Centerville Rd, Centerville, OH 45459", "city": "Centerville", "state": "Ohio", "state_code": "OH", "phone": "+1 937-439-6186", "website": "http://www.dcndinc.com/%3Futm_source%3Dgmb_auth", "rating": 4.8, "reviews": 88, "place_id": "ChIJvzZtVj6JQIgRllMdI8il4gY", "latitude": 39.6356383, "longitude": -84.2013221, "subtypes": "Neurologist"}, {"name": "Dayton Center for Neurological Disorders, Beavercreek: Dr. Merissa Johnson", "address": "2510 Commons Blvd #276, Beavercreek, OH 45431", "city": "Beavercreek", "state": "Ohio", "state_code": "OH", "phone": "+1 937-439-6186", "website": "https://www.dcndinc.com/%3Futm_source%3Dgmb_auth", "rating": 4.9, "reviews": 18, "place_id": "ChIJSexKJaCdQIgRBdbW_jcmi74", "latitude": 39.7622679, "longitude": -84.0588428, "subtypes": "Neurologist"}, {"name": "Glen Nagasawa, MD", "address": "30 E Apple St #5254, Dayton, OH 45409", "city": "Dayton", "state": "Ohio", "state_code": "OH", "phone": "+1 937-208-4200", "website": "https://doctors.premierhealth.com/provider/Glen%2BKatsuto%2BNagasawa/1779875%3Futm_source%3Dgmb%26utm_medium%3Dwebsite%26utm_campaign%3Dkyruussoci", "rating": 4.4, "reviews": 19, "place_id": "ChIJf4O21oWHQIgR0hcXlZjuWEU", "latitude": 39.746175, "longitude": -84.186483, "subtypes": "Neurologist"}, {"name": "Drew Dula, DO", "address": "2510 Commons Blvd #276, Beavercreek, OH 45431", "city": "Beavercreek", "state": "Ohio", "state_code": "OH", "phone": "+1 937-439-6186", "website": "https://dcndinc.com/our-doctors/drew-dula/", "rating": 5, "reviews": 4, "place_id": "ChIJbUvnBmKcQIgRIzxaUbkbpSs", "latitude": 39.7622679, "longitude": -84.0588428, "subtypes": "Neurologist"}, {"name": "Timothy Schoonover, DO", "address": "1975 Miamisburg Centerville Rd, Centerville, OH 45459", "city": "Centerville", "state": "Ohio", "state_code": "OH", "phone": "+1 937-439-6186", "website": "http://www.dcndinc.com/%3Futm_source%3Dgmb_auth", "rating": 4.8, "reviews": 87, "place_id": "ChIJVSOft92IQIgRmm52gxsaK10", "latitude": 39.6356383, "longitude": -84.2013221, "subtypes": "Neurologist"}, {"name": "Dayton Center for Neurological Disorders", "address": "8087 Washington Village Dr, Washington Township, OH 45458", "city": "Washington Township", "state": "Ohio", "state_code": "OH", "phone": "+1 937-439-6186", "website": "https://www.dcndinc.com/", "rating": 3.7, "reviews": 3, "place_id": "ChIJ--flCnyJQIgRFke8A-bW7_o", "latitude": 39.6265271, "longitude": -84.1972828, "subtypes": "Neurologist"}, {"name": "Esteban Cheng-Ching, MD", "address": "30 E Apple St #5254, Dayton, OH 45409", "city": "Dayton", "state": "Ohio", "state_code": "OH", "phone": "+1 937-208-4200", "website": "https://doctors.premierhealth.com/provider/Esteban%2BCheng-Ching/1779943%3Futm_source%3Dgmb%26utm_medium%3Dwebsite%26utm_campaign%3Dkyruussoci", "rating": 5, "reviews": 3, "place_id": "ChIJZfWlramGQIgRTTHBknd_U7c", "latitude": 39.7447795, "longitude": -84.18643879999999, "subtypes": "Neurologist"}, {"name": "Dr. Lawrence P. Goldstick, MD", "address": "1 Elizabeth Pl, Dayton, OH 45417", "city": "Dayton", "state": "Ohio", "state_code": "OH", "phone": "+1 937-495-0000", "website": "https://www.uchealth.com/en/provider-profiles/goldstick-lawrence-1508969445", "rating": 4.2, "reviews": 21, "place_id": "ChIJsReEaR6AP4gR0Ti7RIQ91_s", "latitude": 39.747226, "longitude": -84.1994027, "subtypes": "Neurologist"}, {"name": "John Terry, MD", "address": "30 E Apple St #5254, Dayton, OH 45409", "city": "Dayton", "state": "Ohio", "state_code": "OH", "phone": "+1 937-208-4200", "website": "https://doctors.premierhealth.com/provider/John%2BBrooks%2BTerry/1779922%3Futm_source%3Dgmb%26utm_medium%3Dwebsite%26utm_campaign%3Dkyruussoci", "rating": 5, "reviews": 2, "place_id": "ChIJD08EyqmGQIgR3buDqI1D1jg", "latitude": 39.7462446, "longitude": -84.1867121, "subtypes": "Neurologist"}, {"name": "Bryan Ludwig, MD", "address": "30 E Apple St #5254, Dayton, OH 45409", "city": "Dayton", "state": "Ohio", "state_code": "OH", "phone": "+1 937-208-4200", "website": "https://doctors.premierhealth.com/provider/Bryan%2BRoy%2BLudwig/1779802%3Futm_source%3Dgmb%26utm_medium%3Dwebsite%26utm_campaign%3Dkyruussoci", "rating": 4.8, "reviews": 5, "place_id": "ChIJD08EyqmGQIgRmoW2SopJUQc", "latitude": 39.7447795, "longitude": -84.18643879999999, "subtypes": "Neurologist"}, {"name": "Dr Michael Verdon: Dayton Neurologic Associates", "address": "8805 N Main St, Dayton, OH 45415", "city": "Dayton", "state": "Ohio", "state_code": "OH", "phone": "+1 937-797-3137", "website": "http://www.daytonneurospine.com/", "rating": 4.7, "reviews": 108, "place_id": "ChIJsReEaR6AP4gRyYzdne4Q_q8", "latitude": 39.85221809999999, "longitude": -84.2721364, "subtypes": "Neurosurgeon"}, {"name": "Megan Mackenzie, DO", "address": "1975 Miamisburg Centerville Rd, Centerville, OH 45459", "city": "Centerville", "state": "Ohio", "state_code": "OH", "phone": "+1 937-439-6186", "website": "http://www.dcndinc.com/%3Futm_source%3Dgmb_auth", "rating": 4.8, "reviews": 80, "place_id": "ChIJVVVlUtmIQIgRJxeOI6TkHDs", "latitude": 39.6356383, "longitude": -84.2013221, "subtypes": "Neurologist"}, {"name": "Rich Mark M MD", "address": "3640 Colonel Glenn Hwy, Dayton, OH 45435", "city": "Dayton", "state": "Ohio", "state_code": "OH", "phone": "+1 937-775-3333", "website": "", "rating": 5, "reviews": 1, "place_id": "ChIJI3i0fPmcQIgRa6r4BDvsYHE", "latitude": 39.7820446, "longitude": -84.0523005, "subtypes": "Neurologist"}, {"name": "Louis Curtis", "address": "1 Wyoming St, Dayton, OH 45409", "city": "Dayton", "state": "Ohio", "state_code": "OH", "phone": "+1 937-208-3882", "website": "", "rating": 5, "reviews": 1, "place_id": "ChIJBa6WaKiGQIgRyb_aBIe7C6M", "latitude": 39.7446103, "longitude": -84.1874843, "subtypes": "Neurologist"}, {"name": "Saad Kanaan, MD", "address": "30 E Apple St #5254, Dayton, OH 45409", "city": "Dayton", "state": "Ohio", "state_code": "OH", "phone": "+1 937-208-4200", "website": "https://doctors.premierhealth.com/provider/Saad%2BKanaan/2181329%3Futm_source%3Dgmb%26utm_medium%3Dwebsite%26utm_campaign%3Dkyruus_soci", "rating": 3, "reviews": 2, "place_id": "ChIJBfxW7uOHQIgRKTTD5eA2d0o", "latitude": 39.74554, "longitude": -84.18599999999999, "subtypes": "Neurologist"}, {"name": "OhioHealth Physician Group Neurosurgery", "address": "7774 Dayton Springfield Rd, Fairborn, OH 45324", "city": "Fairborn", "state": "Ohio", "state_code": "OH", "phone": "+1 614-788-4581", "website": "https://www.ohiohealth.com/ohiohealth-physician-group/our-specialties/neuroscience/our-locations/fairborn%3Futm_source%3Dyext%26utm_medium%3Dlistings%26utm_campaign%3Dwebsiteclicksfacility", "rating": 5, "reviews": 1, "place_id": "ChIJC1tZy-ZhP4gRxz3dmaF7Aa0", "latitude": 39.8650052, "longitude": -83.96227139999999, "subtypes": "Neurologist"}, {"name": "Dr. Lane Fowler, MD", "address": "30 E Apple St #5254, Dayton, OH 45409", "city": "Dayton", "state": "Ohio", "state_code": "OH", "phone": "+1 844-277-2894", "website": "https://www.premierphysiciannet.com/Clinical-Neuroscience-Institute/For-Physicians/Residents/Lane-Fowler,-MD/", "rating": 5, "reviews": 1, "place_id": "ChIJL5v4OqiGQIgRhxp78ya_Bts", "latitude": 39.7452528, "longitude": -84.1865335, "subtypes": "Neurologist"}, {"name": "Luke Bramlage", "address": "30 E Apple St #5254, Dayton, OH 45409", "city": "Dayton", "state": "Ohio", "state_code": "OH", "phone": "+1 937-208-4200", "website": "https://doctors.premierhealth.com/provider/Luke%2BBramlage/2723753%3Futmsource%3Dgoogle%26utmmedium%3Dwebsite%26utmcampaign%3Dkyruussoci", "rating": 5, "reviews": 1, "place_id": "ChIJv9cGowSHQIgRpJgfLseU4qk", "latitude": 39.7462135, "longitude": -84.18763729999999, "subtypes": "Neurologist"}, {"name": "Meredith Clouse, MD", "address": "30 E Apple St #5254, Dayton, OH 45409", "city": "Dayton", "state": "Ohio", "state_code": "OH", "phone": "+1 937-208-4200", "website": "https://doctors.premierhealth.com/provider/Meredith%2BRuth%2BClouse/2297772%3Futm_source%3Dgmb%26utm_medium%3Dwebsite%26utm_campaign%3Dkyruussoci", "rating": 5, "reviews": 1, "place_id": "ChIJm-iUZ12HQIgRh5O85ZvBhIY", "latitude": 39.745513, "longitude": -84.1868769, "subtypes": "Neurologist"}, {"name": "Rachel Pan, MD", "address": "2300 Miami Valley Dr Ste 550, Centerville, OH 45459", "city": "Centerville", "state": "Ohio", "state_code": "OH", "phone": "+1 937-438-7500", "website": "https://doctors.premierhealth.com/provider/Rachel%2BPan/3155366%3Futm_source%3Dgmb%26utm_medium%3Dwebsite%26utm_campaign%3Dkyruussoci", "rating": 4.2, "reviews": 5, "place_id": "ChIJqU_xq3aPQIgRaywuRagS-lE", "latitude": 39.6527307, "longitude": -84.1147818, "subtypes": "Neurologist"}, {"name": "Cassandra Milling, MD", "address": "30 E Apple St #5254, Dayton, OH 45409", "city": "Dayton", "state": "Ohio", "state_code": "OH", "phone": "+1 937-208-4200", "website": "https://doctors.premierhealth.com/provider/Cassandra%2BJean%2BMilling/1835623%3Futm_source%3Dgmb%26utm_medium%3Dwebsite%26utm_campaign%3Dkyruussoci", "rating": 3.1, "reviews": 10, "place_id": "ChIJ1-fps6mGQIgR6P8IpuHITUw", "latitude": 39.7447795, "longitude": -84.18643879999999, "subtypes": "Neurologist"}, {"name": "Dr. Rajinder P. Singh, DO", "address": "2510 Commons Blvd #276, Beavercreek, OH 45431", "city": "Beavercreek", "state": "Ohio", "state_code": "OH", "phone": "+1 937-439-6186", "website": "", "rating": 5, "reviews": 1, "place_id": "ChIJ7TIuMnmdQIgRX6Y3B6zzx_w", "latitude": 39.7622679, "longitude": -84.0588428, "subtypes": "Neurologist"}, {"name": "Ling Xu, MD", "address": "1900 Composite Dr, Kettering, OH 45420", "city": "Kettering", "state": "Ohio", "state_code": "OH", "phone": "+1 937-312-8150", "website": "https://www.primedphysicians.com/provider-listing/md-ling-xu.html", "rating": 3, "reviews": 4, "place_id": "ChIJ3yr6veCFQIgRcv8k05Sigc4", "latitude": 39.7202779, "longitude": -84.1497019, "subtypes": "Neurologist"}, {"name": "Ania Pollack, MD", "address": "30 E Apple St #5254, Dayton, OH 45409", "city": "Dayton", "state": "Ohio", "state_code": "OH", "phone": "+1 937-208-4200", "website": "https://doctors.premierhealth.com/provider/Anna%2BG%2BPollack/1779827%3Futm_source%3Dgmb%26utm_medium%3Dwebsite%26utm_campaign%3Dkyruussoci", "rating": 4.7, "reviews": 15, "place_id": "ChIJ_1uXS6iGQIgR_-coEbAa1OM", "latitude": 39.7447795, "longitude": -84.18643879999999, "subtypes": "Neurosurgeon"}, {"name": "Yaslam Balfaqih, MD", "address": "1 Childrens Plaza, Dayton, OH 45404", "city": "Dayton", "state": "Ohio", "state_code": "OH", "phone": "+1 937-641-3000", "website": "http://providers.childrensdayton.org/Yaslam%2520Balfaqih/4880932", "rating": "", "reviews": "", "place_id": "ChIJ2U_WY_aDQIgR0SaL8pVCyP8", "latitude": 39.7737413, "longitude": -84.1679953, "subtypes": "Neurologist"}, {"name": "Aaron Shaver, MD", "address": "30 E Apple St #5254, Dayton, OH 45409", "city": "Dayton", "state": "Ohio", "state_code": "OH", "phone": "+1 937-208-4200", "website": "https://doctors.premierhealth.com/provider/Aaron%2BRay%2BShaver/2006091%3Futm_source%3Dgmb%26utm_medium%3Dwebsite%26utm_campaign%3Dkyruussoci", "rating": 5, "reviews": 7, "place_id": "ChIJmfXX8zqHQIgRTVx-OVZqtLc", "latitude": 39.745513, "longitude": -84.1868769, "subtypes": "Neurologist"}, {"name": "Dr. Amr Elmaghraby, MD", "address": "30 E Apple St #5254, Dayton, OH 45409", "city": "Dayton", "state": "Ohio", "state_code": "OH", "phone": "+1 844-277-2894", "website": "https://www.premierphysiciannet.com/Clinical-Neuroscience-Institute/For-Physicians/Residents/Amr-Elmaghraby,-MD/", "rating": 5, "reviews": 1, "place_id": "ChIJL5v4OqiGQIgR9r3JwChiRQk", "latitude": 39.7452528, "longitude": -84.1865335, "subtypes": "Neurologist"}, {"name": "Derek Menkedick", "address": "2510 Commons Blvd #276, Beavercreek, OH 454313820", "city": "Beavercreek", "state": "Ohio", "state_code": "OH", "phone": "+1 937-439-6186", "website": "https://www.dcndinc.com/provider/derek-menkedick-do", "rating": 4, "reviews": 4, "place_id": "ChIJbUvnBmKcQIgR24lipxwZoIk", "latitude": 39.7622679, "longitude": -84.0588428, "subtypes": "Neurologist"}, {"name": "Neal Mehan, MD", "address": "1020 Woodman Dr, Dayton, OH 45432", "city": "Dayton", "state": "Ohio", "state_code": "OH", "phone": "+1 937-523-9980", "website": "http://mehanneurosurgery.com/", "rating": 4.9, "reviews": 50, "place_id": "ChIJfSgEwRqHQIgR32YG9aduepo", "latitude": 39.75091, "longitude": -84.1192429, "subtypes": "Neurosurgeon"}, {"name": "Mahesh Chikkannaiah, MD", "address": "730 Valley St, Dayton, OH 45404", "city": "Dayton", "state": "Ohio", "state_code": "OH", "phone": "+1 937-641-3000", "website": "http://providers.childrensdayton.org/Mahesh%2520Chikkannaiah/4881013", "rating": 4.4, "reviews": 8, "place_id": "ChIJleTQtECDQIgRwwGtvd8y70o", "latitude": 39.7753796, "longitude": -84.1677811, "subtypes": "Pediatric neurologist"}, {"name": "Daniel Lacey, M.D.", "address": "One Childrens Plaza, Dayton, OH 45404", "city": "Dayton", "state": "Ohio", "state_code": "OH", "phone": "+1 937-641-3080", "website": "", "rating": 5, "reviews": 1, "place_id": "ChIJbwVYS8CDQIgRrB3DfWhyrdo", "latitude": 39.77490299999999, "longitude": -84.16721, "subtypes": "Neurologist"}, {"name": "Rajkumar Agarwal, MD", "address": "730 Valley St, Dayton, OH 45404", "city": "Dayton", "state": "Ohio", "state_code": "OH", "phone": "+1 937-641-3000", "website": "https://childrensdayton.org/locations/specialty-care-center-main-campus/", "rating": "", "reviews": "", "place_id": "ChIJG9UhL9SDQIgRWMEz-NJfbIM", "latitude": 39.7753796, "longitude": -84.1677811, "subtypes": "Neurologist"}, {"name": "Dr. Jonathan A. Tuttle, MD", "address": "30 E Apple St #5254, Dayton, OH 45409", "city": "Dayton", "state": "Ohio", "state_code": "OH", "phone": "+1 844-277-2894", "website": "", "rating": 5, "reviews": 3, "place_id": "ChIJL5v4OqiGQIgRNFDl1lKO1NA", "latitude": 39.7454105, "longitude": -84.186583, "subtypes": "Neurologist"}, {"name": "Lois Krousgrill, MD", "address": "3130 N County Rd 25A Suite 114, Troy, OH 45373", "city": "Troy", "state": "Ohio", "state_code": "OH", "phone": "+1 937-440-7665", "website": "https://doctors.premierhealth.com/provider/Lois%2BAnn%2BKrousgrill/2057491%3Futm_source%3Dgmb%26utm_medium%3Dwebsite%26utm_campaign%3Dkyruussoci", "rating": 5, "reviews": 9, "place_id": "ChIJLUHgGSp0P4gR804Xe8xHlpc", "latitude": 40.0857689, "longitude": -84.2300389, "subtypes": "Neurologist"}, {"name": "Grant Turek, MD", "address": "730 Valley St, Dayton, OH 45404", "city": "Dayton", "state": "Ohio", "state_code": "OH", "phone": "+1 937-641-3000", "website": "http://providers.childrensdayton.org/Grant%2520J%2520Turek/4881004", "rating": "", "reviews": "", "place_id": "ChIJURVNaXyDQIgRdZWtA3N62oU", "latitude": 39.7753796, "longitude": -84.1677811, "subtypes": "Pediatric neurologist"}, {"name": "Ajay Goenka, MD", "address": "1 Childrens Plaza, Dayton, OH 45404", "city": "Dayton", "state": "Ohio", "state_code": "OH", "phone": "+1 937-641-3000", "website": "https://www.childrensdayton.org/doctors/ajay-goenka-md%3Futm_source%3Dlocal%26utm_medium%3Dorganic%26utm_campaign%3Dgmb%26utm_content%3Dprovider", "rating": 4.3, "reviews": 7, "place_id": "ChIJ54Phd1yDQIgRawZI3oR9boI", "latitude": 39.77490299999999, "longitude": -84.16721, "subtypes": "Neurologist"}, {"name": "Mangala K Venkatesh, MD", "address": "30 E Apple St #5254, Dayton, OH 45409", "city": "Dayton", "state": "Ohio", "state_code": "OH", "phone": "+1 937-208-4200", "website": "https://doctors.premierhealth.com/provider/Mangala%2BK%2BVenkatesh/1780066%3Futm_source%3Dgmb%26utm_medium%3Dwebsite%26utm_campaign%3Dkyruus_soci", "rating": 5, "reviews": 1, "place_id": "ChIJAbk6meGHQIgRw5QD2_kKiiw", "latitude": 39.745513, "longitude": -84.1868769, "subtypes": "Neurologist"}, {"name": "Nicole Alexander, DO", "address": "1975 Miamisburg Centerville Rd, Centerville, OH 45459", "city": "Centerville", "state": "Ohio", "state_code": "OH", "phone": "+1 937-439-6186", "website": "http://www.dcndinc.com/%3Futm_source%3Dgmb_auth", "rating": 3.5, "reviews": 2, "place_id": "ChIJVVVlUtmIQIgR9STJ9lHVq-I", "latitude": 39.6356383, "longitude": -84.2013221, "subtypes": "Neurologist"}, {"name": "Dr Michael Verdon: Dayton Neurologic Associates", "address": "2587 Commons Blvd Ste 110, Beavercreek, OH 45431", "city": "Beavercreek", "state": "Ohio", "state_code": "OH", "phone": "+1 937-797-3137", "website": "https://www.daytonneurospine.com/", "rating": "", "reviews": "", "place_id": "ChIJF7D7ypGdQIgRp0gEEMDaJsE", "latitude": 39.7652709, "longitude": -84.0607452, "subtypes": "Neurosurgeon"}, {"name": "Gouda Jan J MD", "address": "1 Elizabeth Pl # 800, Dayton, OH 45417", "city": "Dayton", "state": "Ohio", "state_code": "OH", "phone": "+1 937-443-0590", "website": "", "rating": 5, "reviews": 2, "place_id": "ChIJ-RVi5bCGQIgRO456N6Qn0Ls", "latitude": 39.7474269, "longitude": -84.1993694, "subtypes": "Neurosurgeon"}, {"name": "Dr. Jacob M. Kitchener, MD", "address": "7271 N Main St, Dayton, OH 45415", "city": "Dayton", "state": "Ohio", "state_code": "OH", "phone": "+1 937-339-8513", "website": "", "rating": "", "reviews": "", "place_id": "ChIJMX66rhmAQIgRQDqJ8uapx7o", "latitude": 39.8310542, "longitude": -84.25197879999999, "subtypes": "Neurologist"}, {"name": "Dr. Petre Udrea, MD", "address": "2200 Philadelphia Dr, Dayton, OH 45406", "city": "Dayton", "state": "Ohio", "state_code": "OH", "phone": "+1 937-439-6186", "website": "http://dcndinc.com/", "rating": "", "reviews": "", "place_id": "ChIJi0kQMfuAQIgRm60e00EdFOo", "latitude": 39.7878051, "longitude": -84.23351249999999, "subtypes": "Neurologist"}, {"name": "Brittany Staarmann, MD", "address": "30 E Apple St #5254, Dayton, OH 45409", "city": "Dayton", "state": "Ohio", "state_code": "OH", "phone": "+1 937-208-4200", "website": "https://doctors.premierhealth.com/provider/Brittany%2BMarie%2BStaarmann/2297787%3Futm_source%3Dgmb%26utm_medium%3Dwebsite%26utm_campaign%3Dkyruussoci", "rating": 4.4, "reviews": 7, "place_id": "ChIJY668U6-HQIgRA8zsPtqSZ-A", "latitude": 39.746175, "longitude": -84.186483, "subtypes": "Neurosurgeon"}, {"name": "Sujit Bhimireddy, MD", "address": "30 E Apple St #5254, Dayton, OH 45409", "city": "Dayton", "state": "Ohio", "state_code": "OH", "phone": "+1 937-208-4200", "website": "https://doctors.premierhealth.com/provider/Sujit%2BBhimireddy/1970348%3Futm_source%3Dgmb%26utm_medium%3Dwebsite%26utm_campaign%3Dkyruussoci", "rating": 3.9, "reviews": 8, "place_id": "ChIJBTORsV-HQIgRfR-vgUQHg6k", "latitude": 39.74554, "longitude": -84.18599999999999, "subtypes": "Neurosurgeon"}, {"name": "Neil Patel, DO", "address": "425 W Grand Ave #1003, Dayton, OH 45405", "city": "Dayton", "state": "Ohio", "state_code": "OH", "phone": "+1 937-643-9299", "website": "https://ketteringhealth.org/doctors/neil-n-patel-1275735250/", "rating": 4.3, "reviews": 7, "place_id": "ChIJFwgP2kaBQIgR0fXcBpCw8GA", "latitude": 39.7693451, "longitude": -84.2037421, "subtypes": "Neurosurgeon"}, {"name": "Coleman Florence S MD", "address": "4100 W Third St, Dayton, OH 45428", "city": "Dayton", "state": "Ohio", "state_code": "OH", "phone": "+1 937-268-6511", "website": "", "rating": "", "reviews": "", "place_id": "ChIJ2_hmql-HQIgRdioYCfq9R0o", "latitude": 39.7491452, "longitude": -84.2534196, "subtypes": "Neurologist"}, {"name": "Dr. Sharon Merryman", "address": "405 W Grand Ave, Dayton, OH 45405", "city": "Dayton", "state": "Ohio", "state_code": "OH", "phone": "+1 937-226-7385", "website": "", "rating": "", "reviews": "", "place_id": "ChIJ714ctUaBQIgR08dsPspILKU", "latitude": 39.7698344, "longitude": -84.20269569999999, "subtypes": "Neurologist"}, {"name": "Arshi Naz", "address": "30 E Apple St Ste 5254A, Dayton, OH 45409", "city": "Dayton", "state": "Ohio", "state_code": "OH", "phone": "+1 937-208-4200", "website": "", "rating": "", "reviews": "", "place_id": "ChIJAVyXS6iGQIgRbE2Rj5r_a8Y", "latitude": 39.745864, "longitude": -84.1872935, "subtypes": "Neurologist"}, {"name": "Ian White, MD", "address": "30 E Apple St #5254, Dayton, OH 45409", "city": "Dayton", "state": "Ohio", "state_code": "OH", "phone": "+1 937-208-4200", "website": "https://doctors.premierhealth.com/provider/Ian%2BKainoa%2BWhite/1780147%3Futm_source%3Dgmb%26utm_medium%3Dwebsite%26utm_campaign%3Dkyruussoci", "rating": 4.4, "reviews": 25, "place_id": "ChIJz1jWEmaHQIgRaQfVSJIGxJ8", "latitude": 39.7462135, "longitude": -84.18763729999999, "subtypes": "Neurosurgeon"}, {"name": "Dr. Haitham Alabsi, MD", "address": "30 E Apple St #5254, Dayton, OH 45409", "city": "Dayton", "state": "Ohio", "state_code": "OH", "phone": "+1 844-277-2894", "website": "https://www.premierphysiciannet.com/Clinical-Neuroscience-Institute/For-Physicians/Residents/Haitham-Alabsi,-MD/", "rating": "", "reviews": "", "place_id": "ChIJL5v4OqiGQIgRrv_g_J-c-FI", "latitude": 39.7452528, "longitude": -84.1865335, "subtypes": "Neurologist"}, {"name": "Tracy Eicher, MD", "address": "9000 N Main St #238, Dayton, OH 45415", "city": "Dayton", "state": "Ohio", "state_code": "OH", "phone": "+1 937-836-6916", "website": "https://doctors.premierhealth.com/provider/Tracy%2BJeanne%2BEicher/1779901%3Futmsource%3Dgoogle%26utmmedium%3Dwebsite%26utmcampaign%3Dkyruussoci", "rating": "", "reviews": "", "place_id": "ChIJXS-qotaBP4gR-UmYZ_F3gcI", "latitude": 39.8557405, "longitude": -84.27211559999999, "subtypes": "Neurologist"}, {"name": "Anna E. Creighton, M.S.", "address": "30 E Apple St #5254, Dayton, OH 45409", "city": "Dayton", "state": "Ohio", "state_code": "OH", "phone": "+1 844-277-2894", "website": "", "rating": "", "reviews": "", "place_id": "ChIJL5v4OqiGQIgR421hmyR6rRA", "latitude": 39.7452528, "longitude": -84.1865335, "subtypes": "Neurologist"}, {"name": "Dr. Miesty Woodburn, MD", "address": "30 E Apple St #5254, Dayton, OH 45409", "city": "Dayton", "state": "Ohio", "state_code": "OH", "phone": "+1 844-277-2894", "website": "https://www.premierphysiciannet.com/Clinical-Neuroscience-Institute/For-Physicians/Residents/Miesty-Woodburn,-MD/", "rating": "", "reviews": "", "place_id": "ChIJL5v4OqiGQIgRdgeKfFD8FAQ", "latitude": 39.7451847, "longitude": -84.1866531, "subtypes": "Neurologist"}, {"name": "Dr. Jacob Kitchener, MD", "address": "30 E Apple St #5254, Dayton, OH 45409", "city": "Dayton", "state": "Ohio", "state_code": "OH", "phone": "+1 937-208-4200", "website": "", "rating": "", "reviews": "", "place_id": "ChIJYe-vramGQIgR3jpckw8nowQ", "latitude": 39.7462135, "longitude": -84.18763729999999, "subtypes": "Neurologist"}, {"name": "Mathews Thomas MD", "address": "4100 W Third St, Dayton, OH 45428", "city": "Dayton", "state": "Ohio", "state_code": "OH", "phone": "+1 937-268-6511", "website": "", "rating": "", "reviews": "", "place_id": "ChIJ2_hmql-HQIgRs5Wns1PFmxM", "latitude": 39.7491452, "longitude": -84.2534196, "subtypes": "Neurologist"}, {"name": "Dr. Adam Koss, MD", "address": "30 E Apple St #5254, Dayton, OH 45409", "city": "Dayton", "state": "Ohio", "state_code": "OH", "phone": "+1 844-277-2894", "website": "https://www.premierphysiciannet.com/Clinical-Neuroscience-Institute/For-Physicians/Residents/Adam-Koss,-MD/", "rating": "", "reviews": "", "place_id": "ChIJL5v4OqiGQIgRTRDlnLpRfMQ", "latitude": 39.7454462, "longitude": -84.1864494, "subtypes": "Neurologist"}, {"name": "Dr. Shireen Khan, MD", "address": "30 E Apple St #5254, Dayton, OH 45409", "city": "Dayton", "state": "Ohio", "state_code": "OH", "phone": "+1 844-277-2894", "website": "https://www.premierphysiciannet.com/Clinical-Neuroscience-Institute/For-Physicians/Residents/Shireen-Khan,-MD/", "rating": "", "reviews": "", "place_id": "ChIJL5v4OqiGQIgRtorolrhxYrI", "latitude": 39.7452528, "longitude": -84.1865335, "subtypes": "Neurologist"}, {"name": "Dr. Ashley Paul, MD", "address": "30 E Apple St #5254, Dayton, OH 45409", "city": "Dayton", "state": "Ohio", "state_code": "OH", "phone": "+1 844-277-2894", "website": "https://www.premierphysiciannet.com/Clinical-Neuroscience-Institute/For-Physicians/Residents/Ashley-Paul,-MD/", "rating": "", "reviews": "", "place_id": "ChIJL5v4OqiGQIgRHUsLQ8lH1Bo", "latitude": 39.7452528, "longitude": -84.1865335, "subtypes": "Neurologist"}, {"name": "Paulette Gillig, M.D.", "address": "627 S Edwin C Moses Blvd, Dayton, OH 45417", "city": "Dayton", "state": "Ohio", "state_code": "OH", "phone": "+1 937-223-8840", "website": "", "rating": "", "reviews": "", "place_id": "ChIJT_anx7GGQIgRBy_Vd_pUKbg", "latitude": 39.7476311, "longitude": -84.198263, "subtypes": "Neurologist"}, {"name": "Patel Amita MD", "address": "627 S Edwin C Moses Blvd G, Dayton, OH 45402", "city": "Dayton", "state": "Ohio", "state_code": "OH", "phone": "+1 937-424-1000", "website": "", "rating": 2, "reviews": 11, "place_id": "ChIJT_anx7GGQIgR3oPSKn0fKG8", "latitude": 39.74776, "longitude": -84.1985053, "subtypes": "Neurologist"}, {"name": "Nicholas Doninger, PhD", "address": "30 E Apple St Suite 6254, Dayton, OH 45409", "city": "Dayton", "state": "Ohio", "state_code": "OH", "phone": "+1 937-208-2554", "website": "https://doctors.premierhealth.com/provider/Nicholas%2BA%2BDoninger/1850740%3Futm_source%3Dgmb%26utm_medium%3Dwebsite%26utm_campaign%3Dkyruussoci", "rating": 5, "reviews": 3, "place_id": "ChIJQ3Vp58mHQIgRDmp5GABHzfI", "latitude": 39.7462464, "longitude": -84.1868811, "subtypes": "Neurophysiologist"}, {"name": "Irma Reyes, DO", "address": "730 Valley St, Dayton, OH 45404", "city": "Dayton", "state": "Ohio", "state_code": "OH", "phone": "+1 937-641-3000", "website": "http://providers.childrensdayton.org/Irma%2520Liezl%2520Reyes/4880760", "rating": "", "reviews": "", "place_id": "ChIJbwVYS8CDQIgRr5jjcadaDQ8", "latitude": 39.7753796, "longitude": -84.1677811, "subtypes": "Pediatric neurologist"}, {"name": "Dr. Shumei Man, MD", "address": "30 E Apple St #5254, Dayton, OH 45409", "city": "Dayton", "state": "Ohio", "state_code": "OH", "phone": "+1 844-277-2894", "website": "https://www.premierphysiciannet.com/Clinical-Neuroscience-Institute/For-Physicians/Residents/Shumei-Man,-MD/", "rating": "", "reviews": "", "place_id": "ChIJL5v4OqiGQIgR3tZnxKX3_U4", "latitude": 39.7452528, "longitude": -84.1865335, "subtypes": "Neurologist"}, {"name": "Mohamed-Saeed Osman M MD", "address": "30 E Apple St #62, Dayton, OH 45409", "city": "Dayton", "state": "Ohio", "state_code": "OH", "phone": "+1 937-208-4890", "website": "http://www.miamivalleyhospital.org/", "rating": "", "reviews": "", "place_id": "ChIJD08EyqmGQIgRPbHHqgeU5UQ", "latitude": 39.74621339999999, "longitude": -84.18763729999999, "subtypes": "Neurologist"}, {"name": "Dr. Mohammed Sohel Ahmed, MD", "address": "30 E Apple St #5254, Dayton, OH 45409", "city": "Dayton", "state": "Ohio", "state_code": "OH", "phone": "+1 937-208-4200", "website": "", "rating": "", "reviews": "", "place_id": "ChIJZfWlramGQIgRKL6ERmCUW1E", "latitude": 39.7452528, "longitude": -84.1865335, "subtypes": "Neurologist"}, {"name": "Dr. Thomas Pitts, MD", "address": "30 E Apple St #5254, Dayton, OH 45409", "city": "Dayton", "state": "Ohio", "state_code": "OH", "phone": "+1 844-277-2894", "website": "https://www.premierphysiciannet.com/Clinical-Neuroscience-Institute/For-Physicians/Residents/Thomas-Pitts,-MD/", "rating": "", "reviews": "", "place_id": "ChIJL5v4OqiGQIgRovT2tpJKNfo", "latitude": 39.7452818, "longitude": -84.18653599999999, "subtypes": "Neurologist"}, {"name": "Daniel Gaudin, MD", "address": "30 E Apple St #5254, Dayton, OH 45409", "city": "Dayton", "state": "Ohio", "state_code": "OH", "phone": "+1 937-208-4200", "website": "https://doctors.premierhealth.com/provider/Daniel%2BGaudin/1780164%3Futm_source%3Dgmb%26utm_medium%3Dwebsite%26utm_campaign%3Dkyruussoci", "rating": 4.3, "reviews": 17, "place_id": "ChIJL5v4OqiGQIgRjpS7AXCGfCk", "latitude": 39.7447795, "longitude": -84.18643879999999, "subtypes": "Neurosurgeon"}, {"name": "Dr. Ashlee E. Moore, MD", "address": "1 Wyoming St, Dayton, OH 45409", "city": "Dayton", "state": "Ohio", "state_code": "OH", "phone": "+1 937-208-8000", "website": "http://www.miamivalleyhospital.org/", "rating": "", "reviews": "", "place_id": "ChIJmfbldqiGQIgR6m7WZ9x5C3k", "latitude": 39.7451432, "longitude": -84.1862548, "subtypes": "Neurologist"}, {"name": "Dr. Geetha Kanakeswaran, MD", "address": "30 E Apple St #5254, Dayton, OH 45409", "city": "Dayton", "state": "Ohio", "state_code": "OH", "phone": "+1 844-277-2894", "website": "https://www.premierphysiciannet.com/Clinical-Neuroscience-Institute/For-Physicians/Residents/Geetha-Kanakeswaran,-MD/", "rating": "", "reviews": "", "place_id": "ChIJL5v4OqiGQIgRM5a6sDCf3UA", "latitude": 39.7451576, "longitude": -84.18678249999999, "subtypes": "Neurologist"}, {"name": "Dr. Praveen Venkatachalam, MD", "address": "30 E Apple St #5254, Dayton, OH 45409", "city": "Dayton", "state": "Ohio", "state_code": "OH", "phone": "+1 844-277-2894", "website": "https://www.premierphysiciannet.com/Clinical-Neuroscience-Institute/For-Physicians/Residents/Praveen-Venkatachalam,-MD/", "rating": "", "reviews": "", "place_id": "ChIJL5v4OqiGQIgRiKJM-AxDbvY", "latitude": 39.7452528, "longitude": -84.1865335, "subtypes": "Neurologist"}, {"name": "James Gilchrist, PhD", "address": "30 E Apple St Suite 6254, Dayton, OH 45409", "city": "Dayton", "state": "Ohio", "state_code": "OH", "phone": "+1 937-208-2554", "website": "https://doctors.premierhealth.com/provider/James%2BCook%2BGilchrist/1779932%3Futm_source%3Dgmb%26utm_medium%3Dwebsite%26utm_campaign%3Dkyruussoci", "rating": 5, "reviews": 5, "place_id": "ChIJNx0hLTKHQIgRb3MQRAk3f2M", "latitude": 39.7462464, "longitude": -84.1868811, "subtypes": "Neurophysiologist"}, {"name": "Jeanne Beattie, MD", "address": "30 E Apple St #5254, Dayton, OH 45409", "city": "Dayton", "state": "Ohio", "state_code": "OH", "phone": "+1 937-208-4200", "website": "https://doctors.premierhealth.com/provider/Jeanne%2BLouise%2BBeattie/2622800%3Futm_source%3Dgmb%26utm_medium%3Dwebsite%26utm_campaign%3Dkyruussoci", "rating": "", "reviews": "", "place_id": "ChIJR6UYR8CHQIgRnP0Zdub8Zl4", "latitude": 39.7462135, "longitude": -84.18763729999999, "subtypes": "Neurologist"}, {"name": "Dr. Stephen Eichert, DO", "address": "9000 N Main St #328, Dayton, OH 45415", "city": "Dayton", "state": "Ohio", "state_code": "OH", "phone": "+1 937-312-9586", "website": "", "rating": "", "reviews": "", "place_id": "ChIJQ2Hha8qPQIgRoFwpt11qXY4", "latitude": 39.855255, "longitude": -84.272111, "subtypes": "Neurologist"}, {"name": "Saad Hashem Kanaan", "address": "1 Elizabeth Pl, Dayton, OH 45417", "city": "Dayton", "state": "Ohio", "state_code": "OH", "phone": "+1 937-223-6237", "website": "", "rating": "", "reviews": "", "place_id": "ChIJHZzDDbGGQIgRmMmthgSKmqI", "latitude": 39.747688, "longitude": -84.199452, "subtypes": "Neurologist"}, {"name": "Lauren Cameron, MD", "address": "Medical Arts Cntr 4, 6115 Powers Blvd Ste 204, Parma, OH 44129", "city": "Parma", "state": "Ohio", "state_code": "OH", "phone": "+1 440-743-8120", "website": "https://www.uhhospitals.org/doctors/Cameron-Lauren-1891054466%3Futm_campaign%3DCameron_Lauren_6115_Powers_Blvd%26utm_source%3Dyext%26utm_medium%3Dlocallisting%26utm_content%3Dwebsite_url", "rating": 4, "reviews": 6, "place_id": "ChIJt_ggGQXpMIgRzt13bVpTFSM", "latitude": 41.3812845, "longitude": -81.7277316, "subtypes": "Neurologist"}, {"name": "John Andrefsky, MD", "address": "Medical Arts Cntr 4, 6115 Powers Blvd Ste 204, Parma, OH 44129", "city": "Parma", "state": "Ohio", "state_code": "OH", "phone": "+1 440-743-8120", "website": "https://www.uhhospitals.org/doctors/Andrefsky-John-1356373344%3Futm_campaign%3DAndrefsky_John_6115_Powers_Blvd%26utm_source%3Dyext%26utm_medium%3Dlocallisting%26utm_content%3Dwebsite_url", "rating": 3.7, "reviews": 16, "place_id": "ChIJabl9_dLoMIgRDWlszad8YGA", "latitude": 41.3812845, "longitude": -81.7277316, "subtypes": "Neurologist"}, {"name": "Dr. Brendan Bauer - Mercy - Oberlin", "address": "6800 Ridge Rd ste 120, Parma, OH 44129", "city": "Parma", "state": "Ohio", "state_code": "OH", "phone": "+1 440-925-5378", "website": "https://orionneuro.com/", "rating": 5, "reviews": 1, "place_id": "ChIJl4E8_yfpMIgR619CE8Gi69s", "latitude": 41.379758, "longitude": -81.73515569999999, "subtypes": "Neurologist"}, {"name": "Dr. Dariush Saghafi, MD", "address": "6681 Ridge Rd # 300, Parma, OH 44129", "city": "Parma", "state": "Ohio", "state_code": "OH", "phone": "+1 440-842-3816", "website": "", "rating": 1, "reviews": 2, "place_id": "ChIJP2pvZ9XoMIgRYwxv85yVmHY", "latitude": 41.3824676, "longitude": -81.7333299, "subtypes": "Neurologist"}, {"name": "James Anderson, MD", "address": "6115 Powers Blvd # 100, Parma, OH 44129", "city": "Parma", "state": "Ohio", "state_code": "OH", "phone": "+1 440-816-2860", "website": "https://www.uhhospitals.org/doctors/Anderson-James-1922115385%3Futm_campaign%3DAnderson_James_6115_Powers_Blvd%26utm_source%3Dyext%26utm_medium%3Dlocallisting%26utm_content%3Dwebsite_url", "rating": 5, "reviews": 1, "place_id": "ChIJGf6wT0vpMIgR1LJwcH78E7I", "latitude": 41.3813217, "longitude": -81.7276066, "subtypes": "Neurosurgeon"}, {"name": "Evan Uhrhammer, PA-C", "address": "Medical Arts Cntr 4, 6115 Powers Blvd Ste 201, Parma, OH 44129", "city": "Parma", "state": "Ohio", "state_code": "OH", "phone": "+1 216-844-3691", "website": "https://www.uhhospitals.org/doctors/Uhrhammer-Evan-1902773732%3Futm_campaign%3DUhrhammer_Evan_6115_Powers_Blvd%26utm_source%3Dyext%26utm_medium%3Dlocallisting%26utm_content%3Dwebsite_url", "rating": "", "reviews": "", "place_id": "ChIJBWAISdbpMIgRanuRDKTTLbM", "latitude": 41.3813128, "longitude": -81.7273506, "subtypes": "Pediatric neurologist"}, {"name": "Marissa Layman, PA-C", "address": "Medical Arts Cntr 4, 6115 Powers Blvd Ste 201, Parma, OH 44129", "city": "Parma", "state": "Ohio", "state_code": "OH", "phone": "+1 216-844-3691", "website": "https://www.uhhospitals.org/doctors/Layman-Marissa-1780427492%3Futm_campaign%3DLayman_Marissa_6115_Powers_Blvd%26utm_source%3Dyext%26utm_medium%3Dlocallisting%26utm_content%3Dwebsite_url", "rating": "", "reviews": "", "place_id": "ChIJueTwmDjpMIgRxxmOeuZZ1XY", "latitude": 41.3813128, "longitude": -81.7273506, "subtypes": "Pediatric neurologist"}, {"name": "Dr. Donald G. Kikta, MD", "address": "6681 Ridge Rd #310, Cleveland, OH 44129", "city": "Cleveland", "state": "Ohio", "state_code": "OH", "phone": "+1 440-884-1166", "website": "", "rating": 1, "reviews": 2, "place_id": "ChIJP2pvZ9XoMIgR46oQTC6tZQQ", "latitude": 41.38245879999999, "longitude": -81.7332718, "subtypes": "Neurologist"}, {"name": "Edward Gilmore, MD, PhD", "address": "Medical Arts Cntr 4, 6115 Powers Blvd Ste 201, Parma, OH 44129", "city": "Parma", "state": "Ohio", "state_code": "OH", "phone": "+1 216-844-3691", "website": "https://www.uhhospitals.org/doctors/Gilmore-Edward-1457324642%3Futm_campaign%3DGilmore_Edward_6115_Powers_Blvd%26utm_source%3Dyext%26utm_medium%3Dlocallisting%26utm_content%3Dwebsite_url", "rating": "", "reviews": "", "place_id": "ChIJ81kwbXXpMIgRVh6eSOoa-u8", "latitude": 41.3812845, "longitude": -81.7277316, "subtypes": "Pediatric neurologist"}, {"name": "Carmen Bowers, CNP", "address": "Medical Arts Cntr 4, 6115 Powers Blvd Ste 204, Parma, OH 44129", "city": "Parma", "state": "Ohio", "state_code": "OH", "phone": "+1 440-743-8120", "website": "https://www.uhhospitals.org/doctors/Bowers-Carmen-1376162933%3Futm_campaign%3DBowers_Carmen_6115_Powers_Blvd%26utm_source%3Dyext%26utm_medium%3Dlocallisting%26utm_content%3Dwebsite_url", "rating": "", "reviews": "", "place_id": "ChIJC20qPEDpMIgRS_XpA16O54c", "latitude": 41.3813128, "longitude": -81.7273506, "subtypes": "Neurologist"}, {"name": "Drake Ryan S Do", "address": "4048 Dressler Rd NW, Canton, OH 44718", "city": "Canton", "state": "Ohio", "state_code": "OH", "phone": "+1 330-494-2097", "website": "http://www.neurocarecenter.com/", "rating": 3, "reviews": 30, "place_id": "ChIJaVhdfDLRNogRKRxRxToFDKw", "latitude": 40.8402175, "longitude": -81.4341201, "subtypes": "Neurologist"}, {"name": "Aultman Neurosurgery", "address": "2600 Tuscarawas St W Suite 520, Canton, OH 44708", "city": "Canton", "state": "Ohio", "state_code": "OH", "phone": "+1 330-454-0702", "website": "https://aultmanmedicalgroup.com/practices/aultman-neurosurgery", "rating": 3.8, "reviews": 16, "place_id": "ChIJ4-70aHXaNogRG5jPg6kmKEI", "latitude": 40.7973444, "longitude": -81.4040035, "subtypes": "Neurosurgeon"}, {"name": "Dr. Charles A. Zollinger, MD", "address": "4048 Dressler Rd NW, Canton, OH 44718", "city": "Canton", "state": "Ohio", "state_code": "OH", "phone": "+1 330-494-2097", "website": "", "rating": 3.8, "reviews": 4, "place_id": "ChIJaVhdfDLRNogR8Ro6aEw2c-w", "latitude": 40.840222, "longitude": -81.4339662, "subtypes": "Neurologist"}, {"name": "Stalker Andrew P MD", "address": "4048 Dressler Rd NW, Canton, OH 44718", "city": "Canton", "state": "Ohio", "state_code": "OH", "phone": "+1 330-494-2097", "website": "http://www.neurocarecenter.com/", "rating": 2.1, "reviews": 14, "place_id": "ChIJaVhdfDLRNogRTusTqqrUYDk", "latitude": 40.840222, "longitude": -81.4339662, "subtypes": "Neurologist"}, {"name": "Drake Jennifer A DO", "address": "4048 Dressler Rd NW, Canton, OH 44718", "city": "Canton", "state": "Ohio", "state_code": "OH", "phone": "+1 330-494-2097", "website": "http://www.neurocarecenter.com/", "rating": 3.1, "reviews": 7, "place_id": "ChIJaVhdfDLRNogRwY2s75b9_jk", "latitude": 40.840222, "longitude": -81.4339662, "subtypes": "Neurologist"}, {"name": "Neurology & Neuroscience Associates: Miller Hugh J MD", "address": "4774 Munson St NW #100, Canton, OH 44718", "city": "Canton", "state": "Ohio", "state_code": "OH", "phone": "+1 330-494-8424", "website": "http://www.nnadoc.com/", "rating": 3, "reviews": 2, "place_id": "ChIJPxWipNDWNogRDZW4w4R8b-M", "latitude": 40.848281, "longitude": -81.43827999999999, "subtypes": "Neurologist"}, {"name": "Kinast Morris MD", "address": "4105 Holiday St NW, Canton, OH 44718", "city": "Canton", "state": "Ohio", "state_code": "OH", "phone": "+1 330-494-2097", "website": "http://www.neurocarecenter.com/", "rating": 5, "reviews": 7, "place_id": "ChIJaVhdfDLRNogRBrV4Dzoyo0I", "latitude": 40.851589, "longitude": -81.42513869999999, "subtypes": "Pediatric neurologist"}, {"name": "Roman Frankie MD", "address": "7337 Caritas Circle Northwest #280, Massillon, OH 44646", "city": "Massillon", "state": "Ohio", "state_code": "OH", "phone": "+1 330-494-8424", "website": "http://www.unityhealthnetwork.org/", "rating": 5, "reviews": 3, "place_id": "ChIJPxWipNDWNogRam0kK-VloXI", "latitude": 40.848281, "longitude": -81.4382799, "subtypes": "Neurologist"}, {"name": "Dr. Alok Bhagat, MD", "address": "4105 Holiday St NW, Canton, OH 44718", "city": "Canton", "state": "Ohio", "state_code": "OH", "phone": "+1 330-494-2097", "website": "https://my.clevelandclinic.org/staff/28039-alok-bhagat", "rating": 5, "reviews": 2, "place_id": "ChIJaVhdfDLRNogRqmweAsW92Ds", "latitude": 40.8516165, "longitude": -81.425095, "subtypes": "Neurologist"}, {"name": "Damien Earl", "address": "4048 Dressler Rd NW, Canton, OH 44718", "city": "Canton", "state": "Ohio", "state_code": "OH", "phone": "+1 330-494-2097", "website": "https://my.clevelandclinic.org/staff/103459-damien-earl", "rating": "", "reviews": "", "place_id": "ChIJUYDAgDLRNogRspObEdKdY5s", "latitude": 40.840222, "longitude": -81.4339662, "subtypes": "Neurologist"}, {"name": "Rebecca E. Thomas, CNS", "address": "1330 Mercy Drive Northwest #510, Canton, OH 44708", "city": "Canton", "state": "Ohio", "state_code": "OH", "phone": "+1 330-456-6760", "website": "", "rating": "", "reviews": "", "place_id": "ChIJf8AuB5LQNogR_EWXdNTpa3I", "latitude": 40.8128852, "longitude": -81.395996, "subtypes": "Neurologist"}, {"name": "Dr. Rishi K. Goel, MD", "address": "Aultman Hospital Physician Office Building, 2600 Tuscarawas St W Suite 520, Canton, OH 44708", "city": "Canton", "state": "Ohio", "state_code": "OH", "phone": "+1 330-454-0702", "website": "https://aultmanmedicalgroup.com/practices/amg-neurosurgery", "rating": 3.3, "reviews": 17, "place_id": "ChIJ5WSZgtKTMIgR4xLKnzZaWAI", "latitude": 40.7973444, "longitude": -81.4040035, "subtypes": "Neurosurgeon"}, {"name": "Dr. Jay Berke", "address": "4105 Holiday St NW, Canton, OH 44718", "city": "Canton", "state": "Ohio", "state_code": "OH", "phone": "+1 330-494-2097", "website": "http://www.neurocarecenter.com/", "rating": 4, "reviews": 1, "place_id": "ChIJaVhdfDLRNogRPuigbfx1dBE", "latitude": 40.8516091, "longitude": -81.42515039999999, "subtypes": "Neurologist"}, {"name": "Rishi Kumar Goel", "address": "2600 Tuscarawas St W Suite 520, Canton, OH 44708", "city": "Canton", "state": "Ohio", "state_code": "OH", "phone": "+1 330-454-0702", "website": "", "rating": 1, "reviews": 2, "place_id": "ChIJzzyPHHXaNogRrYqj2HQS_VA", "latitude": 40.7973444, "longitude": -81.4040035, "subtypes": "Neurosurgeon"}, {"name": "Dr. Mark Weiner", "address": "2600 Tuscarawas St W Suite 520, Canton, OH 44708", "city": "Canton", "state": "Ohio", "state_code": "OH", "phone": "+1 330-454-0350", "website": "", "rating": 5, "reviews": 1, "place_id": "ChIJzzyPHHXaNogRHJorhg1nnhg", "latitude": 40.7973444, "longitude": -81.4040035, "subtypes": "Neurosurgeon"}, {"name": "OhioHealth Physician Group Neurology Dublin", "address": "6905 Hospital Dr Ste 200A, Dublin, OH 43016", "city": "Dublin", "state": "Ohio", "state_code": "OH", "phone": "+1 614-544-8676", "website": "https://www.ohiohealth.com/ohiohealth-physician-group/ohiohealth-neurological-physicians/ohiohealth-neurological-physicians-dublin/%3Futm_source%3Dyext%26utm_medium%3Dlistings%26utm_campaign%3Dwebsiteclicksfacility", "rating": 5, "reviews": 3, "place_id": "ChIJvdQYSYuTOIgRyGp4LUPlwN0", "latitude": 40.1018103, "longitude": -83.16096379999999, "subtypes": "Neurologist"}, {"name": "Dr. Abdelhakim A. Hussein, MD", "address": "6805 Avery-Muirfield Dr STE 202, Dublin, OH 43016", "city": "Dublin", "state": "Ohio", "state_code": "OH", "phone": "+1 614-760-0666", "website": "http://ohiohealth.com/", "rating": 4.4, "reviews": 53, "place_id": "ChIJh1dbNKvsOIgR3bIbPxPmN-0", "latitude": 40.107418, "longitude": -83.1608657, "subtypes": "Neurologist"}, {"name": "Jaysingh R Singh MD", "address": "6700 University Blvd, Dublin, OH 43016", "city": "Dublin", "state": "Ohio", "state_code": "OH", "phone": "+1 614-293-4969", "website": "https://wexnermedical.osu.edu/find-a-doctor/jaysingh-singh-100001761%3Futm_campaign%3Dmed_general-awareness-evergreen_corp%26utm_source%3Dgooglemybusiness%26utm_medium%3Dorganic%26utm_content%3Dgmb_listing", "rating": 5, "reviews": 4, "place_id": "ChIJoaQqJe-JOIgRX6bzRpW-wVc", "latitude": 40.0982502, "longitude": -83.1694911, "subtypes": "Neurologist"}, {"name": "Jesse W Mindel, MD", "address": "6700 University Blvd, Dublin, OH 43016", "city": "Dublin", "state": "Ohio", "state_code": "OH", "phone": "+1 614-293-4925", "website": "https://wexnermedical.osu.edu/find-a-doctor/jesse-mindel-100000555%3Futm_campaign%3Dmed_general-awareness-evergreen_corp%26utm_source%3Dgooglemybusiness%26utm_medium%3Dorganic%26utm_content%3Dgmb_listing", "rating": 2.2, "reviews": 12, "place_id": "ChIJnRORvbaSOIgRJbS5Om-IqEs", "latitude": 40.0982502, "longitude": -83.1694911, "subtypes": "Neurologist"},