[{"name": "Brown Health Medical Group Neurology", "address": "20 Powel Ave, Newport, RI 02840", "city": "Newport", "state": "Rhode Island", "state_code": "RI", "phone": "+1 401-845-3800", "website": "https://www.brownhealth.org/centers-services/newport-neurology", "rating": 2.6, "reviews": 5, "place_id": "ChIJJa3qsz6v5YkRJPtoDI28ba0", "latitude": 41.4967995, "longitude": -71.3061907, "subtypes": "Neurologist"}, {"name": "GARY D. JOHNSON, MD", "address": "900 Douglas Pike, Smithfield, RI 02917", "city": "Smithfield", "state": "Rhode Island", "state_code": "RI", "phone": "+1 401-618-5507", "website": "http://www.lifespan.org/providers/gary-d-johnson-md", "rating": 5, "reviews": 8, "place_id": "ChIJQ5xpgCNB5IkRoakZA-Xyjwo", "latitude": 41.9090341, "longitude": -71.5160456, "subtypes": "Neurologist"}, {"name": "Johnson Gary D MD", "address": "2 Dudley St, Providence, RI 02905", "city": "Providence", "state": "Rhode Island", "state_code": "RI", "phone": "+1 401-444-6182", "website": "http://www.rhodeislandhospital.org/", "rating": 3, "reviews": 4, "place_id": "ChIJh6suamhF5IkRlUAKCaSRAS4", "latitude": 41.810409, "longitude": -71.408019, "subtypes": "Neurologist"}, {"name": "Cyril Burke, MD", "address": "1524 Atwood Ave, Johnston, RI 02919", "city": "Johnston", "state": "Rhode Island", "state_code": "RI", "phone": "+1 401-521-9620", "website": "https://www.brownhealth.org/providers/cyril-o-burke-iii-md", "rating": 3.7, "reviews": 19, "place_id": "ChIJbb-SgT1G5IkRKqoIm2i_WHU", "latitude": 41.8273987, "longitude": -71.5016612, "subtypes": "Neurologist"}, {"name": "Preston W. Douglas, MD", "address": "20 Powel Ave, Newport, RI 02840", "city": "Newport", "state": "Rhode Island", "state_code": "RI", "phone": "+1 401-845-3800", "website": "https://www.brownhealth.org/providers/preston-w-douglas-md", "rating": 4.7, "reviews": 13, "place_id": "ChIJm7Z08_-v5YkR2N3yovTi8tI", "latitude": 41.4967995, "longitude": -71.3061907, "subtypes": "Neurologist"}, {"name": "Brown Health Medical Group Neurology, West Warwick", "address": "1 James P Murphy Ind Hwy, West Warwick, RI 02893", "city": "West Warwick", "state": "Rhode Island", "state_code": "RI", "phone": "+1 401-606-4600", "website": "https://www.brownhealth.org/centers-services/brown-health-medical-group/brown-neurology", "rating": 2.6, "reviews": 17, "place_id": "ChIJQb56fSFL5IkR7NnNDPsV8Es", "latitude": 41.6713142, "longitude": -71.5005035, "subtypes": "Neurologist"}, {"name": "Dr. Gary A. L'europa, MD", "address": "227 Centerville Rd, Warwick, RI 02886", "city": "Warwick", "state": "Rhode Island", "state_code": "RI", "phone": "+1 401-732-3332", "website": "http://neurohealth.info/", "rating": 3.2, "reviews": 18, "place_id": "ChIJ55sQiXxM5IkRyBJ-VphyRTw", "latitude": 41.6984847, "longitude": -71.4682947, "subtypes": "Neurologist"}, {"name": "Albert J Marano MD Inc", "address": "1239 Hartford Ave, Johnston, RI 02919", "city": "Johnston", "state": "Rhode Island", "state_code": "RI", "phone": "+1 401-272-7660", "website": "", "rating": 3.2, "reviews": 78, "place_id": "ChIJiR_3mD1G5IkRAU3gUcFZd5E", "latitude": 41.8235001, "longitude": -71.49129429999999, "subtypes": "Neurologist"}, {"name": "Michael J. Harrison", "address": "1526 Atwood Ave, Johnston, RI 02919", "city": "Johnston", "state": "Rhode Island", "state_code": "RI", "phone": "+1 401-270-5395", "website": "http://www.newporthospital.org/", "rating": 5, "reviews": 1, "place_id": "ChIJiR_3mD1G5IkRYpmBpvN6n6M", "latitude": 41.8278767, "longitude": -71.5025643, "subtypes": "Neurologist"}, {"name": "Cyril Burke, MD", "address": "1524 Atwood Ave, Johnston, RI 02919", "city": "Johnston", "state": "Rhode Island", "state_code": "RI", "phone": "+1 401-521-9620", "website": "https://www.brownhealth.org/providers/cyril-o-burke-iii-md", "rating": 3.7, "reviews": 19, "place_id": "ChIJbb-SgT1G5IkRKqoIm2i_WHU", "latitude": 41.8273987, "longitude": -71.5016612, "subtypes": "Neurologist"}, {"name": "University Neurology: Dr. Joseph Centofanti and Dr. Erica Szabados", "address": "725 Reservoir Ave STE 308, Cranston, RI 02910", "city": "Cranston", "state": "Rhode Island", "state_code": "RI", "phone": "+1 401-944-9559", "website": "https://www.universityneurologyri.com/", "rating": 4.6, "reviews": 209, "place_id": "ChIJl0d2vRFP5IkR2KJrlqF0oDE", "latitude": 41.78047979999999, "longitude": -71.4441021, "subtypes": "Neurologist"}, {"name": "Dr. Jacob R. Berger, MD", "address": "814 Metacom Ave, Bristol, RI 02809", "city": "Bristol", "state": "Rhode Island", "state_code": "RI", "phone": "+1 401-396-5200", "website": "", "rating": "", "reviews": "", "place_id": "ChIJP45DMbxW5IkR58Gq0lEi3Hg", "latitude": 41.7127498, "longitude": -71.2670737, "subtypes": "Neurologist"}, {"name": "Mac Kinnon Susanne MD", "address": "448 Hope St, Bristol, RI 02809", "city": "Bristol", "state": "Rhode Island", "state_code": "RI", "phone": "", "website": "", "rating": "", "reviews": "", "place_id": "ChIJO2B92npU5IkRBEY5NHAPacs", "latitude": 41.669857, "longitude": -71.2760259, "subtypes": "Neurologist"}, {"name": "Gupta Rajesh MD", "address": "25 Wells St, Westerly, RI 02891", "city": "Westerly", "state": "Rhode Island", "state_code": "RI", "phone": "+1 401-596-6000", "website": "http://www.westerlyhospital.org/", "rating": "", "reviews": "", "place_id": "ChIJFf_zd-Pm5YkRECG6HYsaEyQ", "latitude": 41.3619551, "longitude": -71.8246289, "subtypes": "Neurologist"}, {"name": "Norman M. Gordon, MD", "address": "450 Veterans Memorial Pkwy Building 11, East Providence, RI 02914", "city": "East Providence", "state": "Rhode Island", "state_code": "RI", "phone": "+1 401-431-1860", "website": "https://www.brownhealth.org/providers/norman-m-gordon-md", "rating": 4.2, "reviews": 17, "place_id": "ChIJeS55G01F5IkR2-tKUQDzUzA", "latitude": 41.8078814, "longitude": -71.3842733, "subtypes": "Neurologist"}, {"name": "RODERICK C. SPEARS, MD", "address": "900 Douglas Pike #100C, Smithfield, RI 02917", "city": "Smithfield", "state": "Rhode Island", "state_code": "RI", "phone": "+1 401-618-5507", "website": "https://vivo.brown.edu/display/rcspears", "rating": 5, "reviews": 7, "place_id": "ChIJQ5xpgCNB5IkRNcQspQslG6M", "latitude": 41.9090611, "longitude": -71.516132, "subtypes": "Neurologist"}, {"name": "Dr. Meryl G. Goldhaber, MD", "address": "455 Toll Gate Rd, Warwick, RI 02886", "city": "Warwick", "state": "Rhode Island", "state_code": "RI", "phone": "+1 401-736-1011", "website": "", "rating": 2.7, "reviews": 7, "place_id": "ChIJq6qqqn1M5IkRvV6YcXDHeX4", "latitude": 41.7051805, "longitude": -71.4780866, "subtypes": "Neurologist"}, {"name": "Brown Health Medical Group Neurology, Rhode Island Hospital", "address": "593 Eddy St 5th Floor, Providence, RI 02903", "city": "Providence", "state": "Rhode Island", "state_code": "RI", "phone": "+1 401-444-3032", "website": "https://www.brownhealth.org/centers-services/brown-health-medical-group/brown-neurology", "rating": 2.7, "reviews": 9, "place_id": "ChIJh6suamhF5IkR8PZVY1LCc90", "latitude": 41.811384, "longitude": -71.4111215, "subtypes": "Neurologist"}, {"name": "Joseph H. Friedman, MD", "address": "345 Blackstone Blvd, Providence, RI 02906", "city": "Providence", "state": "Rhode Island", "state_code": "RI", "phone": "+1 401-455-6669", "website": "https://www.brownhealth.org/providers/joseph-h-friedman-md", "rating": 4.6, "reviews": 9, "place_id": "ChIJ0wfxts1E5IkRGBI7nSmO8R0", "latitude": 41.846263, "longitude": -71.385631, "subtypes": "Neurologist"}, {"name": "Lussier Mary L MD", "address": "250 Wampanoag Trl STE 204, Riverside, RI 02915", "city": "Riverside", "state": "Rhode Island", "state_code": "RI", "phone": "+1 401-438-2400", "website": "http://marylussiermd.com/", "rating": 4, "reviews": 4, "place_id": "ChIJWWJoWJla5IkRkGm3uxrixjM", "latitude": 41.796003, "longitude": -71.352829, "subtypes": "Neurologist"}, {"name": "Yaghi Shadi MD", "address": "593 Eddy St, Providence, RI 02903", "city": "Providence", "state": "Rhode Island", "state_code": "RI", "phone": "+1 401-444-8806", "website": "http://www.rhodeislandhospital.org/", "rating": 4.8, "reviews": 5, "place_id": "ChIJt4bexmhF5IkRNpVybVfVlc8", "latitude": 41.8107889, "longitude": -71.4090636, "subtypes": "Neurologist"}, {"name": "Dr. Kara Stavros", "address": "Ambulatory Patient Center, 593 Eddy St, Providence, RI 02903", "city": "Providence", "state": "Rhode Island", "state_code": "RI", "phone": "+1 401-444-2734", "website": "https://www.brownhealth.org/providers/kara-stavros-md", "rating": 4.7, "reviews": 3, "place_id": "ChIJFf-Yw2hF5IkRZzTY8F4ztjI", "latitude": 41.8114158, "longitude": -71.410918, "subtypes": "Neurologist"}, {"name": "Susanne J. Patrick-MacKinnon, MD", "address": "77 Turnpike Ave, Portsmouth, RI 02871", "city": "Portsmouth", "state": "Rhode Island", "state_code": "RI", "phone": "+1 401-845-3800", "website": "https://www.brownhealth.org/providers/susanne-j-patrick-mackinnon-md", "rating": 4.2, "reviews": 11, "place_id": "ChIJsdy_z3pU5IkRxheFsPuj2Pk", "latitude": 41.6031595, "longitude": -71.2498837, "subtypes": "Neurologist"}, {"name": "Sayeed Syed M MD", "address": "400 Warren Ave # 2B, East Providence, RI 02914", "city": "East Providence", "state": "Rhode Island", "state_code": "RI", "phone": "+1 401-431-1800", "website": "", "rating": 5, "reviews": 2, "place_id": "ChIJDTTOCsda5IkRLnzL5g7xS8g", "latitude": 41.813389, "longitude": -71.367458, "subtypes": "Neurologist"}, {"name": "George M. Sachs, MD", "address": "Ambulatory Patient Center, 593 Eddy St, Providence, RI 02903", "city": "Providence", "state": "Rhode Island", "state_code": "RI", "phone": "+1 401-444-3032", "website": "https://www.brownhealth.org/providers/george-m-sachs-md", "rating": 5, "reviews": 1, "place_id": "ChIJh6suamhF5IkRzDRW1yMXeQw", "latitude": 41.8114158, "longitude": -71.410918, "subtypes": "Neurologist"}, {"name": "Saima Chaudhry", "address": "Ambulatory Patient Center, 593 Eddy St, Providence, RI 02903", "city": "Providence", "state": "Rhode Island", "state_code": "RI", "phone": "+1 401-444-2734", "website": "https://www.lifespan.org/providers/saima-t-chaudhry-md", "rating": 5, "reviews": 1, "place_id": "ChIJFf-Yw2hF5IkRdsCwbgFVwJU", "latitude": 41.8114158, "longitude": -71.410918, "subtypes": "Neurologist"}, {"name": "Preston W. Douglas, MD", "address": "20 Powel Ave, Newport, RI 02840", "city": "Newport", "state": "Rhode Island", "state_code": "RI", "phone": "+1 401-845-3800", "website": "https://www.brownhealth.org/providers/preston-w-douglas-md", "rating": 4.7, "reviews": 13, "place_id": "ChIJm7Z08_-v5YkR2N3yovTi8tI", "latitude": 41.4967995, "longitude": -71.3061907, "subtypes": "Neurologist"}, {"name": "Dr. Preeti Gupta", "address": "2 Dudley St #555, Providence, RI 02905", "city": "Providence", "state": "Rhode Island", "state_code": "RI", "phone": "+1 401-444-2596", "website": "", "rating": 5, "reviews": 1, "place_id": "ChIJQ6V9aWhF5IkR-kns6whZ2CM", "latitude": 41.8103684, "longitude": -71.4080515, "subtypes": "Neurologist"}, {"name": "Szabados Erica M MD", "address": "725 Reservoir Ave # 105, Cranston, RI 02910", "city": "Cranston", "state": "Rhode Island", "state_code": "RI", "phone": "", "website": "", "rating": 3.7, "reviews": 6, "place_id": "ChIJl0d2vRFP5IkReE1Pg0Uf5N8", "latitude": 41.78032839999999, "longitude": -71.4438936, "subtypes": "Neurophysiologist"}, {"name": "Michelle L. Mellion", "address": "2 Dudley St #555, Providence, RI 02905", "city": "Providence", "state": "Rhode Island", "state_code": "RI", "phone": "+1 401-444-3032", "website": "http://www.rhodeislandhospital.org/", "rating": 3.5, "reviews": 2, "place_id": "ChIJh6suamhF5IkRzcqpdYFjCTw", "latitude": 41.810409, "longitude": -71.408019, "subtypes": "Neurologist"}, {"name": "Dr. Radmehr Torabi, MD", "address": "593 Eddy St, Providence, RI 02903", "city": "Providence", "state": "Rhode Island", "state_code": "RI", "phone": "+1 401-606-8380", "website": "http://www.brownneurosurgery.com/", "rating": 4.8, "reviews": 21, "place_id": "ChIJ7xUrq2lF5IkRaFKhyorl0LA", "latitude": 41.8125228, "longitude": -71.4075328, "subtypes": "Neurosurgeon"}, {"name": "Dr. Keith R. Brecher, MD", "address": "227 Centerville Rd, Warwick, RI 02886", "city": "Warwick", "state": "Rhode Island", "state_code": "RI", "phone": "+1 401-732-3332", "website": "", "rating": 2.8, "reviews": 18, "place_id": "ChIJ55sQiXxM5IkRvuMFjhxh4yU", "latitude": 41.6983737, "longitude": -71.4682967, "subtypes": "Neurologist"}, {"name": "Johnson Gary D MD", "address": "2 Dudley St, Providence, RI 02905", "city": "Providence", "state": "Rhode Island", "state_code": "RI", "phone": "+1 401-444-6182", "website": "http://www.rhodeislandhospital.org/", "rating": 3, "reviews": 4, "place_id": "ChIJh6suamhF5IkRlUAKCaSRAS4", "latitude": 41.810409, "longitude": -71.408019, "subtypes": "Neurologist"}, {"name": "Roth Julie L MD", "address": "593 Eddy St, Providence, RI 02903", "city": "Providence", "state": "Rhode Island", "state_code": "RI", "phone": "+1 401-444-4364", "website": "", "rating": 5, "reviews": 4, "place_id": "ChIJ8e1E2WhF5IkRndTQGCYQax4", "latitude": 41.811878, "longitude": -71.409401, "subtypes": "Neurologist"}, {"name": "Weinman Susan D MD", "address": "2 Dudley St #555, Providence, RI 02905", "city": "Providence", "state": "Rhode Island", "state_code": "RI", "phone": "+1 401-444-3032", "website": "", "rating": 1, "reviews": 2, "place_id": "ChIJh6suamhF5IkRslWovsgGnsI", "latitude": 41.810409, "longitude": -71.408019, "subtypes": "Neurologist"}, {"name": "Brown Health Medical Group Neurology", "address": "20 Powel Ave, Newport, RI 02840", "city": "Newport", "state": "Rhode Island", "state_code": "RI", "phone": "+1 401-845-3800", "website": "https://www.brownhealth.org/centers-services/newport-neurology", "rating": 2.6, "reviews": 5, "place_id": "ChIJJa3qsz6v5YkRJPtoDI28ba0", "latitude": 41.4967995, "longitude": -71.3061907, "subtypes": "Neurologist"}, {"name": "Brown Health Medical Group Neurosurgery at Rhode Island Hospital", "address": "Ambulatory Patient Center, 593 Eddy St, Providence, RI 02903", "city": "Providence", "state": "Rhode Island", "state_code": "RI", "phone": "+1 401-793-9166", "website": "https://www.brownhealth.org/centers-services/neurosurgery", "rating": 5, "reviews": 3, "place_id": "ChIJjUIjxGhF5IkRl74iohAcyN0", "latitude": 41.8114484, "longitude": -71.4109295, "subtypes": "Neurosurgeon"}, {"name": "Heinrich Elinzano, MD", "address": "Ambulatory Patient Center, 593 Eddy St, Providence, RI 02903", "city": "Providence", "state": "Rhode Island", "state_code": "RI", "phone": "+1 401-444-7740", "website": "https://www.brownhealth.org/providers/heinrich-elinzano-md", "rating": 5, "reviews": 4, "place_id": "ChIJ7xUrq2lF5IkRf-DtDFqgiGQ", "latitude": 41.8114484, "longitude": -71.4109295, "subtypes": "Neurologist"}, {"name": "Prathana Prakash", "address": "593 Eddy St # 1, Providence, RI 02903", "city": "Providence", "state": "Rhode Island", "state_code": "RI", "phone": "+1 401-444-6528", "website": "https://www.brownhealth.org/providers/prarthana-prakash-md", "rating": 5, "reviews": 2, "place_id": "ChIJ64FG_mhF5IkRXJnW2mW3m9A", "latitude": 41.811878, "longitude": -71.409401, "subtypes": "Neurologist"}, {"name": "William D. Brown, MD", "address": "335R Prairie Ave Suite 1A, Providence, RI 02905", "city": "Providence", "state": "Rhode Island", "state_code": "RI", "phone": "+1 401-444-5685", "website": "https://www.brownhealth.org/providers/william-d-brown-md", "rating": 3.7, "reviews": 9, "place_id": "ChIJh6suamhF5IkR2zgviz-mHZI", "latitude": 41.8048107, "longitude": -71.4153546, "subtypes": "Neurologist"}, {"name": "Jason Richards", "address": "593 Eddy St APC5, Providence, RI 02903", "city": "Providence", "state": "Rhode Island", "state_code": "RI", "phone": "+1 401-444-3032", "website": "", "rating": 3, "reviews": 2, "place_id": "ChIJ2W5wV2hF5IkRXmeMFaMYG0E", "latitude": 41.8113335, "longitude": -71.4089323, "subtypes": "Neurologist"}, {"name": "Syed A. Rizvi, MD", "address": "593 Eddy St APC 5, Providence, RI 02903", "city": "Providence", "state": "Rhode Island", "state_code": "RI", "phone": "+1 401-444-3032", "website": "https://www.brownhealth.org/providers/syed-rizvi-md", "rating": 4.4, "reviews": 10, "place_id": "ChIJh6suamhF5IkRy14HFTPXBw4", "latitude": 41.8114484, "longitude": -71.4109295, "subtypes": "Neurologist"}, {"name": "Andrew S. Blum, MD", "address": "593 Eddy St APC 5, Providence, RI 02903", "city": "Providence", "state": "Rhode Island", "state_code": "RI", "phone": "+1 401-444-4364", "website": "https://www.brownhealth.org/providers/andrew-s-blum-md-phd", "rating": 3, "reviews": 2, "place_id": "ChIJh6suamhF5IkR_YZU7v0XpsA", "latitude": 41.8114484, "longitude": -71.4109295, "subtypes": "Neurologist"}, {"name": "Dr. David Disanto", "address": "2464 Pawtucket Ave, East Providence, RI 02914", "city": "East Providence", "state": "Rhode Island", "state_code": "RI", "phone": "+1 401-431-0226", "website": "", "rating": 5, "reviews": 3, "place_id": "ChIJq6qmMb5a5IkRrjVR4q2UfjA", "latitude": 41.808042, "longitude": -71.3595947, "subtypes": "Neurosurgeon"}, {"name": "Anthony C. Rodrigues, MD", "address": "335R Prairie Ave, Providence, RI 02905", "city": "Providence", "state": "Rhode Island", "state_code": "RI", "phone": "+1 401-444-5685", "website": "https://www.brownhealth.org/providers/anthony-c-rodrigues-md", "rating": 5, "reviews": 2, "place_id": "ChIJ_S88d3ZF5IkRgNOseyU81Kk", "latitude": 41.8048107, "longitude": -71.4153546, "subtypes": "Neurologist"}, {"name": "Petra M. Klinge, MD", "address": "593 Eddy St, Providence, RI 02903", "city": "Providence", "state": "Rhode Island", "state_code": "RI", "phone": "+1 401-793-9166", "website": "https://www.brownhealth.org/providers/petra-m-klinge-md-phd", "rating": 4.6, "reviews": 36, "place_id": "ChIJ3yc1fWtF5IkRT_aDqCMWAkY", "latitude": 41.8114484, "longitude": -71.4109295, "subtypes": "Neurosurgeon"}, {"name": "Krisztina Moldovan", "address": "593 Eddy St APC SUITE 6, Providence, RI 02903", "city": "Providence", "state": "Rhode Island", "state_code": "RI", "phone": "+1 401-606-8380", "website": "https://brownneurosurgery.com/our-team/krisztina-moldovan-md/", "rating": 5, "reviews": 6, "place_id": "ChIJ2W5wV2hF5IkRfaiEB0p7bCg", "latitude": 41.8113335, "longitude": -71.4089323, "subtypes": "Neurosurgeon"}, {"name": "Thomas Morgan", "address": "54 Jefferson Blvd, Warwick, RI 02888", "city": "Warwick", "state": "Rhode Island", "state_code": "RI", "phone": "+1 401-467-7720", "website": "http://www.rhodeislandhospital.org/", "rating": 2, "reviews": 4, "place_id": "ChIJs32GGfRO5IkRQXZCyzjW5DU", "latitude": 41.7508007, "longitude": -71.43470789999999, "subtypes": "Neurologist"}, {"name": "Karen L. Kerman, MD", "address": "765 Allens Ave Suite 200, Providence, RI 02905", "city": "Providence", "state": "Rhode Island", "state_code": "RI", "phone": "+1 401-432-6835", "website": "https://www.brownhealth.org/providers/karen-l-kerman-md", "rating": 3.7, "reviews": 3, "place_id": "ChIJnVqj2PBP5IkRa32z6cXvric", "latitude": 41.7923884, "longitude": -71.3974455, "subtypes": "Neurologist"}, {"name": "James Gilchrist", "address": "2 Dudley St #555, Providence, RI 02905", "city": "Providence", "state": "Rhode Island", "state_code": "RI", "phone": "+1 401-444-8795", "website": "http://www.rhodeislandhospital.org/", "rating": 1, "reviews": 1, "place_id": "ChIJh6suamhF5IkRv7FwORppIb0", "latitude": 41.810409, "longitude": -71.408019, "subtypes": "Neurologist"}, {"name": "Pediatric Neurology at Hasbro Children's", "address": "335R Prairie Ave #2b, Providence, RI 02905", "city": "Providence", "state": "Rhode Island", "state_code": "RI", "phone": "+1 401-444-5685", "website": "https://www.brownhealth.org/centers-services/pediatric-neurology", "rating": "", "reviews": "", "place_id": "ChIJrfQ8dGNF5IkRB9u-bmxc_SA", "latitude": 41.8048107, "longitude": -71.4153546, "subtypes": "Neurologist"}, {"name": "Tomo Tarui, MD", "address": "335R Prairie Ave, Providence, RI 02905", "city": "Providence", "state": "Rhode Island", "state_code": "RI", "phone": "+1 401-444-5685", "website": "https://www.lifespan.org/providers/tomo-tarui-md", "rating": 5, "reviews": 1, "place_id": "ChIJfcy07XZF5IkRaE0fYzDfR4s", "latitude": 41.8048107, "longitude": -71.4153546, "subtypes": "Pediatric neurologist"}, {"name": "Julie L. Roth, MD", "address": "2 Dudley St #555, Providence, RI 02905", "city": "Providence", "state": "Rhode Island", "state_code": "RI", "phone": "+1 401-444-3032", "website": "https://www.brownhealth.org/providers/julie-l-roth-md", "rating": 1, "reviews": 1, "place_id": "ChIJ8e1E2WhF5IkRA2ONf0Lilps", "latitude": 41.8103684, "longitude": -71.4080515, "subtypes": "Neurologist"}, {"name": "Zayas Vlad MD", "address": "450 Veterans Memorial Pkwy, East Providence, RI 02914", "city": "East Providence", "state": "Rhode Island", "state_code": "RI", "phone": "+1 401-431-1860", "website": "http://www.miriamhospital.org/", "rating": "", "reviews": "", "place_id": "ChIJeS55G01F5IkRz-AK0Xps_xw", "latitude": 41.8074731, "longitude": -71.3845249, "subtypes": "Neurologist"}, {"name": "Swee Lim", "address": "593 Eddy St Ste 2, Providence, RI 02903", "city": "Providence", "state": "Rhode Island", "state_code": "RI", "phone": "+1 401-444-2734", "website": "", "rating": 1, "reviews": 1, "place_id": "ChIJFf-Yw2hF5IkRBQvhXJQA23w", "latitude": 41.8111946, "longitude": -71.4109562, "subtypes": "Neurologist"}, {"name": "N. Stevenson Potter, MD", "address": "Ambulatory Patient Center, 593 Eddy St, Providence, RI 02903", "city": "Providence", "state": "Rhode Island", "state_code": "RI", "phone": "+1 401-444-8362", "website": "https://www.brownhealth.org/providers/n-stevenson-potter-md-phd", "rating": "", "reviews": "", "place_id": "ChIJ7xUrq2lF5IkRuct4BsiaLls", "latitude": 41.8114484, "longitude": -71.4109295, "subtypes": "Neurologist"}, {"name": "Sandra Liliana Jimenez Giraldo, MD", "address": "335R Prairie Ave, Providence, RI 02905", "city": "Providence", "state": "Rhode Island", "state_code": "RI", "phone": "+1 401-444-5685", "website": "https://www.brownhealth.org/providers/sandra-liliana-jimenez-giraldo-md", "rating": 3.7, "reviews": 3, "place_id": "ChIJ9ZPa0fNF5IkRGA-f0VeVNsE", "latitude": 41.8048107, "longitude": -71.4153546, "subtypes": "Neurologist"}, {"name": "Dr. J D. Easton, MD", "address": "2 Dudley St, Providence, RI 02905", "city": "Providence", "state": "Rhode Island", "state_code": "RI", "phone": "+1 401-444-8795", "website": "http://www.rhodeislandhospital.org/", "rating": "", "reviews": "", "place_id": "ChIJh6suamhF5IkR62jmS_oExbY", "latitude": 41.8103507, "longitude": -71.40793479999999, "subtypes": "Neurologist"}, {"name": "Neurology Foundation Inc: Donnelly Edward M MD", "address": "2 Dudley St #555, Providence, RI 02905", "city": "Providence", "state": "Rhode Island", "state_code": "RI", "phone": "+1 401-444-3032", "website": "http://www.rhodeislandhospital.org/", "rating": "", "reviews": "", "place_id": "ChIJh6suamhF5IkRFt00cjUPOOQ", "latitude": 41.810409, "longitude": -71.408019, "subtypes": "Neurophysiologist"}, {"name": "Eric Wong", "address": "593 Eddy St, Providence, RI 02903", "city": "Providence", "state": "Rhode Island", "state_code": "RI", "phone": "+1 401-444-5435", "website": "", "rating": "", "reviews": "", "place_id": "ChIJ2W5wV2hF5IkRoJB-zI84Bqo", "latitude": 41.8113335, "longitude": -71.4089323, "subtypes": "Neurologist"}, {"name": "Narendra Kala", "address": "593 Eddy St, Providence, RI 029034923", "city": "Providence", "state": "Rhode Island", "state_code": "RI", "phone": "+1 401-444-3777", "website": "", "rating": "", "reviews": "", "place_id": "ChIJq6rqX2hF5IkRgM1vEk9K89A", "latitude": 41.8107889, "longitude": -71.4090636, "subtypes": "Neurologist"}, {"name": "Farhan Khan, MD", "address": "110 Lockwood St 5th Floor, Providence, RI 02903", "city": "Providence", "state": "Rhode Island", "state_code": "RI", "phone": "+1 401-444-8806", "website": "https://www.brownhealth.org/providers/farhan-khan-md", "rating": "", "reviews": "", "place_id": "ChIJMVM0ETlF5IkRGXDiQWPSKfM", "latitude": 41.8119633, "longitude": -71.4103574, "subtypes": "Neurologist"}, {"name": "Gita V. Harappanahally, MD", "address": "335R Prairie Ave Suite 1A, Providence, RI 02905", "city": "Providence", "state": "Rhode Island", "state_code": "RI", "phone": "+1 401-444-5685", "website": "https://www.brownhealth.org/providers/gita-v-harappanahally-md", "rating": "", "reviews": "", "place_id": "ChIJtd5sYW885IkRvS8DOOz3uoM", "latitude": 41.8048107, "longitude": -71.4153546, "subtypes": "Neurologist"}, {"name": "Duyu A. Nie, MD, PhD", "address": "335R Prairie Ave Suite 1A, Providence, RI 02905", "city": "Providence", "state": "Rhode Island", "state_code": "RI", "phone": "+1 401-444-5685", "website": "https://www.brownhealth.org/providers/duyu-nie-md-phd", "rating": "", "reviews": "", "place_id": "ChIJHfoiK0BF5IkR_rzBmP9TKhg", "latitude": 41.8048107, "longitude": -71.4153546, "subtypes": "Neurologist"}, {"name": "Dr. Tina Burton", "address": "593 Eddy St APC747, Providence, RI 02903", "city": "Providence", "state": "Rhode Island", "state_code": "RI", "phone": "+1 401-444-2734", "website": "https://www.brownhealth.org/providers/tina-m-burton-md-mfa", "rating": "", "reviews": "", "place_id": "ChIJFf-Yw2hF5IkRfcZ2uwnqC9c", "latitude": 41.8114158, "longitude": -71.410918, "subtypes": "Neurologist"}, {"name": "Swee Yang Lim", "address": "593 Eddy St, Providence, RI 02903", "city": "Providence", "state": "Rhode Island", "state_code": "RI", "phone": "+1 401-444-5448", "website": "", "rating": "", "reviews": "", "place_id": "ChIJq6rqX2hF5IkR6HfYQD4ij_E", "latitude": 41.8107889, "longitude": -71.4090636, "subtypes": "Neurologist"}, {"name": "Janet Wilterdink, MD", "address": "Ambulatory Patient Center, 593 Eddy St, Providence, RI 02903", "city": "Providence", "state": "Rhode Island", "state_code": "RI", "phone": "+1 401-444-3032", "website": "https://www.brownhealth.org/providers/janet-wilterdink-md", "rating": "", "reviews": "", "place_id": "ChIJh6suamhF5IkR_HxJ5Xfns9A", "latitude": 41.8114158, "longitude": -71.410918, "subtypes": "Neurologist"}, {"name": "Brown Health Medical Group Neurology - Portsmouth, RI", "address": "77 Turnpike Ave, Portsmouth, RI 02871", "city": "Portsmouth", "state": "Rhode Island", "state_code": "RI", "phone": "+1 401-845-3800", "website": "https://www.brownhealth.org/centers-services/newport-neurology", "rating": 3, "reviews": 1, "place_id": "ChIJD0OTkQ9V5IkRBbMX8pMXtXc", "latitude": 41.6031595, "longitude": -71.2498837, "subtypes": "Neurologist"}, {"name": "Comprehensive Epilepsy Program at Rhode Island Hospital", "address": "Ambulatory Patient Center, 110 Lockwood St 5th Floor, Providence, RI 02903", "city": "Providence", "state": "Rhode Island", "state_code": "RI", "phone": "+1 401-793-9166", "website": "https://www.brownhealth.org/centers-services/comprehensive-epilepsy-program-rhode-island-hospital", "rating": 5, "reviews": 1, "place_id": "ChIJ6Tw1YWpF5IkRei_7nqTvKNs", "latitude": 41.8119633, "longitude": -71.4103574, "subtypes": "Neurologist"}, {"name": "Edward M. Donnelly, MD", "address": "20 Powel Ave, Newport, RI 02840", "city": "Newport", "state": "Rhode Island", "state_code": "RI", "phone": "+1 401-845-3800", "website": "https://www.brownhealth.org/providers/edward-m-donnelly-md", "rating": 3, "reviews": 2, "place_id": "ChIJ55sQiXxM5IkRWnvRpyRAliQ", "latitude": 41.4967995, "longitude": -71.3061907, "subtypes": "Neurologist"}, {"name": "Jonathan Cahill, MD", "address": "Ambulatory Patient Center, 593 Eddy St, Providence, RI 02903", "city": "Providence", "state": "Rhode Island", "state_code": "RI", "phone": "+1 401-444-3032", "website": "https://www.brownhealth.org/providers/jonathan-cahill-md", "rating": 5, "reviews": 4, "place_id": "ChIJbX5yao9Q5IkR_0wfmZ1wsn0", "latitude": 41.8114484, "longitude": -71.4109295, "subtypes": "Neurologist"}, {"name": "Brain & Spine Neurosurgical Institute - Sumit K Das, MD", "address": "1077 Aquidneck Ave Unit A, Middletown, RI 02842", "city": "Middletown", "state": "Rhode Island", "state_code": "RI", "phone": "+1 401-404-2975", "website": "https://spinetogether.com/", "rating": 5, "reviews": 1, "place_id": "ChIJFQVkqt-p5YkRJcgOYLplR_Q", "latitude": 41.5171678, "longitude": -71.2822704, "subtypes": "Neurosurgeon"}, {"name": "J. Carlos Canton", "address": "390 Toll Gate Rd #1300, Warwick, RI 02886", "city": "Warwick", "state": "Rhode Island", "state_code": "RI", "phone": "+1 401-737-0005", "website": "http://www.hasbrochildrenshospital.org/", "rating": 3.4, "reviews": 11, "place_id": "ChIJG2kxb3hM5IkRalpqVwH5yCg", "latitude": 41.7022706, "longitude": -71.4767411, "subtypes": "Neurologist"}, {"name": "Gerald Exil, MD", "address": "215 Toll Gate Rd #108, Warwick, RI 02886", "city": "Warwick", "state": "Rhode Island", "state_code": "RI", "phone": "+1 401-737-7701", "website": "https://www.brownhealth.org/providers/gerald-exil-md", "rating": 3.8, "reviews": 17, "place_id": "ChIJ69dFyHtM5IkRzZ8DeHWT5zM", "latitude": 41.7012679, "longitude": -71.469916, "subtypes": "Neurologist"}, {"name": "Dr. William J. Golini", "address": "400 Bald Hill Rd, Warwick, RI 02886", "city": "Warwick", "state": "Rhode Island", "state_code": "RI", "phone": "+1 401-921-4599", "website": "", "rating": 3.7, "reviews": 7, "place_id": "ChIJFwf2SAhM5IkR984qorKQMRU", "latitude": 41.7268761, "longitude": -71.4792712, "subtypes": "Neurologist"}, {"name": "Renee Hickey", "address": "1 James P Murphy Ind Hwy # 102, West Warwick, RI 02893", "city": "West Warwick", "state": "Rhode Island", "state_code": "RI", "phone": "+1 401-320-8774", "website": "https://www.brownhealth.org/providers/renee-m-hickey-md", "rating": 5, "reviews": 4, "place_id": "ChIJe7YL8EdL5IkR_vzTjPVkuqU", "latitude": 41.67136199999999, "longitude": -71.500507, "subtypes": "Neurophysiologist"}, {"name": "Dr. Mauricio Villamar Davila", "address": "455 Toll Gate Rd, Warwick, RI 02886", "city": "Warwick", "state": "Rhode Island", "state_code": "RI", "phone": "+1 401-455-6362", "website": "", "rating": "", "reviews": "", "place_id": "ChIJ__8_-4dL5IkRn_otewGA3jk", "latitude": 41.705185, "longitude": -71.4780784, "subtypes": "Neurologist"}, {"name": "Maria A Guglielmo, MD", "address": "1351 S County Trl Suite 210, East Greenwich, RI 02818", "city": "East Greenwich", "state": "Rhode Island", "state_code": "RI", "phone": "+1 401-606-6360", "website": "https://www.brownhealth.org/providers/maria-guglielmo-md", "rating": 2.7, "reviews": 34, "place_id": "ChIJCY41WM1N5IkRAMg7yh5lquo", "latitude": 41.6598391, "longitude": -71.4985298, "subtypes": "Neurosurgeon"}, {"name": "Dr. Andrew B. Morris, MD", "address": "50 Health Ln, Warwick, RI 02886", "city": "Warwick", "state": "Rhode Island", "state_code": "RI", "phone": "+1 401-732-5656", "website": "http://www.thekentcenter.org/", "rating": "", "reviews": "", "place_id": "ChIJWb7KRIhL5IkRWqVyeLjdtCU", "latitude": 41.7073885, "longitude": -71.47956239999999, "subtypes": "Neurologist"}, {"name": "Prakash Sampath, MD", "address": "118 Dudley St Lower Level, Providence, RI 02905", "city": "Providence", "state": "Rhode Island", "state_code": "RI", "phone": "+1 401-273-4155", "website": "https://www.brownhealth.org/providers/prakash-sampath-md", "rating": 4.4, "reviews": 34, "place_id": "ChIJxd-qBmZF5IkRi_onT4H0LlA", "latitude": 41.8096319, "longitude": -71.4118003, "subtypes": "Neurosurgeon"}, {"name": "Lekos Andrew P MD", "address": "111 Howard Ave, Cranston, RI 02920", "city": "Cranston", "state": "Rhode Island", "state_code": "RI", "phone": "+1 401-462-3278", "website": "", "rating": "", "reviews": "", "place_id": "ChIJdQG6tbtO5IkRJtwgYwNgNLw", "latitude": 41.7449713, "longitude": -71.4623209, "subtypes": "Neurologist"}, {"name": "Laurelli Henry E MD", "address": "176 Toll Gate Rd # 104, Warwick, RI 02886", "city": "Warwick", "state": "Rhode Island", "state_code": "RI", "phone": "+1 401-737-9240", "website": "http://www.hasbrochildrenshospital.org/", "rating": "", "reviews": "", "place_id": "ChIJI4aqmXtM5IkRRR92hqx5-_M", "latitude": 41.7003445, "longitude": -71.46904289999999, "subtypes": "Neurosurgeon"}, {"name": "University Otolaryngology Head and Neck Surgery, Inc.", "address": "1351 S County Trl, East Greenwich, RI 02818", "city": "East Greenwich", "state": "Rhode Island", "state_code": "RI", "phone": "+1 401-885-8484", "website": "http://www.univoto.net/", "rating": 3.8, "reviews": 13, "place_id": "ChIJz29aIbW05YkRoWuJ_GaNup8", "latitude": 41.6598391, "longitude": -71.4985299, "subtypes": "Neurologist"}, {"name": "Maria C. Younes, MD", "address": "2138 Mendon Rd STE 104, Cumberland, RI 02864", "city": "Cumberland", "state": "Rhode Island", "state_code": "RI", "phone": "+1 401-334-0424", "website": "https://www.brownhealth.org/providers/maria-c-younes-md", "rating": 4.6, "reviews": 39, "place_id": "ChIJW8RpinBC5IkRuFlaLKWf25w", "latitude": 41.9520662, "longitude": -71.4429924, "subtypes": "Neurologist"}, {"name": "Brown Health Medical Group Neurology, Smithfield", "address": "900 Douglas Pike, Smithfield, RI 02917", "city": "Smithfield", "state": "Rhode Island", "state_code": "RI", "phone": "+1 401-618-5507", "website": "https://www.brownhealth.org/centers-services/brown-health-medical-group/brown-neurology", "rating": 2.4, "reviews": 8, "place_id": "ChIJ0SkiFwBB5IkRtGKfmEtfvAY", "latitude": 41.9090611, "longitude": -71.516132, "subtypes": "Neurologist"}, {"name": "GARY D. JOHNSON, MD", "address": "900 Douglas Pike, Smithfield, RI 02917", "city": "Smithfield", "state": "Rhode Island", "state_code": "RI", "phone": "+1 401-618-5507", "website": "http://www.lifespan.org/providers/gary-d-johnson-md", "rating": 5, "reviews": 8, "place_id": "ChIJQ5xpgCNB5IkRoakZA-Xyjwo", "latitude": 41.9090341, "longitude": -71.5160456, "subtypes": "Neurologist"}, {"name": "Susan D. Weinman, MD", "address": "900 Douglas Pike, Smithfield, RI 02917", "city": "Smithfield", "state": "Rhode Island", "state_code": "RI", "phone": "+1 401-618-5507", "website": "https://www.lifespan.org/providers/susan-d-weinman-md-0", "rating": 5, "reviews": 2, "place_id": "ChIJK3bGXABB5IkRJnCsDDGL8cM", "latitude": 41.9090611, "longitude": -71.516132, "subtypes": "Neurologist"}, {"name": "Michael J. Harrison", "address": "25 Thurber Blvd # 6, Smithfield, RI 02917", "city": "Smithfield", "state": "Rhode Island", "state_code": "RI", "phone": "+1 401-404-2975", "website": "http://www.newporthospital.org/", "rating": "", "reviews": "", "place_id": "ChIJPXJfCiFB5IkR3O5hpyMqWG4", "latitude": 41.912012, "longitude": -71.5206595, "subtypes": "Neurologist"}, {"name": "William M. Stone, MD", "address": "100 Highland Ave Suite 309, Providence, RI 02906", "city": "Providence", "state": "Rhode Island", "state_code": "RI", "phone": "+1 401-351-3312", "website": "https://www.brownhealth.org/providers/william-m-stone-md", "rating": 3, "reviews": 2, "place_id": "ChIJOyTu9sNE5IkRTwBABuUXZJU", "latitude": 41.8498414, "longitude": -71.4012614, "subtypes": "Neurologist"}, {"name": "Biju Gopalakrishnan", "address": "345 Blackstone Blvd, Providence, RI 029064800", "city": "Providence", "state": "Rhode Island", "state_code": "RI", "phone": "+1 401-455-6669", "website": "https://www.butler.org/services/movement-disorders", "rating": 5, "reviews": 1, "place_id": "ChIJq6rm0cxE5IkRtRjKbLQqSHY", "latitude": 41.8465666, "longitude": -71.3829023, "subtypes": "Neurologist"}, {"name": "Curtis Doberstein, MD", "address": "593 Eddy St APC 6, Providence, RI 02903", "city": "Providence", "state": "Rhode Island", "state_code": "RI", "phone": "+1 401-793-9169", "website": "https://www.brownhealth.org/providers/curtis-doberstein-md", "rating": 4.1, "reviews": 14, "place_id": "ChIJu8dIx2lF5IkRX4xpRRvsU1w", "latitude": 41.8114484, "longitude": -71.4109295, "subtypes": "Neurosurgeon"}, {"name": "University Medical Group: Bernal Oscar MD", "address": "877 Chalkstone Ave, Providence, RI 02908", "city": "Providence", "state": "Rhode Island", "state_code": "RI", "phone": "+1 401-456-2310", "website": "", "rating": 3, "reviews": 2, "place_id": "ChIJD8t8V69F5IkRg-Ja3f3W61s", "latitude": 41.833518, "longitude": -71.436599, "subtypes": "Neurologist"}, {"name": "Berger Jacob MD", "address": "830 Chalkstone Ave, Providence, RI 02908", "city": "Providence", "state": "Rhode Island", "state_code": "RI", "phone": "+1 401-273-7100", "website": "http://www.providence.va.gov/", "rating": "", "reviews": "", "place_id": "ChIJB-rWwadF5IkRAoaR-bLPY3k", "latitude": 41.8323154, "longitude": -71.4340067, "subtypes": "Neurologist"}, {"name": "Hickey Renee M MD", "address": "450 Veterans Memorial Pkwy #11, East Providence, RI 02914", "city": "East Providence", "state": "Rhode Island", "state_code": "RI", "phone": "+1 401-431-1860", "website": "http://www.rhodeislandhospital.org/Physicians/Doctor.aspx%3Faff%3D104%26page%3D30%26physid%3D72127/Renee-Hickey/", "rating": 5, "reviews": 2, "place_id": "ChIJiy0M0UxF5IkRO44UkyWaLd4", "latitude": 41.8079658, "longitude": -71.3829216, "subtypes": "Neurophysiologist"}, {"name": "Joseph B. Guarnaccia, MD", "address": "1351 S County Trl #2 #200, East Greenwich, RI 02818", "city": "East Greenwich", "state": "Rhode Island", "state_code": "RI", "phone": "", "website": "http://www.kentri.org/", "rating": 5, "reviews": 1, "place_id": "ChIJz29aIbW05YkR-0XxEiibcII", "latitude": 41.6598078, "longitude": -71.4993102, "subtypes": "Neurologist"}, {"name": "William J Golini Md", "address": "725 Reservoir Ave, Cranston, RI 02910", "city": "Cranston", "state": "Rhode Island", "state_code": "RI", "phone": "", "website": "", "rating": "", "reviews": "", "place_id": "ChIJl0d2vRFP5IkReTp7qZImFUQ", "latitude": 41.7803824, "longitude": -71.4438761, "subtypes": "Neurologist"}, {"name": "Dr. Kathleen Kirchmeier-Kroessler", "address": "333 School St, Pawtucket, RI 02860", "city": "Pawtucket", "state": "Rhode Island", "state_code": "RI", "phone": "+1 401-305-3322", "website": "", "rating": 2.7, "reviews": 12, "place_id": "ChIJh2URDKxE5IkRM_blDDlCtLQ", "latitude": 41.8673632, "longitude": -71.3776941, "subtypes": "Neurologist"}, {"name": "Erica M. Szabados", "address": "111 Brewster St, Pawtucket, RI 02860", "city": "Pawtucket", "state": "Rhode Island", "state_code": "RI", "phone": "+1 401-729-2483", "website": "http://www.rhodeislandhospital.org/", "rating": "", "reviews": "", "place_id": "ChIJX3OYb1Zb5IkRqSNHpk1paCg", "latitude": 41.86947989999999, "longitude": -71.3756725, "subtypes": "Neurologist"}, {"name": "Pulicken Mathew J MD", "address": "111 Brewster St, Pawtucket, RI 02860", "city": "Pawtucket", "state": "Rhode Island", "state_code": "RI", "phone": "+1 401-729-2000", "website": "http://www.mhri.org/", "rating": 3, "reviews": 2, "place_id": "ChIJX3OYb1Zb5IkR6AO9KRJRvdE", "latitude": 41.869485, "longitude": -71.3756827, "subtypes": "Neurologist"}, {"name": "Aumentado Dennis J MD", "address": "63 Eddie Dowling Hwy, Woonsocket, RI 02895", "city": "Woonsocket", "state": "Rhode Island", "state_code": "RI", "phone": "+1 401-762-0170", "website": "", "rating": 3.8, "reviews": 15, "place_id": "ChIJjUbNatVr5IkRIf8JzoDbz3Q", "latitude": 41.9816248, "longitude": -71.5151312, "subtypes": "Neurologist"}, {"name": "Dr. Gus Stratton", "address": "1526 Atwood Ave #100, Johnston, RI 02919", "city": "Johnston", "state": "Rhode Island", "state_code": "RI", "phone": "+1 401-404-2975", "website": "", "rating": 5, "reviews": 1, "place_id": "ChIJKaIEmT1G5IkRrVmntHd2IPk", "latitude": 41.8278989, "longitude": -71.5024468, "subtypes": "Neurologist"}, {"name": "Dr. Salim A. Wehbe, MD", "address": "450 Clinton St, Woonsocket, RI 02895", "city": "Woonsocket", "state": "Rhode Island", "state_code": "RI", "phone": "+1 401-767-4100", "website": "", "rating": "", "reviews": "", "place_id": "ChIJYTccQ0tq5IkRsnlq2RKoX-U", "latitude": 42.0070078, "longitude": -71.5063643, "subtypes": "Neurologist"}, {"name": "Scott G. Warren, MD, PhD", "address": "110 Lockwood St 7th Floor, Providence, RI 02903", "city": "Providence", "state": "Rhode Island", "state_code": "RI", "phone": "+1 401-444-6440", "website": "https://www.brownhealth.org/providers/scott-g-warren-md-phd", "rating": "", "reviews": "", "place_id": "ChIJlw_YHEpF5IkRmgMq1GaMezw", "latitude": 41.8113886, "longitude": -71.41013869999999, "subtypes": "Neurologist"}, {"name": "Furie Karen L MD", "address": "110 Lockwood St # 116, Providence, RI 02903", "city": "Providence", "state": "Rhode Island", "state_code": "RI", "phone": "+1 401-444-3032", "website": "", "rating": "", "reviews": "", "place_id": "ChIJ8e1E2WhF5IkRJ5qbGYv_5Aw", "latitude": 41.8121949, "longitude": -71.41096759999999, "subtypes": "Neurologist"}, {"name": "Dr. Gita V. Harappanhally, MD", "address": "593 Eddy St, Providence, RI 02903", "city": "Providence", "state": "Rhode Island", "state_code": "RI", "phone": "+1 401-444-4345", "website": "http://www.hasbrochildrenshospital.org/", "rating": 5, "reviews": 2, "place_id": "ChIJ8e1E2WhF5IkRSSiZHGS1MOY", "latitude": 41.8125228, "longitude": -71.4075328, "subtypes": "Neurologist"}, {"name": "Adetokunbo Oyelese, MD", "address": "593 Eddy St APC 6, Providence, RI 02903", "city": "Providence", "state": "Rhode Island", "state_code": "RI", "phone": "+1 401-793-9166", "website": "https://www.brownhealth.org/providers/adetokunbo-oyelese-md-phd-faans", "rating": 4.6, "reviews": 21, "place_id": "ChIJ3yc1fWtF5IkRpMG4jW1WleI", "latitude": 41.8114484, "longitude": -71.4109295, "subtypes": "Neurosurgeon"}, {"name": "Jeffrey Wishik", "address": "1 Randall Square #409, Providence, RI 02904", "city": "Providence", "state": "Rhode Island", "state_code": "RI", "phone": "+1 401-274-5150", "website": "https://www.lifespan.org/providers/jeffrey-m-wishik-md", "rating": 2.9, "reviews": 25, "place_id": "ChIJXXJQQh5F5IkRqPGXycLCGT4", "latitude": 41.83694029999999, "longitude": -71.41052379999999, "subtypes": "Neurologist"}, {"name": "Konstantina Svokos, DO", "address": "Ambulatory Patient Center, 593 Eddy St, Providence, RI 02903", "city": "Providence", "state": "Rhode Island", "state_code": "RI", "phone": "+1 401-793-9139", "website": "https://www.brownhealth.org/providers/konstantina-svokos-do", "rating": 5, "reviews": 12, "place_id": "ChIJMe8t9-bDxokRf_AWZ6iIWbw", "latitude": 41.8114158, "longitude": -71.410918, "subtypes": "Neurosurgeon"}, {"name": "Dr. Jason M. Donnelly, MD", "address": "825 Chalkstone Ave, Providence, RI 02908", "city": "Providence", "state": "Rhode Island", "state_code": "RI", "phone": "+1 401-456-2000", "website": "http://www.rwmc.org/", "rating": "", "reviews": "", "place_id": "ChIJJ1bLsahF5IkRhfQ8rZwiF28", "latitude": 41.8351848, "longitude": -71.4355921, "subtypes": "Neurologist"}, {"name": "Tianyi Niu, MD", "address": "593 Eddy St APC 6, Providence, RI 02903", "city": "Providence", "state": "Rhode Island", "state_code": "RI", "phone": "+1 401-793-9166", "website": "https://www.brownhealth.org/providers/tianyi-niu-md", "rating": 5, "reviews": 6, "place_id": "ChIJjUIjxGhF5IkRuVYa37qA49o", "latitude": 41.8114484, "longitude": -71.4109295, "subtypes": "Neurosurgeon"}, {"name": "Lo Albert MD", "address": "830 Chalkstone Ave # 3, Providence, RI 02908", "city": "Providence", "state": "Rhode Island", "state_code": "RI", "phone": "+1 401-273-7100", "website": "", "rating": "", "reviews": "", "place_id": "ChIJB-rWwadF5IkRWfC-CTbW_yY", "latitude": 41.8323154, "longitude": -71.4340067, "subtypes": "Neurologist"}, {"name": "Ziya Gokaslan, MD", "address": "Ambulatory Patient Center, 593 Eddy St, Providence, RI 02903", "city": "Providence", "state": "Rhode Island", "state_code": "RI", "phone": "+1 401-793-9132", "website": "https://www.brownhealth.org/providers/ziya-gokaslan-md", "rating": 5, "reviews": 4, "place_id": "ChIJgZnf4GIEyIkRpL_j2ADwAnE", "latitude": 41.8114158, "longitude": -71.410918, "subtypes": "Neurosurgeon"}, {"name": "Dr. Peter J. Bellafiore, MD", "address": "360 Kingstown Rd #102, Narragansett, RI 02882", "city": "Narragansett", "state": "Rhode Island", "state_code": "RI", "phone": "+1 401-789-4885", "website": "", "rating": 4, "reviews": 29, "place_id": "ChIJRwkwA1e55YkRY7niKKouhRw", "latitude": 41.433479, "longitude": -71.481094, "subtypes": "Neurologist"}, {"name": "Kathleen M. Parnell, PHD", "address": "512 Main St, Wakefield, RI 02879", "city": "Wakefield", "state": "Rhode Island", "state_code": "RI", "phone": "+1 401-789-7848", "website": "http://www.parnellchildneuropsychology.com/", "rating": 5, "reviews": 1, "place_id": "ChIJ9wpPiTa55YkRxzeYHCO4HZ8", "latitude": 41.4356406, "longitude": -71.5044887, "subtypes": "Neurophysiologist"}, {"name": "Center For Neuropsychology & Learning Disorders, Inc.", "address": "512 Main St, Wakefield, RI 02879", "city": "Wakefield", "state": "Rhode Island", "state_code": "RI", "phone": "+1 401-789-7848", "website": "http://cnldinc.com/", "rating": 3.6, "reviews": 9, "place_id": "ChIJ9wpPiTa55YkRE-L4lD_sdsc", "latitude": 41.435609, "longitude": -71.50447199999999, "subtypes": "Neurophysiologist"}, {"name": "Michael J. Vecchione", "address": "19 Friendship St Suite 160, Newport, RI 02840", "city": "Newport", "state": "Rhode Island", "state_code": "RI", "phone": "+1 401-845-3800", "website": "http://www.newporthospital.org/", "rating": "", "reviews": "", "place_id": "ChIJJa3qsz6v5YkRnYMjcWESMm0", "latitude": 41.497413, "longitude": -71.305517, "subtypes": "Neurologist"}, {"name": "Alexios Carayannopoulos, DO, MPH", "address": "20 Powel Ave, Newport, RI 02840", "city": "Newport", "state": "Rhode Island", "state_code": "RI", "phone": "+1 401-444-3777", "website": "https://www.lifespan.org/providers/alexios-g-carayannopoulos-do-mph", "rating": 1, "reviews": 1, "place_id": "ChIJV8bQnRGv5YkRQQVhDBpiOS0", "latitude": 41.4967995, "longitude": -71.3061907, "subtypes": "Neurosurgeon"}, {"name": "Abhishek Fnu MD", "address": "11 Friendship St, Newport, RI 02840", "city": "Newport", "state": "Rhode Island", "state_code": "RI", "phone": "+1 401-846-6400", "website": "http://www.newporthospital.org/", "rating": "", "reviews": "", "place_id": "ChIJEzcJuT6v5YkRy6sVs3Rt8Is", "latitude": 41.497352, "longitude": -71.306187, "subtypes": "Neurologist"}, {"name": "Dr. Maria Guglielmo", "address": "11 Friendship St, Newport, RI 02840", "city": "Newport", "state": "Rhode Island", "state_code": "RI", "phone": "+1 401-793-9132", "website": "https://www.brownhealth.org/providers/maria-guglielmo-md", "rating": "", "reviews": "", "place_id": "ChIJEzcJuT6v5YkRyr7VbAxBmxY", "latitude": 41.497352, "longitude": -71.306187, "subtypes": "Neurosurgeon"}, {"name": "Brown Health Medical Group Neurosurgery at Newport Hospital", "address": "20 Powel Ave, Newport, RI 02840", "city": "Newport", "state": "Rhode Island", "state_code": "RI", "phone": "+1 401-793-9166", "website": "https://www.brownhealth.org/centers-services/neurosurgery", "rating": "", "reviews": "", "place_id": "ChIJ82bP4oSv5YkRsVAlknhSBb4", "latitude": 41.4967995, "longitude": -71.3061907, "subtypes": "Neurosurgeon"}, {"name": "Dr. Fransisca Indraswari", "address": "167 Point St, Providence, RI 02903", "city": "Providence", "state": "Rhode Island", "state_code": "RI", "phone": "+1 401-444-6551", "website": "", "rating": 1, "reviews": 1, "place_id": "ChIJl5hQuWtF5IkRkr2Uwzfuwv4", "latitude": 41.81599, "longitude": -71.410225, "subtypes": "Neurologist"}, {"name": "Friedman Jules M MD", "address": "130 Waterman St, Providence, RI 02906", "city": "Providence", "state": "Rhode Island", "state_code": "RI", "phone": "+1 401-453-5152", "website": "", "rating": "", "reviews": "", "place_id": "ChIJ5Rud2yRF5IkRNSpedYOzdjw", "latitude": 41.8277449, "longitude": -71.3978604, "subtypes": "Neurologist"}, {"name": "Bass James Caleb MD", "address": "164 Summit Ave, Providence, RI 02906", "city": "Providence", "state": "Rhode Island", "state_code": "RI", "phone": "+1 401-793-2200", "website": "", "rating": "", "reviews": "", "place_id": "ChIJ2csakcZE5IkRmdkCepSD6QQ", "latitude": 41.851722, "longitude": -71.398257, "subtypes": "Neurologist"}, {"name": "Kelli L. Sullivan, PhD", "address": "1 Hoppin St Suite 301, Providence, RI 02903", "city": "Providence", "state": "Rhode Island", "state_code": "RI", "phone": "+1 401-793-4006", "website": "https://www.brownhealth.org/providers/kelli-l-sullivan-phd", "rating": "", "reviews": "", "place_id": "ChIJv9FJQ_5F5IkR8ZRtvu1xPA8", "latitude": 41.8159167, "longitude": -71.4108826, "subtypes": "Neurologist"}, {"name": "Maheen Rana, MD", "address": "164 Summit Ave, Providence, RI 02906", "city": "Providence", "state": "Rhode Island", "state_code": "RI", "phone": "+1 401-444-6551", "website": "https://www.brownhealth.org/providers/maheen-rana-md", "rating": "", "reviews": "", "place_id": "ChIJrSkEVYhF5IkRssY7uWALPLA", "latitude": 41.8520301, "longitude": -71.39800629999999, "subtypes": "Neurologist"}, {"name": "Jacob A. Lafo, PhD", "address": "1 Hoppin St Suite 301, Providence, RI 02903", "city": "Providence", "state": "Rhode Island", "state_code": "RI", "phone": "+1 401-793-4006", "website": "https://www.brownhealth.org/providers/jacob-lafo-phd", "rating": "", "reviews": "", "place_id": "ChIJD_Xn31tF5IkRDUWhgqNhVYM", "latitude": 41.8159167, "longitude": -71.4108826, "subtypes": "Neurologist"}, {"name": "Dr. Umer Akbar", "address": "111 Plain St # 3, Providence, RI 02903", "city": "Providence", "state": "Rhode Island", "state_code": "RI", "phone": "+1 401-444-5504", "website": "", "rating": "", "reviews": "", "place_id": "ChIJq6r6zW5F5IkRXE88bN6lHs0", "latitude": 41.8131193, "longitude": -71.4124497, "subtypes": "Neurologist"}, {"name": "Kimberly Rose Chapman, PhD", "address": "1 Hoppin St Suite 301, Providence, RI 02903", "city": "Providence", "state": "Rhode Island", "state_code": "RI", "phone": "+1 401-793-4006", "website": "https://www.brownhealth.org/providers/kimberly-rose-chapman-phd", "rating": "", "reviews": "", "place_id": "ChIJ98xs-8FF5IkRxkLhj-k5EIw", "latitude": 41.8159167, "longitude": -71.4108826, "subtypes": "Neurologist"}, {"name": "Dr. Grace Medeiros", "address": "2444 E Main Rd, Portsmouth, RI 02871", "city": "Portsmouth", "state": "Rhode Island", "state_code": "RI", "phone": "+1 401-683-1048", "website": "", "rating": 3, "reviews": 2, "place_id": "ChIJcdp6Zxer5YkRQ8reIlEAlVY", "latitude": 41.5966349, "longitude": -71.25227869999999, "subtypes": "Neurologist"}, {"name": "Albert Telfeian", "address": "164 Summit Ave, Providence, RI 02906", "city": "Providence", "state": "Rhode Island", "state_code": "RI", "phone": "+1 401-793-9153", "website": "", "rating": 5, "reviews": 1, "place_id": "ChIJq0JejcZE5IkRCDQKHrE7ukw", "latitude": 41.8520301, "longitude": -71.39800629999999, "subtypes": "Neurosurgeon"}, {"name": "Stephen P. Salloway, MD", "address": "345 Blackstone Blvd, Providence, RI 02906", "city": "Providence", "state": "Rhode Island", "state_code": "RI", "phone": "+1 401-455-6403", "website": "https://www.brownhealth.org/providers/stephen-p-salloway-md", "rating": 1.3, "reviews": 3, "place_id": "ChIJnwnxts1E5IkR9WOWT491a3c", "latitude": 41.846263, "longitude": -71.385631, "subtypes": "Neurologist"}, {"name": "Susan D. Weinman", "address": "345 Blackstone Blvd, Providence, RI 02906", "city": "Providence", "state": "Rhode Island", "state_code": "RI", "phone": "+1 401-277-9935", "website": "http://www.rhodeislandhospital.org/", "rating": "", "reviews": "", "place_id": "ChIJnwnxts1E5IkROl3A3d-UvTE", "latitude": 41.8462631, "longitude": -71.385631, "subtypes": "Neurologist"}, {"name": "Rickler Kenneth MD", "address": "345 Blackstone Blvd # 246, Providence, RI 02906", "city": "Providence", "state": "Rhode Island", "state_code": "RI", "phone": "+1 401-455-6506", "website": "", "rating": "", "reviews": "", "place_id": "ChIJnwnxts1E5IkRqEUbO4vxuMQ", "latitude": 41.8462631, "longitude": -71.385631, "subtypes": "Neurologist"}, {"name": "Sampath Prakash", "address": "825 Chalkstone Ave, Providence, RI 02908", "city": "Providence", "state": "Rhode Island", "state_code": "RI", "phone": "+1 401-456-2069", "website": "", "rating": "", "reviews": "", "place_id": "ChIJJ1bLsahF5IkR2llBQvOnWvU", "latitude": 41.8349512, "longitude": -71.435361, "subtypes": "Neurologist"}, {"name": "Susanne Patrick-Mackinnon", "address": "2444 E Main Rd, Portsmouth, RI 02871", "city": "Portsmouth", "state": "Rhode Island", "state_code": "RI", "phone": "+1 401-683-1048", "website": "", "rating": "", "reviews": "", "place_id": "ChIJ0WNGZxer5YkRMcIjS92AidE", "latitude": 41.5967035, "longitude": -71.2521917, "subtypes": "Neurologist"}, {"name": "Randy B. Kozel, MD", "address": "2444 E Main Rd, Portsmouth, RI 02871", "city": "Portsmouth", "state": "Rhode Island", "state_code": "RI", "phone": "+1 401-683-4817", "website": "https://www.brownhealth.org/providers/randy-b-kozel-md", "rating": "", "reviews": "", "place_id": "ChIJNYnk3yKr5YkR169Zit7yPPE", "latitude": 41.5967035, "longitude": -71.2521917, "subtypes": "Neurologist"}]