[{"name": "Panhandle Neurology Center Inc: Anand, Abhishek MD", "address": "156 Health Care Ln, Martinsburg, WV 25401", "city": "Martinsburg", "state": "West Virginia", "state_code": "WV", "phone": "+1 304-264-0704", "website": "https://wvumedicine.org/berkeley/services/neurology/", "rating": 4.3, "reviews": 17, "place_id": "ChIJCQkKIlQCyokRdTRapleaz1s", "latitude": 39.4750228, "longitude": -77.967518, "subtypes": "Neurologist"}, {"name": "Dr. John Caruso", "address": "880 N Tennessee Ave Suite 104, Martinsburg, WV 25401", "city": "Martinsburg", "state": "West Virginia", "state_code": "WV", "phone": "+1 240-513-4591", "website": "https://directory.hsc.wvu.edu/Profile/54221", "rating": 3, "reviews": 6, "place_id": "ChIJq6oazKgDyokRN-qPhFvNR4g", "latitude": 39.475254, "longitude": -77.9834625, "subtypes": "Neurosurgeon"}, {"name": "Dr. Mark Lyerly", "address": "880 N Tennessee Ave Suite 104, Martinsburg, WV 25401", "city": "Martinsburg", "state": "West Virginia", "state_code": "WV", "phone": "+1 304-596-5160", "website": "", "rating": 4, "reviews": 4, "place_id": "ChIJq6oazKgDyokRhtbPtlGoMxI", "latitude": 39.475254, "longitude": -77.9834625, "subtypes": "Neurosurgeon"}, {"name": "Paul B. Ferguson, MD", "address": "1340 Hal Greer Boulevard Building 2, Suite #4000, Huntington, WV 25701", "city": "Huntington", "state": "West Virginia", "state_code": "WV", "phone": "+1 304-691-1787", "website": "https://www.marshallhealth.org/find-a-provider/provider-details/%3FID%3D58", "rating": 4.9, "reviews": 45, "place_id": "ChIJ3a5UGyoIRogRmZWZNntttQU", "latitude": 38.40953349999999, "longitude": -82.4270298, "subtypes": "Neurologist"}, {"name": "Dr. Glenn Mcclaugherty", "address": "99 Tavern Rd Suite, Martinsburg, WV 25401", "city": "Martinsburg", "state": "West Virginia", "state_code": "WV", "phone": "+1 304-263-4999", "website": "", "rating": "", "reviews": "", "place_id": "ChIJVVUVxlYCyokR9-eNfvgsmso", "latitude": 39.4738882, "longitude": -77.96646059999999, "subtypes": "Neurologist"}, {"name": "Marshall Neuroscience - Teays Valley", "address": "300 Corporate Center Dr 2nd floor, Scott Depot, WV 25560", "city": "Scott Depot", "state": "West Virginia", "state_code": "WV", "phone": "+1 304-691-6931", "website": "https://www.marshallhealth.org/locations/marshall-neuroscience-teays-valley", "rating": 4.8, "reviews": 23, "place_id": "ChIJi3EQt_e1SIgRjaC2wsgA884", "latitude": 38.4544548, "longitude": -81.9273084, "subtypes": "Neurologist"}, {"name": "Marshall Neurology - Huntington", "address": "1340 Hal Greer Boulevard Building 2, Suite #4000, Huntington, WV 25701", "city": "Huntington", "state": "West Virginia", "state_code": "WV", "phone": "+1 304-691-1787", "website": "https://www.marshallhealth.org/locations/marshall-neurology-huntington", "rating": 4.6, "reviews": 90, "place_id": "ChIJ_y9T5KsJRogRnajQJAoZt6Y", "latitude": 38.40953349999999, "longitude": -82.4270298, "subtypes": "Neurologist"}, {"name": "Steve R Timms, MD", "address": "20 Medical Park Rd, Wheeling, WV 26003", "city": "Wheeling", "state": "West Virginia", "state_code": "WV", "phone": "+1 304-243-8399", "website": "https://wheelinghospital.org/doctor/docdet.aspx%3Fp%3D214", "rating": 3.2, "reviews": 18, "place_id": "ChIJAQAAAIHZNYgREPXu5SEaeOI", "latitude": 40.0590486, "longitude": -80.68454179999999, "subtypes": "Neurologist"}, {"name": "Dr. Srinivasan Govindan, MD", "address": "1 Medical Park Rd, Wheeling, WV 26003", "city": "Wheeling", "state": "West Virginia", "state_code": "WV", "phone": "+1 304-242-2503", "website": "", "rating": 5, "reviews": 2, "place_id": "ChIJqTrollPaNYgRmvxEpX0pty0", "latitude": 40.0592066, "longitude": -80.6837956, "subtypes": "Neurologist"}, {"name": "Dr. Stephen R. Timms, MD", "address": "3 E Benjamin Dr, New Martinsville, WV 26155", "city": "New Martinsville", "state": "West Virginia", "state_code": "WV", "phone": "+1 304-455-8080", "website": "", "rating": 1, "reviews": 1, "place_id": "ChIJjc56veAANogROZfe4B2nOAc", "latitude": 39.6810712, "longitude": -80.8501977, "subtypes": "Neurologist"}, {"name": "Dr. Ronald W. Hargraves, MD", "address": "40 Medical Park Rd # 508, Wheeling, WV 26003", "city": "Wheeling", "state": "West Virginia", "state_code": "WV", "phone": "+1 304-243-8916", "website": "https://wheelinghospital.org/doctor/docdet.aspx%3Fp%3D89", "rating": 4.3, "reviews": 12, "place_id": "ChIJqTrollPaNYgRiXulyMn_yrs", "latitude": 40.0589492, "longitude": -80.6846559, "subtypes": "Neurosurgeon"}, {"name": "Adamovich Brenda DO", "address": "58 16th St, Wheeling, WV 26003", "city": "Wheeling", "state": "West Virginia", "state_code": "WV", "phone": "+1 304-234-2110", "website": "", "rating": 1, "reviews": 1, "place_id": "ChIJSzRXKCraNYgRQxShmvUWiaQ", "latitude": 40.0639146, "longitude": -80.71921329999999, "subtypes": "Neurologist"}, {"name": "Govindan Srini MD", "address": "40 Medical Park Rd # 304, Wheeling, WV 26003", "city": "Wheeling", "state": "West Virginia", "state_code": "WV", "phone": "+1 304-242-2503", "website": "", "rating": "", "reviews": "", "place_id": "ChIJqTrollPaNYgRZSvr9ZT_D-8", "latitude": 40.0592066, "longitude": -80.6837956, "subtypes": "Neurologist"}, {"name": "Dr. Henry L. Kettler, MD", "address": "58 16th St, Wheeling, WV 26003", "city": "Wheeling", "state": "West Virginia", "state_code": "WV", "phone": "+1 304-234-2110", "website": "", "rating": "", "reviews": "", "place_id": "ChIJ00pRKCraNYgR0RWMDMM0eww", "latitude": 40.0639146, "longitude": -80.71921329999999, "subtypes": "Neurologist"}, {"name": "Dr. Terrence D. Julien, MD", "address": "40 Medical Park Rd # 508, Wheeling, WV 26003", "city": "Wheeling", "state": "West Virginia", "state_code": "WV", "phone": "+1 304-243-8916", "website": "http://wheelinghospital.org/", "rating": "", "reviews": "", "place_id": "ChIJqTrollPaNYgR7r3sS8qCnBM", "latitude": 40.0591486, "longitude": -80.68377029999999, "subtypes": "Neurologist"}, {"name": "Jacobs Katherine A MD", "address": "20 Medical Park Rd # 203, Wheeling, WV 26003", "city": "Wheeling", "state": "West Virginia", "state_code": "WV", "phone": "+1 304-242-6464", "website": "", "rating": "", "reviews": "", "place_id": "ChIJ17EvlFPaNYgRqs_jmoAZ7lU", "latitude": 40.0593194, "longitude": -80.68409369999999, "subtypes": "Neurologist"}, {"name": "Joseph L Voelker, MD", "address": "40 Medical Park Rd # 508, Wheeling, WV 26003", "city": "Wheeling", "state": "West Virginia", "state_code": "WV", "phone": "+1 304-243-8916", "website": "https://wheelinghospital.org/doctor/results.aspx%3Fs%3D17", "rating": "", "reviews": "", "place_id": "ChIJqTrollPaNYgRhelVLgAJtV8", "latitude": 40.0591487, "longitude": -80.68377029999999, "subtypes": "Neurosurgeon"}, {"name": "Nadia Dominguez Molina, MD", "address": "110 Sims Cir, Triadelphia, WV 26059", "city": "Triadelphia", "state": "West Virginia", "state_code": "WV", "phone": "+1 304-599-8000", "website": "https://providers.upmc.com/provider/nadia-dominguez-molina/1326210%3Futm_source%3Dgoogle%26utm_medium%3Dorganic%26utm_campaign%3Dbusiness-profile%26utm_content%3Dprimary-care-pediatrics-swpa-nadia-dominguez-molina", "rating": "", "reviews": "", "place_id": "ChIJ_0JMaxzFNYgRnij86c3KyA4", "latitude": 40.0536733, "longitude": -80.6035352, "subtypes": "Pediatric neurologist"}, {"name": "Bhatia Sanjay MD", "address": "10 Medical Park Rd, Wheeling, WV 26003", "city": "Wheeling", "state": "West Virginia", "state_code": "WV", "phone": "+1 304-243-8916", "website": "http://wheelinghospital.org/", "rating": 1, "reviews": 1, "place_id": "ChIJQVsKAyraNYgRfUpM9c2AbcA", "latitude": 40.0590734, "longitude": -80.6849017, "subtypes": "Neurosurgeon"}, {"name": "Dr. Charles L. Rosen, MD", "address": "40 Medical Park Rd # 508, Wheeling, WV 26003", "city": "Wheeling", "state": "West Virginia", "state_code": "WV", "phone": "+1 304-243-8916", "website": "https://wheelinghospital.org/doctor/docdet.aspx%3Fp%3D185", "rating": "", "reviews": "", "place_id": "ChIJqTrollPaNYgRud6P5Mqe59M", "latitude": 40.0588959, "longitude": -80.6847899, "subtypes": "Neurosurgeon"}, {"name": "Miele Vincent MD", "address": "Wheeling, WV 26003", "city": "Wheeling", "state": "West Virginia", "state_code": "WV", "phone": "+1 304-243-8916", "website": "http://wheelinghospital.org/", "rating": "", "reviews": "", "place_id": "ChIJQVsKAyraNYgR8we4oSKje1s", "latitude": 40.0639015, "longitude": -80.7209987, "subtypes": "Neurosurgeon"}, {"name": "WVU Medicine Camden Clark Neurology", "address": "3803 Emerson Ave, Parkersburg, WV 26104", "city": "Parkersburg", "state": "West Virginia", "state_code": "WV", "phone": "+1 304-902-8236", "website": "https://wvumedicine.org/camden-clark/services/neurology/%3Futm_source%3DGMBSocialClimb%26utm_medium%3DWVUMedicineCamdenClarkNeurology%26scct%3DPNa17c826c1abf1ba2c7c78df430255ba2", "rating": 4.7, "reviews": 77, "place_id": "ChIJPTSDkZpLSIgRL-K0Vc3j2uQ", "latitude": 39.2893787, "longitude": -81.53097509999999, "subtypes": "Neurologist"}, {"name": "Dr. Barry K. Vaught, MD", "address": "1404 Robert C Byrd Dr Suite 100, Crab Orchard, WV 25827", "city": "Crab Orchard", "state": "West Virginia", "state_code": "WV", "phone": "+1 304-252-4222", "website": "http://vaught-neurology.com/", "rating": 3.9, "reviews": 34, "place_id": "ChIJ0fUU4XPxTogRu3WfA-oYE6c", "latitude": 37.7393696, "longitude": -81.2299821, "subtypes": "Neurologist"}, {"name": "Associated Specialists: Alghadban Adnam MD", "address": "527 Medical Park Dr # 204, Bridgeport, WV 26330", "city": "Bridgeport", "state": "West Virginia", "state_code": "WV", "phone": "+1 304-933-3800", "website": "https://www.asidrs.com/meet-our-doctors.html", "rating": 3.2, "reviews": 13, "place_id": "ChIJ2yre-dZlSogR4G9zWIGbmBM", "latitude": 39.3271039, "longitude": -80.23986289999999, "subtypes": "Neurologist"}, {"name": "Dr. Adnan Alghadban, MD", "address": "527 Medical Park Dr # 204, Bridgeport, WV 26330", "city": "Bridgeport", "state": "West Virginia", "state_code": "WV", "phone": "+1 304-933-3800", "website": "", "rating": 2.8, "reviews": 19, "place_id": "ChIJcX0Wzs5pSogRtChoRiuOEaE", "latitude": 39.3271039, "longitude": -80.23986289999999, "subtypes": "Neurologist"}, {"name": "Micaela R. Owens, DO", "address": "2520 Valley Dr, Point Pleasant, WV 25550", "city": "Point Pleasant", "state": "West Virginia", "state_code": "WV", "phone": "+1 304-675-1484", "website": "https://www.marshallhealth.org/find-a-provider/provider-details/%3FID%3D842", "rating": 5, "reviews": 1, "place_id": "ChIJI5vlpPGbSIgRR7d6Tf2QRb8", "latitude": 38.869006, "longitude": -82.12312299999999, "subtypes": "Neurologist"}, {"name": "Dr. John Brick", "address": "400 Fairview Heights Rd, Summersville, WV 26651", "city": "Summersville", "state": "West Virginia", "state_code": "WV", "phone": "+1 304-872-8601", "website": "https://directory.hsc.wvu.edu/Profile/28529", "rating": 5, "reviews": 1, "place_id": "ChIJ__-_PbWqTogR95RyQu472Pc", "latitude": 38.2928317, "longitude": -80.83042619999999, "subtypes": "Neurologist"}, {"name": "Jared S. Hollinger, MD, ABPN", "address": "1340 Hal Greer Boulevard Building 2, Suite #4000, Huntington, WV 25701", "city": "Huntington", "state": "West Virginia", "state_code": "WV", "phone": "+1 304-691-1787", "website": "https://www.marshallhealth.org/find-a-provider/provider-details/%3FID%3D621", "rating": 5, "reviews": 7, "place_id": "ChIJz89DAyoIRogR9_CkQoYUeM8", "latitude": 38.40953349999999, "longitude": -82.4270298, "subtypes": "Neurologist"}, {"name": "Robert Lewis II, MD", "address": "3948 Teays Valley Road, Hurricane, WV 25526", "city": "Hurricane", "state": "West Virginia", "state_code": "WV", "phone": "+1 304-757-5747", "website": "https://www.camc.org/", "rating": 4.6, "reviews": 41, "place_id": "ChIJseA02Ae0SIgRVOD2UO8Jads", "latitude": 38.4483425, "longitude": -81.9464184, "subtypes": "Neurophysiologist"}, {"name": "Dr. Ronald E. Barebo, MD", "address": "5170 US-60, Huntington, WV 25705", "city": "Huntington", "state": "West Virginia", "state_code": "WV", "phone": "+1 304-528-4600", "website": "", "rating": 4, "reviews": 4, "place_id": "ChIJu496wXkHRogR10Io7bNTzHM", "latitude": 38.414812, "longitude": -82.3450505, "subtypes": "Neurologist"}, {"name": "Muhammad Husain, MD", "address": "3803 Emerson Ave, Parkersburg, WV 26101", "city": "Parkersburg", "state": "West Virginia", "state_code": "WV", "phone": "+1 304-801-2119", "website": "https://doctors.wvumedicine.org/profile/%3Fid%3D26370%26utm_source%3DGMBSocialClimb%26utm_medium%3DMuhammadHusain%252CMD%26scct%3DPN5598ad38c4e2fa4ed8659c926d6a6b02", "rating": 5, "reviews": 1, "place_id": "ChIJmzM8vfhLSIgR5DHkr6NmC6g", "latitude": 39.2893836, "longitude": -81.5309706, "subtypes": "Neurologist"}, {"name": "Donald Hoffman, MD", "address": "150 Memorial Dr, Kingwood, WV 26537", "city": "Kingwood", "state": "West Virginia", "state_code": "WV", "phone": "+1 304-329-4701", "website": "https://www.monhealth.com/preston-memorial/find-a-provider/hoffman-donald-md-642", "rating": 5, "reviews": 2, "place_id": "ChIJy0CMsRahSogRcU5yI-0VqNM", "latitude": 39.4650581, "longitude": -79.6775511, "subtypes": "Neurologist"}, {"name": "Barry Louden, MD", "address": "3803 Emerson Ave, Parkersburg, WV 26104", "city": "Parkersburg", "state": "West Virginia", "state_code": "WV", "phone": "+1 304-591-1353", "website": "https://wvumedicine.org/camden-clark/%3Fscct%3DPN00900aab9b0ea43c795d10c4c128e121", "rating": 5, "reviews": 1, "place_id": "ChIJH79edTtLSIgRwVlc-TFz6_4", "latitude": 39.2893781, "longitude": -81.53098949999999, "subtypes": "Neurologist"}, {"name": "Dr. Maziar Seyedian", "address": "1 Medical Center Dr, Morgantown, WV 26506", "city": "Morgantown", "state": "West Virginia", "state_code": "WV", "phone": "+1 304-285-7101", "website": "", "rating": 3, "reviews": 2, "place_id": "ChIJKy6dqA57NYgRUfaynenwKL0", "latitude": 39.65391169999999, "longitude": -79.9577486, "subtypes": "Neurologist"}, {"name": "Nicolas Phan, MD", "address": "1600 Medical Center Dr # B500, Huntington, WV 25701", "city": "Huntington", "state": "West Virginia", "state_code": "WV", "phone": "+1 304-691-1787", "website": "https://www.marshallhealth.org/find-a-provider/provider-details/%3FID%3D421", "rating": 4.4, "reviews": 27, "place_id": "ChIJz89DAyoIRogRQ7RE4rUpvMA", "latitude": 38.4089585, "longitude": -82.4267998, "subtypes": "Neurosurgeon"}, {"name": "Matthew A. Burton, MD", "address": "1340 Hal Greer Boulevard Building 2, Suite #4000, Huntington, WV 25701", "city": "Huntington", "state": "West Virginia", "state_code": "WV", "phone": "+1 304-691-1787", "website": "https://www.marshallhealth.org/find-a-provider/provider-details/%3FID%3D831", "rating": 3, "reviews": 2, "place_id": "ChIJQ_3dzCUJRogRRrIQ480GMfQ", "latitude": 38.40953349999999, "longitude": -82.4270298, "subtypes": "Neurologist"}, {"name": "Tyler Skidmore, MD - WVU Medicine Thomas Hospitals", "address": "4607 MacCorkle Ave SW, South Charleston, WV 25309", "city": "South Charleston", "state": "West Virginia", "state_code": "WV", "phone": "+1 304-767-7900", "website": "https://thomashospitals.org/", "rating": 5, "reviews": 2, "place_id": "ChIJjSluqmszT4gR7HzcDIGlALw", "latitude": 38.3549766, "longitude": -81.7271703, "subtypes": "Neurologist"}, {"name": "Christopher W. Burrell, MD", "address": "Fourth Floor, 1340 Hal Greer Blvd. Building 2, Suite #4000, Huntington, WV 25701", "city": "Huntington", "state": "West Virginia", "state_code": "WV", "phone": "+1 304-691-1787", "website": "https://www.marshallhealth.org/find-a-provider/provider-details/%3FID%3D927", "rating": "", "reviews": "", "place_id": "ChIJucKdlwEJRogRXG5rMos4V8Y", "latitude": 38.40953349999999, "longitude": -82.4270298, "subtypes": "Neurologist"}, {"name": "Marshall Neuroscience - South Charleston", "address": "414 Greenway Ave #200, South Charleston, WV 25309", "city": "South Charleston", "state": "West Virginia", "state_code": "WV", "phone": "+1 304-342-3891", "website": "https://www.marshallhealth.org/locations/marshall-neuroscience-south-charleston", "rating": 3.8, "reviews": 10, "place_id": "ChIJV-kYiNEyT4gR-moXxJLGk0Q", "latitude": 38.3554029, "longitude": -81.7247948, "subtypes": "Neurosurgeon"}, {"name": "Jason D. Adams, MD", "address": "1340 Hal Greer Boulevard Building 2, Suite #4000, Huntington, WV 25701", "city": "Huntington", "state": "West Virginia", "state_code": "WV", "phone": "+1 304-691-1787", "website": "https://www.marshallhealth.org/find-a-provider/provider-details/%3FID%3D715", "rating": 1, "reviews": 1, "place_id": "ChIJz89DAyoIRogRQBsD4ukXvN4", "latitude": 38.40953349999999, "longitude": -82.4270298, "subtypes": "Neurologist"}, {"name": "Paul D. Knowles, MD", "address": "1340 Hal Greer Boulevard Building 2, Suite #4000, Huntington, WV 25701", "city": "Huntington", "state": "West Virginia", "state_code": "WV", "phone": "+1 304-691-1787", "website": "https://www.marshallhealth.org/find-a-provider/provider-details/%3FID%3D309", "rating": 5, "reviews": 13, "place_id": "ChIJb-v4u2IJRogR0DaJSnGq-xs", "latitude": 38.40953349999999, "longitude": -82.4270298, "subtypes": "Pediatric neurologist"}, {"name": "Dr. Ali Rezai MD", "address": "J.W. Ruby Memorial Hospital, 33 Medical Center Dr, Morgantown, WV 26505", "city": "Morgantown", "state": "West Virginia", "state_code": "WV", "phone": "+1 855-988-2273", "website": "https://wvumedicine.org/find-a-doctor/doctor-details/%3Fid%3D11787", "rating": 4.6, "reviews": 9, "place_id": "ChIJ_____-qOOIgR9V27DvZ71XM", "latitude": 39.6533089, "longitude": -79.9600947, "subtypes": "Neurosurgeon"}, {"name": "Dr. Ahmed S. Mahmoud, MD", "address": "300 Davisson Run Rd Suite 103, Clarksburg, WV 26301", "city": "Clarksburg", "state": "West Virginia", "state_code": "WV", "phone": "+1 304-624-2795", "website": "", "rating": "", "reviews": "", "place_id": "ChIJBd9yrXFqSogRt9nC_pL8zKI", "latitude": 39.2707222, "longitude": -80.3737996, "subtypes": "Neurologist"}, {"name": "Dr. Zaid Abed Al-Qudah", "address": "527 Medical Park Dr # 204, Bridgeport, WV 26330", "city": "Bridgeport", "state": "West Virginia", "state_code": "WV", "phone": "+1 304-933-3800", "website": "", "rating": 3.9, "reviews": 17, "place_id": "ChIJiQvu-dZlSogRF1vyjvE7sOw", "latitude": 39.3271039, "longitude": -80.23986289999999, "subtypes": "Neurophysiologist"}, {"name": "Murthy Kris G MD", "address": "5301 MacCorkle Ave SE, Charleston, WV 25304", "city": "Charleston", "state": "West Virginia", "state_code": "WV", "phone": "+1 304-345-1181", "website": "https://rymaps.xyz/business/murthy-kris-g-md-77m3pa", "rating": 4, "reviews": 11, "place_id": "ChIJL2SQTQ4rT4gR7Ghsl1jpRLs", "latitude": 38.3166849, "longitude": -81.5736252, "subtypes": "Neurologist"}, {"name": "Xiaomei Gao-Hickman, MD", "address": "3948 Teays Valley Road, Hurricane, WV 25526", "city": "Hurricane", "state": "West Virginia", "state_code": "WV", "phone": "+1 304-757-5747", "website": "https://www.camc.org/", "rating": 3.7, "reviews": 3, "place_id": "ChIJObuaDfi1SIgRJGF7f-XdsDE", "latitude": 38.4486884, "longitude": -81.946911, "subtypes": "Neurologist"}, {"name": "Georgianna Richards, MD", "address": "403 Carriage Dr, Beckley, WV 25801", "city": "Beckley", "state": "West Virginia", "state_code": "WV", "phone": "+1 304-461-3721", "website": "https://www.raleighgeneralmedicalgroup.com/our-practices/raleigh-neurological-center", "rating": 3.8, "reviews": 43, "place_id": "ChIJB9ECUzDzTogRUxdoxe7iGP0", "latitude": 37.788715, "longitude": -81.1999426, "subtypes": "Neurologist"}, {"name": "Vasile Popa, MD", "address": "1256 N Eisenhower Dr Suite 300, Beckley, WV 25801", "city": "Beckley", "state": "West Virginia", "state_code": "WV", "phone": "+1 304-254-2425", "website": "", "rating": 3, "reviews": 2, "place_id": "ChIJq5hRIGjzTogRjC315AKuCqU", "latitude": 37.8018143, "longitude": -81.1799498, "subtypes": "Neurologist"}, {"name": "Dr. Vasile Popa", "address": "306 Stanaford Rd, Beckley, WV 25801", "city": "Beckley", "state": "West Virginia", "state_code": "WV", "phone": "+1 304-255-3456", "website": "", "rating": "", "reviews": "", "place_id": "ChIJVVWVObTyTogRDDHoxJbxvDE", "latitude": 37.7985276, "longitude": -81.1681176, "subtypes": "Neurologist"}, {"name": "Dy Johnny MD", "address": "2401 S Kanawha St # 102, Beckley, WV 25801", "city": "Beckley", "state": "West Virginia", "state_code": "WV", "phone": "+1 304-252-0699", "website": "", "rating": "", "reviews": "", "place_id": "ChIJncTTrtOMTogRCM6o0bLE0KY", "latitude": 37.7660583, "longitude": -81.1606266, "subtypes": "Neurologist"}, {"name": "Ira Derakshan MD", "address": "427 Carriage Dr, Beckley, WV 25801", "city": "Beckley", "state": "West Virginia", "state_code": "WV", "phone": "+1 304-253-7097", "website": "", "rating": "", "reviews": "", "place_id": "ChIJSRheU_DyTogRkSHPXAJHDDU", "latitude": 37.7890351, "longitude": -81.1989984, "subtypes": "Neurologist"}, {"name": "Dr. Adnan N. Silk, MD", "address": "1902 Harper Rd # A, Beckley, WV 25801", "city": "Beckley", "state": "West Virginia", "state_code": "WV", "phone": "+1 304-255-0096", "website": "", "rating": "", "reviews": "", "place_id": "ChIJ9ZWoWFjyTogRPElGsqCdbjs", "latitude": 37.7903424, "longitude": -81.20956489999999, "subtypes": "Neurosurgeon"}, {"name": "Dr. Iraj Derakhshan, MD", "address": "427 Carriage Dr, Beckley, WV 25801", "city": "Beckley", "state": "West Virginia", "state_code": "WV", "phone": "+1 304-253-7097", "website": "", "rating": 5, "reviews": 1, "place_id": "ChIJSRheU_DyTogRhSf3y6mSJOA", "latitude": 37.7890351, "longitude": -81.1989984, "subtypes": "Neurologist"}, {"name": "Engelbart Richard H MD", "address": "6 Hospital Dr, Clarksburg, WV 26301", "city": "Clarksburg", "state": "West Virginia", "state_code": "WV", "phone": "+1 304-623-5661", "website": "", "rating": "", "reviews": "", "place_id": "ChIJsS99iRhqSogR_cXzzjzmKU0", "latitude": 39.272819, "longitude": -80.37400099999999, "subtypes": "Neurologist"}, {"name": "Brandon Neeley, MD - WVU Medicine Thomas Hospitals", "address": "4607 MacCorkle Ave SW # 400, South Charleston, WV 25309", "city": "South Charleston", "state": "West Virginia", "state_code": "WV", "phone": "+1 304-767-7900", "website": "https://doctors.wvumedicine.org/profile/%3Fid%3D26128", "rating": "", "reviews": "", "place_id": "ChIJCY3EvVkzT4gR_GI5BdaiOlk", "latitude": 38.3547147, "longitude": -81.7263921, "subtypes": "Neurologist"}, {"name": "Kanawha Valley Neurology", "address": "South Charleston, WV 25309", "city": "South Charleston", "state": "West Virginia", "state_code": "WV", "phone": "+1 304-766-7695", "website": "", "rating": "", "reviews": "", "place_id": "ChIJGyh8MdEyT4gRRx9ODDtlG9g", "latitude": 38.3541105, "longitude": -81.729115, "subtypes": "Pediatric neurologist"}, {"name": "Underwood Bill D MD", "address": "527 Medical Park Dr # 204, Bridgeport, WV 26330", "city": "Bridgeport", "state": "West Virginia", "state_code": "WV", "phone": "+1 681-342-3500", "website": "https://wvorthocenter.com/", "rating": 5, "reviews": 4, "place_id": "ChIJ2yre-dZlSogRg_FprU_Vkl8", "latitude": 39.3271039, "longitude": -80.23986289999999, "subtypes": "Neurosurgeon"}, {"name": "Sharpe Michael R MD", "address": "400 Fairview Heights Rd, Summersville, WV 26651", "city": "Summersville", "state": "West Virginia", "state_code": "WV", "phone": "", "website": "", "rating": "", "reviews": "", "place_id": "ChIJjbn34LSqTogRIjXZU7GBOl8", "latitude": 38.292546, "longitude": -80.829295, "subtypes": "Pediatric neurologist"}, {"name": "Dr. Suresh G. Kumar, MD", "address": "5170 US-60, Huntington, WV 25705", "city": "Huntington", "state": "West Virginia", "state_code": "WV", "phone": "+1 304-528-4600", "website": "", "rating": 3, "reviews": 2, "place_id": "ChIJu496wXkHRogR2aytGdjrUMk", "latitude": 38.4149876, "longitude": -82.34501949999999, "subtypes": "Neurologist"}, {"name": "Michael Ebbert", "address": "1 Medical Center Dr, Morgantown, WV 265061200", "city": "Morgantown", "state": "West Virginia", "state_code": "WV", "phone": "+1 304-293-4500", "website": "https://directory.hsc.wvu.edu/Profile/78561", "rating": 5, "reviews": 2, "place_id": "ChIJ__8_HAx7NYgR-Bfu9OpGz_Q", "latitude": 39.6534472, "longitude": -79.9574781, "subtypes": "Neurologist"}, {"name": "John Kuruvilla MD", "address": "3100 MacCorkle Ave SE # 207, Charleston, WV 25304", "city": "Charleston", "state": "West Virginia", "state_code": "WV", "phone": "+1 304-767-7880", "website": "", "rating": "", "reviews": "", "place_id": "ChIJD4oPy58sT4gRiitpDB9EsVY", "latitude": 38.3293942, "longitude": -81.604002, "subtypes": "Neurologist"}, {"name": "Steger Michael W MD", "address": "186 Hospital Dr, Grantsville, WV 26147", "city": "Grantsville", "state": "West Virginia", "state_code": "WV", "phone": "+1 304-354-9244", "website": "", "rating": "", "reviews": "", "place_id": "ChIJw5IL4zt0SYgR3FXLfLqoPOE", "latitude": 38.924019, "longitude": -81.091779, "subtypes": "Neurologist"}, {"name": "Dr. James H. Sherry, MD", "address": "740 Cobun Creek Rd #1, Morgantown, WV 26508", "city": "Morgantown", "state": "West Virginia", "state_code": "WV", "phone": "+1 304-291-0635", "website": "", "rating": "", "reviews": "", "place_id": "ChIJb11Y2yF9NYgRLgFPZ3M3cpc", "latitude": 39.5822844, "longitude": -79.94099159999999, "subtypes": "Neurologist"}, {"name": "Nathaniel Mohney", "address": "1 Medical Center Dr, Morgantown, WV 26506", "city": "Morgantown", "state": "West Virginia", "state_code": "WV", "phone": "+1 304-293-4500", "website": "https://directory.hsc.wvu.edu/Profile/60955", "rating": "", "reviews": "", "place_id": "ChIJKy6dqA57NYgRzWANVvSppPM", "latitude": 39.65391169999999, "longitude": -79.9577486, "subtypes": "Neurologist"}, {"name": "Tellers John G MD", "address": "40 Medical Park Rd # 500, Wheeling, WV 26003", "city": "Wheeling", "state": "West Virginia", "state_code": "WV", "phone": "+1 304-242-9260", "website": "", "rating": "", "reviews": "", "place_id": "ChIJqTrollPaNYgRjusKmlLICZY", "latitude": 40.0591486, "longitude": -80.68377029999999, "subtypes": "Neurologist"}, {"name": "Samip Borad, MD, MHA", "address": "415 Morris St #300, Charleston, WV 25301", "city": "Charleston", "state": "West Virginia", "state_code": "WV", "phone": "+1 304-388-6441", "website": "https://www.camc.org/", "rating": 4, "reviews": 4, "place_id": "ChIJw7YqWtUtT4gRGVzofr551gg", "latitude": 38.3473488, "longitude": -81.6263701, "subtypes": "Neurologist"}, {"name": "Goldfarb Glenn Dr", "address": "2345 Chesterfield Ave, Charleston, WV 25304", "city": "Charleston", "state": "West Virginia", "state_code": "WV", "phone": "+1 304-343-0149", "website": "", "rating": 3.9, "reviews": 15, "place_id": "ChIJhSK8i5csT4gRpdhSQKwK5CE", "latitude": 38.330514, "longitude": -81.61470899999999, "subtypes": "Neurologist"}, {"name": "Darshankumar Dave", "address": "3100 MacCorkle Ave SE Unit 411, Charleston, WV 25304", "city": "Charleston", "state": "West Virginia", "state_code": "WV", "phone": "+1 304-343-4400", "website": "https://www.camc.org/doctors/darshankumar-ashwinbhai-dave-md", "rating": 3.4, "reviews": 5, "place_id": "ChIJI1BE2p8sT4gRZVHWogumLfM", "latitude": 38.3294219, "longitude": -81.60396399999999, "subtypes": "Neurologist"}, {"name": "Muhammad T. Khan, MD", "address": "415 Morris St #300, Charleston, WV 25301", "city": "Charleston", "state": "West Virginia", "state_code": "WV", "phone": "+1 304-388-6441", "website": "http://www.camc.org/", "rating": 3, "reviews": 2, "place_id": "ChIJfVwrafAtT4gRD8GHFFm3u-8", "latitude": 38.3473488, "longitude": -81.6263701, "subtypes": "Neurologist"}, {"name": "Melanie D. Ward, MD", "address": "415 Morris St #300, Charleston, WV 25301", "city": "Charleston", "state": "West Virginia", "state_code": "WV", "phone": "+1 304-598-6127", "website": "http://wvumedicine.org/", "rating": 5, "reviews": 1, "place_id": "ChIJCwb2NxktT4gRg-a7vmQbLck", "latitude": 38.3473488, "longitude": -81.6263701, "subtypes": "Neurologist"}, {"name": "JAMES STEPHEN HARMAN, DO", "address": "415 Morris St Ste 400, Charleston, WV 25301", "city": "Charleston", "state": "West Virginia", "state_code": "WV", "phone": "+1 304-344-3551", "website": "http://www.wvorthoneuro.com/", "rating": 4.6, "reviews": 11, "place_id": "ChIJ8RiV_KvUSIgRVjNqQWzAahA", "latitude": 38.3473773, "longitude": -81.62641359999999, "subtypes": "Neurosurgeon"}, {"name": "WVU Medicine Thomas Hospitals Neurosurgery", "address": "4607 MacCorkle Ave SW STE 401, South Charleston, WV 25309", "city": "South Charleston", "state": "West Virginia", "state_code": "WV", "phone": "+1 304-767-7840", "website": "https://wvumedicine.org/thomas-hospitals/services/neurosurgery/", "rating": 5, "reviews": 2, "place_id": "ChIJy5L0-xgzT4gRGoOcTRNN91Q", "latitude": 38.3550045, "longitude": -81.7265805, "subtypes": "Neurosurgeon"}, {"name": "Hamid Shah, MD", "address": "4607 MacCorkle Ave SW STE 401, South Charleston, WV 25309", "city": "South Charleston", "state": "West Virginia", "state_code": "WV", "phone": "+1 304-767-7840", "website": "https://thomashospitals.org/", "rating": 4.2, "reviews": 5, "place_id": "ChIJ2zBJFiMzT4gR6Q_PPK6ylkw", "latitude": 38.3550045, "longitude": -81.7265805, "subtypes": "Neurosurgeon"}, {"name": "Dr. Calvin Whaley", "address": "415 Morris St Ste 400, Charleston, WV 25301", "city": "Charleston", "state": "West Virginia", "state_code": "WV", "phone": "+1 304-344-3551", "website": "https://wvorthoneuro.com/team/view/calvin-curtis-whaley-do", "rating": 4.5, "reviews": 11, "place_id": "ChIJdx-O6cksT4gRgg8lAjzj__I", "latitude": 38.3473773, "longitude": -81.62641359999999, "subtypes": "Neurosurgeon"}, {"name": "James Russell, MD", "address": "415 Morris St #300, Charleston, WV 25301", "city": "Charleston", "state": "West Virginia", "state_code": "WV", "phone": "+1 304-388-6441", "website": "http://www.camc.org/", "rating": 3.7, "reviews": 3, "place_id": "ChIJQcs4yNItT4gRm6pxplf_kAU", "latitude": 38.3473741, "longitude": -81.62641359999999, "subtypes": "Neurologist"}, {"name": "Leonid Segal, DO", "address": "415 Morris St #300, Charleston, WV 25301", "city": "Charleston", "state": "West Virginia", "state_code": "WV", "phone": "+1 304-388-6441", "website": "", "rating": "", "reviews": "", "place_id": "ChIJ4WhvlmEtT4gRXmb3etJ6LVs", "latitude": 38.3473741, "longitude": -81.62641359999999, "subtypes": "Neurologist"}, {"name": "Dr. Yasser Shahrour", "address": "424 Division St, South Charleston, WV 25309", "city": "South Charleston", "state": "West Virginia", "state_code": "WV", "phone": "+1 304-766-3452", "website": "", "rating": "", "reviews": "", "place_id": "ChIJ__-P7tEyT4gRjQzrdcY8Gpg", "latitude": 38.3547375, "longitude": -81.7249812, "subtypes": "Neurologist"}, {"name": "Chura-Singh Kelly MD", "address": "1215 Quarrier St Suite 4, Charleston, WV 25301", "city": "Charleston", "state": "West Virginia", "state_code": "WV", "phone": "+1 304-344-0349", "website": "", "rating": 5, "reviews": 1, "place_id": "ChIJ12kxw8gsT4gRv9GBJsTNA3Y", "latitude": 38.3455393, "longitude": -81.6297675, "subtypes": "Neurologist"}, {"name": "John R. Orphanos, MD", "address": "4607 MacCorkle Ave SW STE 401, South Charleston, WV 25309", "city": "South Charleston", "state": "West Virginia", "state_code": "WV", "phone": "+1 304-767-7840", "website": "http://wvumedicine.org/Thomas-Hospitals/", "rating": 4.5, "reviews": 18, "place_id": "ChIJQetUxsksT4gR3h9fpmBvPQU", "latitude": 38.3550045, "longitude": -81.7265805, "subtypes": "Neurosurgeon"}, {"name": "Dr. R J. Crow Jr, MD", "address": "415 Morris St Ste 400, Charleston, WV 25301", "city": "Charleston", "state": "West Virginia", "state_code": "WV", "phone": "+1 304-344-3551", "website": "", "rating": 3.2, "reviews": 20, "place_id": "ChIJV-pUxsksT4gRvakV9uByRPU", "latitude": 38.3473994, "longitude": -81.6264443, "subtypes": "Neurosurgeon"}, {"name": "David Gloss, MD", "address": "415 Morris St #300, Charleston, WV 25301", "city": "Charleston", "state": "West Virginia", "state_code": "WV", "phone": "+1 304-388-6441", "website": "http://www.theneuromedicalcenter.com/", "rating": 5, "reviews": 3, "place_id": "ChIJkYNwiektT4gR2ZCrefFQE_w", "latitude": 38.3473488, "longitude": -81.6263701, "subtypes": "Neurologist"}, {"name": "Christiano Lana D MD", "address": "415 Morris St, Charleston, WV 25301", "city": "Charleston", "state": "West Virginia", "state_code": "WV", "phone": "+1 304-344-3551", "website": "https://www.camc.org/doctors/lana-dawn-christiano-md", "rating": 4.1, "reviews": 22, "place_id": "ChIJW-tUxsksT4gRcjDr0SPzj9g", "latitude": 38.3473994, "longitude": -81.6264443, "subtypes": "Neurosurgeon"}, {"name": "Carol Foster, MD", "address": "303 W Washington St, Charleston, WV 25302", "city": "Charleston", "state": "West Virginia", "state_code": "WV", "phone": "", "website": "", "rating": 5, "reviews": 2, "place_id": "ChIJ5Ws6ty7TSIgRuBqaom8Dh9E", "latitude": 38.3611461, "longitude": -81.6413254, "subtypes": "Neurologist"}, {"name": "Dr. Surya N. Gupta", "address": "415 Morris St #300, Charleston, WV 25301", "city": "Charleston", "state": "West Virginia", "state_code": "WV", "phone": "+1 304-388-6441", "website": "", "rating": "", "reviews": "", "place_id": "ChIJoyWv6cksT4gRm7fSJZr3HtM", "latitude": 38.3473994, "longitude": -81.6264443, "subtypes": "Neurologist"}, {"name": "Aurelia Smith, MD", "address": "415 Morris St #300, Charleston, WV 25301", "city": "Charleston", "state": "West Virginia", "state_code": "WV", "phone": "+1 304-388-6441", "website": "https://www.camc.org/", "rating": 2.3, "reviews": 7, "place_id": "ChIJn9MWXLgtT4gRg4VCZVPt1cY", "latitude": 38.3473741, "longitude": -81.62641359999999, "subtypes": "Neurologist"}, {"name": "Azara Sneha Singh, MD", "address": "830 Pennsylvania Ave #405, Charleston, WV 25302", "city": "Charleston", "state": "West Virginia", "state_code": "WV", "phone": "+1 304-388-6950", "website": "https://www.camc.org/", "rating": 5, "reviews": 5, "place_id": "ChIJYZHHLWTTSIgRHC4RSLVxM3w", "latitude": 38.3591515, "longitude": -81.63736, "subtypes": "Pediatric neurologist"}, {"name": "Thomas Memorial Hospital: Stobie Paul E MD", "address": "4605 MacCorkle Ave SW, South Charleston, WV 25309", "city": "South Charleston", "state": "West Virginia", "state_code": "WV", "phone": "+1 304-766-3600", "website": "", "rating": 5, "reviews": 2, "place_id": "ChIJsf_7gNEyT4gRSCJbszmPThc", "latitude": 38.3554223, "longitude": -81.72580099999999, "subtypes": "Pediatric neurologist"}, {"name": "Bodet Joseph H MD", "address": "4607 MacCorkle Ave SW # 400, Charleston, WV 25309", "city": "Charleston", "state": "West Virginia", "state_code": "WV", "phone": "+1 304-766-4400", "website": "", "rating": "", "reviews": "", "place_id": "ChIJRxtVgNEyT4gR33N6GnuXR78", "latitude": 38.3547147, "longitude": -81.7263921, "subtypes": "Neurologist"}, {"name": "Dr. Frederick H. Armbrust, MD", "address": "415 Morris St Ste 400, Charleston, WV 25301", "city": "Charleston", "state": "West Virginia", "state_code": "WV", "phone": "+1 304-344-3551", "website": "", "rating": 5, "reviews": 1, "place_id": "ChIJV-pUxsksT4gR5DFJhPwDvys", "latitude": 38.3473994, "longitude": -81.6264443, "subtypes": "Neurosurgeon"}, {"name": "Konark Malhotra, MD", "address": "415 Morris St #300, Charleston, WV 25301", "city": "Charleston", "state": "West Virginia", "state_code": "WV", "phone": "+1 304-388-6441", "website": "http://www.camc.org/", "rating": "", "reviews": "", "place_id": "ChIJ55n_vbItT4gRocY8j5gOLdQ", "latitude": 38.3473488, "longitude": -81.6263701, "subtypes": "Neurologist"}, {"name": "Dr. Joby Joseph", "address": "501 Morris St, Charleston, WV 25301", "city": "Charleston", "state": "West Virginia", "state_code": "WV", "phone": "+1 304-205-5821", "website": "", "rating": "", "reviews": "", "place_id": "ChIJt4OH8cksT4gRqromBx4GQuo", "latitude": 38.348059, "longitude": -81.626454, "subtypes": "Neurologist"}, {"name": "Iraj Derekhshan MD", "address": "415 Morris St, Charleston, WV 25301", "city": "Charleston", "state": "West Virginia", "state_code": "WV", "phone": "+1 304-343-4098", "website": "", "rating": "", "reviews": "", "place_id": "ChIJoyWv6cksT4gRXnS3o06wa84", "latitude": 38.3473488, "longitude": -81.6263701, "subtypes": "Neurologist"}, {"name": "Wvu Neurosurgery Wheeling Division: Bailes Julian MD", "address": "40 Medical Park Rd # 508, Wheeling, WV 26003", "city": "Wheeling", "state": "West Virginia", "state_code": "WV", "phone": "+1 304-243-8916", "website": "http://wheelinghospital.org/", "rating": "", "reviews": "", "place_id": "ChIJqTrollPaNYgR0m2AhShfLBE", "latitude": 40.0596122, "longitude": -80.6839166, "subtypes": "Neurosurgeon"}, {"name": "Zyznewsky Wladimir MD", "address": "2115 Chapline St # 301, Wheeling, WV 26003", "city": "Wheeling", "state": "West Virginia", "state_code": "WV", "phone": "+1 304-234-8498", "website": "", "rating": 5, "reviews": 1, "place_id": "ChIJw6Qga4DZNYgRHJ9Td9G2l68", "latitude": 40.0604748, "longitude": -80.72255229999999, "subtypes": "Neurologist"}, {"name": "Dr. David Lobas", "address": "601 Colliers Way, Weirton, WV 26062", "city": "Weirton", "state": "West Virginia", "state_code": "WV", "phone": "+1 304-797-6000", "website": "", "rating": 3, "reviews": 4, "place_id": "ChIJ__-_YkQ3NIgRvvDtLBkEMtk", "latitude": 40.39556, "longitude": -80.527957, "subtypes": "Neurologist"}, {"name": "Amerik S Chattha Md", "address": "485 Colliers Way, Weirton, WV 26062", "city": "Weirton", "state": "West Virginia", "state_code": "WV", "phone": "+1 304-723-3365", "website": "", "rating": "", "reviews": "", "place_id": "ChIJ7wBtr1w3NIgRjx9e38m5p0U", "latitude": 40.3953625, "longitude": -80.5281389, "subtypes": "Neurologist"}, {"name": "Dr. Robert L. Lewis Jr, MD", "address": "2520 Valley Dr #13, Point Pleasant, WV 25550", "city": "Point Pleasant", "state": "West Virginia", "state_code": "WV", "phone": "+1 304-675-2551", "website": "http://www.pvalley.org/", "rating": "", "reviews": "", "place_id": "ChIJkcgfFF6bSIgR13NCXkEbKSc", "latitude": 38.8689665, "longitude": -82.12316299999999, "subtypes": "Neurologist"}, {"name": "Dr. Muhammad M. Rahman, MD", "address": "911 Gorman Ave # 303, Elkins, WV 26241", "city": "Elkins", "state": "West Virginia", "state_code": "WV", "phone": "+1 304-636-8392", "website": "", "rating": 1, "reviews": 1, "place_id": "ChIJjVT6a7bjSogRB_orcRw1UYY", "latitude": 38.9283755, "longitude": -79.8532633, "subtypes": "Neurosurgeon"}, {"name": "Rana Tahir MD", "address": "100 New Hope Rd, Princeton, WV 24740", "city": "Princeton", "state": "West Virginia", "state_code": "WV", "phone": "+1 304-487-5794", "website": "", "rating": 1.7, "reviews": 47, "place_id": "ChIJ8WOTuLRrTogRiISXNqY5h9c", "latitude": 37.3659371, "longitude": -81.1164963, "subtypes": "Neurologist"}, {"name": "Feldenzer John A MD", "address": "RR 2 Box 169E, Lewisburg, WV 24901", "city": "Lewisburg", "state": "West Virginia", "state_code": "WV", "phone": "+1 304-793-2574", "website": "", "rating": 5, "reviews": 1, "place_id": "ChIJEcI4dnhHTIgR-wpwcG3tbRg", "latitude": 37.8017879, "longitude": -80.44563029999999, "subtypes": "Neurosurgeon"}, {"name": "Dr. Malcolm B. Louden, MD", "address": "3803 Emerson Ave, Parkersburg, WV 26104", "city": "Parkersburg", "state": "West Virginia", "state_code": "WV", "phone": "+1 304-485-5041", "website": "https://directory.hsc.wvu.edu/Profile/56383", "rating": 2.3, "reviews": 11, "place_id": "ChIJH79edTtLSIgRm3Vz-htC1G0", "latitude": 39.2893492, "longitude": -81.5309149, "subtypes": "Neurologist"}, {"name": "Dr. John Schmidt", "address": "415 Morris St Ste 400, Charleston, WV 25301", "city": "Charleston", "state": "West Virginia", "state_code": "WV", "phone": "+1 304-344-3551", "website": "", "rating": "", "reviews": "", "place_id": "ChIJdx-O6cksT4gR4cDF7X2KEbg", "latitude": 38.3473773, "longitude": -81.62641359999999, "subtypes": "Neurosurgeon"}, {"name": "Sajeel R. Khan, MD", "address": "1600 Medical Center Dr # B500, Huntington, WV 25701", "city": "Huntington", "state": "West Virginia", "state_code": "WV", "phone": "+1 304-691-1787", "website": "https://www.marshallhealth.org/find-a-provider/provider-details/%3FID%3D568", "rating": 5, "reviews": 6, "place_id": "ChIJz89DAyoIRogR9lIT_fGkEXw", "latitude": 38.4089585, "longitude": -82.4267998, "subtypes": "Neurosurgeon"}, {"name": "Marshall Neurosurgery - Huntington", "address": "1600 Medical Center Dr # B500, Huntington, WV 25701", "city": "Huntington", "state": "West Virginia", "state_code": "WV", "phone": "+1 304-691-1787", "website": "https://www.marshallhealth.org/locations/marshall-neuroscience-huntington", "rating": 3.8, "reviews": 67, "place_id": "ChIJ3a5UGyoIRogR-pV_mOHIZwE", "latitude": 38.4089585, "longitude": -82.4267998, "subtypes": "Neurosurgeon"}, {"name": "Samrina Hanif, MD", "address": "1340 Hal Greer Boulevard Building 2, Suite #4000, Huntington, WV 25701", "city": "Huntington", "state": "West Virginia", "state_code": "WV", "phone": "+1 304-691-1787", "website": "https://www.marshallhealth.org/find-a-provider/provider-details/%3FID%3D248", "rating": 3.4, "reviews": 23, "place_id": "ChIJ3a5UGyoIRogRWnFzn9_HKFU", "latitude": 38.40953349999999, "longitude": -82.4270298, "subtypes": "Neurologist"}, {"name": "Kathryn B. Thornton, MD", "address": "1340 Hal Greer Boulevard Building 2, Suite #4000, Huntington, WV 25701", "city": "Huntington", "state": "West Virginia", "state_code": "WV", "phone": "+1 304-691-1787", "website": "https://www.marshallhealth.org/find-a-provider/provider-details/%3FID%3D754", "rating": 5, "reviews": 8, "place_id": "ChIJz89DAyoIRogRU_AHp7h8bgk", "latitude": 38.40953349999999, "longitude": -82.4270298, "subtypes": "Neurologist"}, {"name": "Mary S. \"Mitzi\" Payne, MD", "address": "1340 Hal Greer Boulevard Building 2, Suite #4000, Huntington, WV 25701", "city": "Huntington", "state": "West Virginia", "state_code": "WV", "phone": "+1 304-691-1787", "website": "https://www.marshallhealth.org/find-a-provider/provider-details/%3FID%3D140", "rating": 3.6, "reviews": 11, "place_id": "ChIJ3a5UGyoIRogRPtd-sojrCMs", "latitude": 38.40953349999999, "longitude": -82.4270298, "subtypes": "Neurologist"}, {"name": "Justin M. Nolte, MD", "address": "1340 Hal Greer Boulevard Building 2, Suite #4000, Huntington, WV 25701", "city": "Huntington", "state": "West Virginia", "state_code": "WV", "phone": "+1 304-691-1787", "website": "https://www.marshallhealth.org/find-a-provider/provider-details/%3FID%3D124", "rating": 5, "reviews": 2, "place_id": "ChIJFapFGCoIRogRcW4s9zIMNAk", "latitude": 38.40953349999999, "longitude": -82.4270298, "subtypes": "Neurologist"}, {"name": "J. Ivan Lopez, MD", "address": "1340 Hal Greer Boulevard Building 2, Suite #4000, Huntington, WV 25701", "city": "Huntington", "state": "West Virginia", "state_code": "WV", "phone": "+1 304-691-1787", "website": "https://www.marshallhealth.org/find-a-provider/provider-details/%3FID%3D538", "rating": 4.4, "reviews": 7, "place_id": "ChIJba2pYLUJRogRwsgZ3GArkKg", "latitude": 38.40953349999999, "longitude": -82.4270298, "subtypes": "Pediatric neurologist"}, {"name": "Dr. Lawrence E. Clapp, MD", "address": "1540 Spring Valley Dr, Huntington, WV 25704", "city": "Huntington", "state": "West Virginia", "state_code": "WV", "phone": "+1 304-429-6755", "website": "", "rating": 3, "reviews": 2, "place_id": "ChIJIdd5uLLhRYgR0xUwe1_E3kg", "latitude": 38.3841745, "longitude": -82.5165789, "subtypes": "Neurologist"}, {"name": "Dr. Dwight Saulle", "address": "2860 3rd Ave, Huntington, WV 25702", "city": "Huntington", "state": "West Virginia", "state_code": "WV", "phone": "+1 304-525-6825", "website": "https://www.st-marys.org/connect/news/article/367", "rating": 4.3, "reviews": 22, "place_id": "ChIJL0a1nm0IRogRQVHic0oyihE", "latitude": 38.4304231, "longitude": -82.400115, "subtypes": "Neurosurgeon"}, {"name": "Ignatiadis Panos MD", "address": "2860 3rd Ave #10, Huntington, WV 25702", "city": "Huntington", "state": "West Virginia", "state_code": "WV", "phone": "+1 304-525-6825", "website": "", "rating": 5, "reviews": 3, "place_id": "ChIJF6ZnbW0IRogRo2pYYNvS3_A", "latitude": 38.4291616, "longitude": -82.4006919, "subtypes": "Neurosurgeon"}, {"name": "Werthammer Matthew C MD", "address": "2860 3rd Ave #10, Huntington, WV 25702", "city": "Huntington", "state": "West Virginia", "state_code": "WV", "phone": "+1 304-525-6825", "website": "", "rating": 3.9, "reviews": 28, "place_id": "ChIJF6ZnbW0IRogR5RL3TlYuXf8", "latitude": 38.42916, "longitude": -82.40066759999999, "subtypes": "Neurosurgeon"}, {"name": "Anthony M. Alberico, MD, FACS", "address": "1600 Medical Center Dr # B500, Huntington, WV 25701", "city": "Huntington", "state": "West Virginia", "state_code": "WV", "phone": "+1 304-691-1787", "website": "https://www.marshallhealth.org/find-a-provider/provider-details/%3FID%3D4", "rating": 5, "reviews": 4, "place_id": "ChIJ3a5UGyoIRogReJ1W7_GY6IM", "latitude": 38.4089585, "longitude": -82.4267998, "subtypes": "Neurosurgeon"}, {"name": "Mary \"Mitzi\" Payne, MD", "address": "2211 3rd Ave, Huntington, WV 25703", "city": "Huntington", "state": "West Virginia", "state_code": "WV", "phone": "+1 304-691-1880", "website": "https://www.marshallhealth.org/find-a-provider/provider-details/%3FID%3D140", "rating": "", "reviews": "", "place_id": "ChIJq6qquzkIRogRwe7A59lbh8o", "latitude": 38.4256596, "longitude": -82.4192453, "subtypes": "Neurologist"}, {"name": "Gabrielle N. Conway, DO", "address": "Fourth Floor, 1340 Hal Greer Blvd. Building 2, Suite #4000, Huntington, WV 25701", "city": "Huntington", "state": "West Virginia", "state_code": "WV", "phone": "+1 304-691-1787", "website": "https://www.marshallhealth.org/find-a-provider/provider-details/%3FID%3D1984", "rating": "", "reviews": "", "place_id": "ChIJ8QVVkDMJRogR6COMVvT87UM", "latitude": 38.40953349999999, "longitude": -82.4270298, "subtypes": "Neurologist"}, {"name": "Dr. Panayotis D. Ignatiadis, MD", "address": "2860 3rd Ave, Huntington, WV 25702", "city": "Huntington", "state": "West Virginia", "state_code": "WV", "phone": "+1 304-525-6825", "website": "", "rating": 3.5, "reviews": 11, "place_id": "ChIJF6ZnbW0IRogRPuVXbo1laqE", "latitude": 38.4291616, "longitude": -82.4006919, "subtypes": "Neurosurgeon"}, {"name": "Heather Pinckard-Dover, MD", "address": "1600 Medical Center Dr # B500, Huntington, WV 25701", "city": "Huntington", "state": "West Virginia", "state_code": "WV", "phone": "+1 304-691-1787", "website": "https://www.marshallhealth.org/find-a-provider/provider-details/%3FID%3D707", "rating": 4.7, "reviews": 14, "place_id": "ChIJe4L7V1wJRogR7Tlvj96t6bs", "latitude": 38.4089585, "longitude": -82.4267998, "subtypes": "Neurosurgeon"}, {"name": "Adams Frederick D", "address": "2900 1st Ave, Huntington, WV 25702", "city": "Huntington", "state": "West Virginia", "state_code": "WV", "phone": "+1 304-526-1031", "website": "", "rating": "", "reviews": "", "place_id": "ChIJ69_-xW0IRogRi6_eFQ7WRJk", "latitude": 38.432355, "longitude": -82.4006689, "subtypes": "Neurologist"}, {"name": "J. Paul Muizelaar, MD, PhD", "address": "1600 Medical Center Dr # B500, Huntington, WV 25701", "city": "Huntington", "state": "West Virginia", "state_code": "WV", "phone": "+1 304-691-1787", "website": "https://www.marshallhealth.org/find-a-provider/provider-details/%3FID%3D270", "rating": 4.3, "reviews": 6, "place_id": "ChIJFapFGCoIRogR-yMa82Cymnc", "latitude": 38.4089585, "longitude": -82.4267998, "subtypes": "Neurosurgeon"}, {"name": "Bernardo Monaco, MD", "address": "800 Ann St, Parkersburg, WV 26101", "city": "Parkersburg", "state": "West Virginia", "state_code": "WV", "phone": "+1 304-865-5530", "website": "https://wvumedicine.org/camden-clark/services/neurosurgery/%3Futm_source%3DGMBSocialClimb%26utm_medium%3DBernardoMonaco%252CMD", "rating": 4.9, "reviews": 54, "place_id": "ChIJqd0BhSRLSIgRn6rmq3iPl4g", "latitude": 39.2691522, "longitude": -81.5586191, "subtypes": "Neurosurgeon"}, {"name": "Yasuaki Harasaki, MD", "address": "800 Ann St, Parkersburg, WV 26101", "city": "Parkersburg", "state": "West Virginia", "state_code": "WV", "phone": "+1 304-873-4169", "website": "https://doctors.wvumedicine.org/profile/%3Fid%3D90027%26utm_source%3DGMBSocialClimb%26utm_medium%3DYasuakiHarasaki%252CMD%26scct%3DPN1d0f88bb08eecb91540c8657db11334a", "rating": 5, "reviews": 46, "place_id": "ChIJJ09sV6ZLSIgRV9mGk4mc8Vw", "latitude": 39.2691547, "longitude": -81.5586141, "subtypes": "Neurosurgeon"}, {"name": "Dr. Ruby J. Parveen, MD", "address": "3803 Emerson Ave, Parkersburg, WV 26104", "city": "Parkersburg", "state": "West Virginia", "state_code": "WV", "phone": "+1 304-485-5041", "website": "", "rating": "", "reviews": "", "place_id": "ChIJH79edTtLSIgR15ebaMwN49g", "latitude": 39.2894071, "longitude": -81.5309408, "subtypes": "Neurologist"}, {"name": "Gold Rammy S MD", "address": "1212 Garfield Ave STE 300, Parkersburg, WV 26101", "city": "Parkersburg", "state": "West Virginia", "state_code": "WV", "phone": "+1 304-865-3600", "website": "", "rating": "", "reviews": "", "place_id": "ChIJuQQzj3dLSIgR0A6A0VDcEDA", "latitude": 39.2735407, "longitude": -81.5570972, "subtypes": "Neurosurgeon"}, {"name": "Siva Pesala, MD", "address": "3803 Emerson Ave, Parkersburg, WV 26104", "city": "Parkersburg", "state": "West Virginia", "state_code": "WV", "phone": "+1 304-396-0148", "website": "http://wvumedicine.org/camden-clark/services/neurology/%3Futm_source%3DGMBSocialClimb%26utm_medium%3DSivaPesala%252CMD%26scct%3DPNf6aaf2b10d28abe80e0a662e718f13f5", "rating": 5, "reviews": 1, "place_id": "ChIJb3yuisBLSIgRemPKGo7YpOQ", "latitude": 39.2893787, "longitude": -81.53097509999999, "subtypes": "Neurologist"}, {"name": "Sara Frey, MD", "address": "3803 Emerson Ave, Parkersburg, WV 26104", "city": "Parkersburg", "state": "West Virginia", "state_code": "WV", "phone": "+1 304-865-5041", "website": "http://wvumedicine.org/camden-clark/services/neurology/", "rating": "", "reviews": "", "place_id": "ChIJO7jLZepLSIgREzyD6Rj8TUQ", "latitude": 39.2893787, "longitude": -81.53097509999999, "subtypes": "Neurologist"}, {"name": "Phong Vu", "address": "1 Medical Center Dr, Morgantown, WV 265061200", "city": "Morgantown", "state": "West Virginia", "state_code": "WV", "phone": "+1 304-293-4500", "website": "https://directory.hsc.wvu.edu/Profile/69210", "rating": 5, "reviews": 2, "place_id": "ChIJ__8_HAx7NYgRcMj4-K4DPeU", "latitude": 39.6534472, "longitude": -79.9574781, "subtypes": "Neurologist"}, {"name": "Dr. David B. Watson", "address": "1 Medical Center Dr, Morgantown, WV 26505", "city": "Morgantown", "state": "West Virginia", "state_code": "WV", "phone": "+1 304-293-3527", "website": "https://directory.hsc.wvu.edu/Profile/32432", "rating": 3, "reviews": 2, "place_id": "ChIJ4Q9QGQx7NYgRtpl0UqIf63c", "latitude": 39.6534123, "longitude": -79.9571335, "subtypes": "Neurologist"}, {"name": "Dr. Sanjay Bhatia, MD", "address": "Parking lot, 1 Stadium Drive F3 Eye, Center St, Morgantown, WV 26505", "city": "Morgantown", "state": "West Virginia", "state_code": "WV", "phone": "+1 304-598-6127", "website": "http://wvumedicine.org/", "rating": 4.7, "reviews": 12, "place_id": "ChIJdRc_oX17NYgRyU7BWD8M3Cg", "latitude": 39.6535384, "longitude": -79.9585271, "subtypes": "Neurosurgeon"}, {"name": "Brick John MD", "address": "1 Stadium Dr, Morgantown, WV 26506", "city": "Morgantown", "state": "West Virginia", "state_code": "WV", "phone": "+1 304-598-6127", "website": "http://wvumedicine.org/", "rating": 4.2, "reviews": 5, "place_id": "ChIJVVVVOXt7NYgRmYZEB7rYI9Y", "latitude": 39.6542135, "longitude": -79.9579167, "subtypes": "Neurologist"}, {"name": "Dr. Shitiz Sriwastava", "address": "1 Medical Center Dr, Morgantown, WV 26506", "city": "Morgantown", "state": "West Virginia", "state_code": "WV", "phone": "+1 304-598-4820", "website": "https://med.uth.edu/neurosciences/locations/uthealth-neurosciences-neurology/", "rating": 4, "reviews": 3, "place_id": "ChIJKy6dqA57NYgRHC3diiaqTVU", "latitude": 39.65391169999999, "longitude": -79.9577486, "subtypes": "Neurologist"}, {"name": "Riggs Jack E MD", "address": "1 Medical Center Dr, Morgantown, WV 26505", "city": "Morgantown", "state": "West Virginia", "state_code": "WV", "phone": "+1 304-293-1217", "website": "https://directory.hsc.wvu.edu/Profile/31580", "rating": 1.7, "reviews": 11, "place_id": "ChIJQYLYKgx7NYgR3-ByPRa2KuI", "latitude": 39.6534151, "longitude": -79.9573549, "subtypes": "Neurologist"}, {"name": "Dominika Lozowska", "address": "2199 Cheat Rd, Morgantown, WV 26508", "city": "Morgantown", "state": "West Virginia", "state_code": "WV", "phone": "+1 304-594-3258", "website": "https://weence.com/medical/doctors/morgantown/dominika-lozowska/", "rating": 5, "reviews": 1, "place_id": "ChIJVVWFlbhlNYgROSO9H5Fs9Xk", "latitude": 39.6738934, "longitude": -79.8532516, "subtypes": "Neurologist"}, {"name": "Dr. Laurie Gutmann, MD", "address": "1 Medical Center Dr, Morgantown, WV 26506", "city": "Morgantown", "state": "West Virginia", "state_code": "WV", "phone": "+1 304-293-2341", "website": "", "rating": 5, "reviews": 1, "place_id": "ChIJyfqpD4J8NYgRhburWRXyi1M", "latitude": 39.6534151, "longitude": -79.9573549, "subtypes": "Neurologist"}, {"name": "Dr. David P. Libell, MD", "address": "1 Stadium Drive, Morgantown, WV 26506", "city": "Morgantown", "state": "West Virginia", "state_code": "WV", "phone": "+1 304-293-2341", "website": "", "rating": 2, "reviews": 4, "place_id": "ChIJ____Wwl7NYgRjcHoQq_AUrk", "latitude": 39.6557667, "longitude": -79.95704289999999, "subtypes": "Neurologist"}, {"name": "Eric Seachrist", "address": "1 Medical Center Dr, Morgantown, WV 26506", "city": "Morgantown", "state": "West Virginia", "state_code": "WV", "phone": "+1 304-598-6127", "website": "https://directory.hsc.wvu.edu/Profile/40448", "rating": 1, "reviews": 3, "place_id": "ChIJKy6dqA57NYgRKZoGNGpZLj8", "latitude": 39.65391169999999, "longitude": -79.9577486, "subtypes": "Neurologist"}, {"name": "Jaynes Margaret MD", "address": "1 Medical Center Dr, Morgantown, WV 26506", "city": "Morgantown", "state": "West Virginia", "state_code": "WV", "phone": "+1 304-293-7331", "website": "https://directory.hsc.wvu.edu/Profile/30077", "rating": 5, "reviews": 2, "place_id": "ChIJVVVVOXt7NYgRR2kHLzEzRSM", "latitude": 39.6534151, "longitude": -79.9573549, "subtypes": "Pediatric neurologist"}, {"name": "Wondwosen Tadesse, MD", "address": "1200 J D Anderson Dr, Morgantown, WV 26505", "city": "Morgantown", "state": "West Virginia", "state_code": "WV", "phone": "+1 304-598-1200", "website": "https://www.monhealth.com/", "rating": "", "reviews": "", "place_id": "ChIJ7fIpS7t7NYgRNGbYvISFF8I", "latitude": 39.663593, "longitude": -79.9465508, "subtypes": "Neurologist"}, {"name": "Lindsey Jodi A MD", "address": "1 Medical Center Dr, Morgantown, WV 26506", "city": "Morgantown", "state": "West Virginia", "state_code": "WV", "phone": "+1 855-988-2273", "website": "", "rating": 5, "reviews": 2, "place_id": "ChIJ4Q9QGQx7NYgRZSVsHzdP7Rc", "latitude": 39.6534151, "longitude": -79.9573549, "subtypes": "Pediatric neurologist"}, {"name": "Christopher P. Cifarelli MD, PhD", "address": "1 Medical Center Dr, Morgantown, WV 26506", "city": "Morgantown", "state": "West Virginia", "state_code": "WV", "phone": "+1 304-293-5041", "website": "https://directory.hsc.wvu.edu/Profile/40050", "rating": 5, "reviews": 4, "place_id": "ChIJXZukHgx7NYgRJCmLtnpf6Ls", "latitude": 39.6534151, "longitude": -79.9573549, "subtypes": "Neurosurgeon"}, {"name": "Wondwosen Tadesse, MD", "address": "1000 Mon Health Medical Park Dr 1st floor, Morgantown, WV 26505", "city": "Morgantown", "state": "West Virginia", "state_code": "WV", "phone": "+1 304-594-3258", "website": "https://www.monhealth.com/main/neurology1", "rating": "", "reviews": "", "place_id": "ChIJ1Zcy2mh7NYgR5-H5TcsnG-o", "latitude": 39.657705, "longitude": -79.951359, "subtypes": "Neurologist"}, {"name": "Nicholas Brandmeir", "address": "33 Medical Center Dr, Morgantown, WV 26505", "city": "Morgantown", "state": "West Virginia", "state_code": "WV", "phone": "+1 304-293-3600", "website": "https://medicine.hsc.wvu.edu/neuroscience/faculty-labs/nicholas-brandmeir-md/", "rating": 5, "reviews": 1, "place_id": "ChIJa0fI3At7NYgREyRyUTPHRew", "latitude": 39.6533089, "longitude": -79.9600947, "subtypes": "Neurosurgeon"}, {"name": "Dr. Joseph L. Voelker, MD", "address": "Eye Center, Parking lot, 1 Stadium Drive 5th Floor, Morgantown, WV 26505", "city": "Morgantown", "state": "West Virginia", "state_code": "WV", "phone": "+1 304-598-6127", "website": "http://wvumedicine.org/", "rating": 4.5, "reviews": 2, "place_id": "ChIJdRc_oX17NYgRkv5qQuRvIQU", "latitude": 39.629526, "longitude": -79.95589679999999, "subtypes": "Neurosurgeon"}, {"name": "Tracy Lee Weimer, MD", "address": "1 Stadium Drive, Morgantown, WV 26506", "city": "Morgantown", "state": "West Virginia", "state_code": "WV", "phone": "+1 304-598-6127", "website": "", "rating": 5, "reviews": 1, "place_id": "ChIJyfqpD4J8NYgRV6Z3fxXlrF4", "latitude": 39.6557667, "longitude": -79.95704289999999, "subtypes": "Neurologist"}, {"name": "Dr. Ravi Shankar, MD", "address": "930 Chestnut Ridge Rd, Morgantown, WV 26505", "city": "Morgantown", "state": "West Virginia", "state_code": "WV", "phone": "+1 304-598-4214", "website": "", "rating": "", "reviews": "", "place_id": "ChIJJymtNhR7NYgRESnd_xy-syo", "latitude": 39.6547816, "longitude": -79.9556971, "subtypes": "Neurologist"}, {"name": "Zubeda Sheikh", "address": "1 Medical Center Dr, Morgantown, WV 26506", "city": "Morgantown", "state": "West Virginia", "state_code": "WV", "phone": "+1 304-293-1964", "website": "", "rating": "", "reviews": "", "place_id": "ChIJKy6dqA57NYgRi-upgnXU9Ek", "latitude": 39.65391169999999, "longitude": -79.9577486, "subtypes": "Neurologist"}, {"name": "David P. Libell, MD", "address": "1 Medical Center Dr, Morgantown, WV 26501", "city": "Morgantown", "state": "West Virginia", "state_code": "WV", "phone": "+1 304-598-4800", "website": "", "rating": 1, "reviews": 2, "place_id": "ChIJ314-TDh4NYgR4Kxw2d7TO54", "latitude": 39.6534472, "longitude": -79.9574781, "subtypes": "Neurologist"}, {"name": "Sean Coffey, PA-C", "address": "1200 J D Anderson Dr, Morgantown, WV 26505", "city": "Morgantown", "state": "West Virginia", "state_code": "WV", "phone": "+1 304-598-1200", "website": "https://www.monhealth.com/", "rating": "", "reviews": "", "place_id": "ChIJO-99DKV7NYgR63MSIuw5vkk", "latitude": 39.663593, "longitude": -79.9465508, "subtypes": "Neurologist"}, {"name": "Dr. Cheryl Smith", "address": "1 Medical Center Dr, Morgantown, WV 26506", "city": "Morgantown", "state": "West Virginia", "state_code": "WV", "phone": "+1 304-285-7101", "website": "", "rating": "", "reviews": "", "place_id": "ChIJKy6dqA57NYgRxUsQGwUWOpA", "latitude": 39.65391169999999, "longitude": -79.9577486, "subtypes": "Neurologist"}, {"name": "Javier Gonzalez, MD", "address": "1 Medical Center Dr, Morgantown, WV 26506", "city": "Morgantown", "state": "West Virginia", "state_code": "WV", "phone": "+1 304-598-6127", "website": "http://www.wvukids.com/", "rating": "", "reviews": "", "place_id": "ChIJ314-TDh4NYgRc5jz9cl-krA", "latitude": 39.6534151, "longitude": -79.95735479999999, "subtypes": "Neurologist"}, {"name": "Dr. Geetanjali Vajapey", "address": "1 Medical Center Dr, Morgantown, WV 26505", "city": "Morgantown", "state": "West Virginia", "state_code": "WV", "phone": "+1 304-293-2342", "website": "", "rating": "", "reviews": "", "place_id": "ChIJ4Q9QGQx7NYgRN2D-x6rYbZU", "latitude": 39.6534151, "longitude": -79.95735479999999, "subtypes": "Neurologist"}, {"name": "Dr. Frank R. Bittner", "address": "1 Medical Center Dr, Morgantown, WV 26505", "city": "Morgantown", "state": "West Virginia", "state_code": "WV", "phone": "+1 304-293-7401", "website": "", "rating": "", "reviews": "", "place_id": "ChIJ4Q9QGQx7NYgRwKwwu_Jt8-s", "latitude": 39.6533187, "longitude": -79.95734999999999, "subtypes": "Neurologist"}, {"name": "Dr. Amelia Adcock", "address": "1 Medical Center Dr, Morgantown, WV 26506", "city": "Morgantown", "state": "West Virginia", "state_code": "WV", "phone": "+1 304-285-7101", "website": "https://directory.hsc.wvu.edu/Profile/45988", "rating": "", "reviews": "", "place_id": "ChIJKy6dqA57NYgRoTH0Ec7tH-U", "latitude": 39.65391169999999, "longitude": -79.9577486, "subtypes": "Neurologist"}, {"name": "Dr. Vijayalakshmi Rajasekaran, MD", "address": "1 Medical Center Dr, Morgantown, WV 26505", "city": "Morgantown", "state": "West Virginia", "state_code": "WV", "phone": "+1 304-293-3527", "website": "", "rating": "", "reviews": "", "place_id": "ChIJ4Q9QGQx7NYgRZCKzqbvhX2s", "latitude": 39.6534151, "longitude": -79.95735479999999, "subtypes": "Neurologist"}, {"name": "Dr. Renee S. Moore, MD", "address": "1 Stadium Drive, Morgantown, WV 26506", "city": "Morgantown", "state": "West Virginia", "state_code": "WV", "phone": "+1 304-598-4800", "website": "", "rating": "", "reviews": "", "place_id": "ChIJ____Wwl7NYgRFvuJ86fHReg", "latitude": 39.654181, "longitude": -79.9594886, "subtypes": "Neurologist"}, {"name": "Dr. Adriana E. Palade, MD", "address": "1 Medical Center Dr, Morgantown, WV 26505", "city": "Morgantown", "state": "West Virginia", "state_code": "WV", "phone": "+1 304-293-1217", "website": "", "rating": "", "reviews": "", "place_id": "ChIJyfqpD4J8NYgRYcKJAv9oCvo", "latitude": 39.6534151, "longitude": -79.9573549, "subtypes": "Neurologist"}, {"name": "Dr. Ganesh V. Pawar, MD", "address": "1 Stadium Drive, Morgantown, WV 26506", "city": "Morgantown", "state": "West Virginia", "state_code": "WV", "phone": "+1 304-598-4800", "website": "https://directory.hsc.wvu.edu/Profile/31289", "rating": "", "reviews": "", "place_id": "ChIJ____Wwl7NYgRMDnhDM0pzrw", "latitude": 39.654181, "longitude": -79.9594886, "subtypes": "Neurologist"}, {"name": "Kukkillaya Radha MD", "address": "Hospital Dr, Logan, WV 25601", "city": "Logan", "state": "West Virginia", "state_code": "WV", "phone": "+1 304-831-1101", "website": "", "rating": 5, "reviews": 2, "place_id": "ChIJATe_VrJxT4gRrVQM4N9esu4", "latitude": 37.84610139999999, "longitude": -81.99425699999999, "subtypes": "Neurologist"}, {"name": "Yan Chaohua MD", "address": "20 Hospital Dr, Logan, WV 25601", "city": "Logan", "state": "West Virginia", "state_code": "WV", "phone": "+1 304-831-1101", "website": "", "rating": "", "reviews": "", "place_id": "ChIJJzIKH7NxT4gRWwUTlEKz618", "latitude": 37.8466855, "longitude": -81.9957408, "subtypes": "Neurologist"}, {"name": "Victor Jaramillo, MD", "address": "1690 Holden Rd, Logan, WV 25601", "city": "Logan", "state": "West Virginia", "state_code": "WV", "phone": "+1 304-831-1801", "website": "", "rating": "", "reviews": "", "place_id": "ChIJB355hwtxT4gRNlFHUd7qSEY", "latitude": 37.8331016, "longitude": -82.0363716, "subtypes": "Neurologist"}, {"name": "Joseph Joby MD", "address": "77 Hospital Dr, Logan, WV 25601", "city": "Logan", "state": "West Virginia", "state_code": "WV", "phone": "+1 304-792-1259", "website": "", "rating": "", "reviews": "", "place_id": "ChIJza9QHrNxT4gR8aDFqpdPiY0", "latitude": 37.8466781, "longitude": -81.99576909999999, "subtypes": "Neurologist"}, {"name": "Rana Khalid R", "address": "122 12th St Ext, Princeton, WV 24740", "city": "Princeton", "state": "West Virginia", "state_code": "WV", "phone": "+1 304-327-2976", "website": "", "rating": "", "reviews": "", "place_id": "ChIJjUBDJbdrTogRbjAy_uGiK18", "latitude": 37.3630547, "longitude": -81.1121881, "subtypes": "Neurologist"}, {"name": "Khalid Razzaq, MD", "address": "1424 Stadium Dr, Bluefield, WV 24701", "city": "Bluefield", "state": "West Virginia", "state_code": "WV", "phone": "+1 304-327-5710", "website": "", "rating": 3.4, "reviews": 5, "place_id": "ChIJI5Jx5MY-TogR3zfKS8hO0Dk", "latitude": 37.2531555, "longitude": -81.2371624, "subtypes": "Neurologist"}, {"name": "Rama Rosalyn H", "address": "500 Cherry St # A, Bluefield, WV 24701", "city": "Bluefield", "state": "West Virginia", "state_code": "WV", "phone": "+1 304-327-1100", "website": "", "rating": "", "reviews": "", "place_id": "ChIJAzxz6MM-TogR1GZZxH-olZE", "latitude": 37.2559184, "longitude": -81.2341716, "subtypes": "Neurologist"}, {"name": "Panos Ignatiadis", "address": "147 Willow Tree Wy, Hurricane, WV 25526", "city": "Hurricane", "state": "West Virginia", "state_code": "WV", "phone": "+1 304-525-6905", "website": "", "rating": 5, "reviews": 1, "place_id": "ChIJ__9PGkCySIgRX7DxjowpVHs", "latitude": 38.4431114, "longitude": -82.018362, "subtypes": "Neurosurgeon"}, {"name": "Dr. Srinivasan Govindan, MD", "address": "1 Medical Park Rd, Wheeling, WV 26003", "city": "Wheeling", "state": "West Virginia", "state_code": "WV", "phone": "+1 304-242-2503", "website": "", "rating": 5, "reviews": 2, "place_id": "ChIJqTrollPaNYgRmvxEpX0pty0", "latitude": 40.0592066, "longitude": -80.6837956, "subtypes": "Neurologist"}, {"name": "Paul B. Ferguson, MD", "address": "1340 Hal Greer Boulevard Building 2, Suite #4000, Huntington, WV 25701", "city": "Huntington", "state": "West Virginia", "state_code": "WV", "phone": "+1 304-691-1787", "website": "https://www.marshallhealth.org/find-a-provider/provider-details/%3FID%3D58", "rating": 4.9, "reviews": 45, "place_id": "ChIJ3a5UGyoIRogRmZWZNntttQU", "latitude": 38.40953349999999, "longitude": -82.4270298, "subtypes": "Neurologist"}]