[{"name": "Dr. Steven J. Beer, MD", "address": "201 14th St Suite 848, Wheatland, WY 82201", "city": "Wheatland", "state": "Wyoming", "state_code": "WY", "phone": "+1 307-322-6408", "website": "", "rating": "", "reviews": "", "place_id": "ChIJXbVwJ0LXZYcRJbTyElfLp5A", "latitude": 42.04982709999999, "longitude": -104.9605663, "subtypes": "Neurologist"}, {"name": "Harbans Hans, MD", "address": "1101 W Spruce St, Rawlins, WY 82301", "city": "Rawlins", "state": "Wyoming", "state_code": "WY", "phone": "+1 307-324-5899", "website": "", "rating": "", "reviews": "", "place_id": "ChIJf16-VoEBXYcRAFwBqGDW6k4", "latitude": 41.7889957, "longitude": -107.248677, "subtypes": "Neurologist"}, {"name": "Peter Crane, MD", "address": "105 Wyoming St, Lander, WY 82520", "city": "Lander", "state": "Wyoming", "state_code": "WY", "phone": "+1 307-332-5886", "website": "", "rating": 4.6, "reviews": 7, "place_id": "ChIJAWmaVpMBWYcRGbB_B_d6bnU", "latitude": 42.8231806, "longitude": -108.7302983, "subtypes": "Neurologist"}, {"name": "Michael Swenson", "address": "745 Buena Vista Dr, Lander, WY 82520", "city": "Lander", "state": "Wyoming", "state_code": "WY", "phone": "+1 307-332-2941", "website": "", "rating": "", "reviews": "", "place_id": "ChIJVVWVaOsBWYcRNU34V-SckUI", "latitude": 42.8248549, "longitude": -108.7312326, "subtypes": "Neurologist"}, {"name": "Prachi Pawar", "address": "1180 College Dr, Rock Springs, WY 82901", "city": "Rock Springs", "state": "Wyoming", "state_code": "WY", "phone": "+1 307-212-7570", "website": "http://www.sweetwatermemorial.com/", "rating": 5, "reviews": 1, "place_id": "ChIJf94nyeFgWocR60ymS6IpKA0", "latitude": 41.5841857, "longitude": -109.2360691, "subtypes": "Neurologist"}, {"name": "Rindflesh Mark A MD", "address": "1124 College Dr, Rock Springs, WY 82901", "city": "Rock Springs", "state": "Wyoming", "state_code": "WY", "phone": "+1 307-352-6680", "website": "http://www.swcounseling.org/", "rating": "", "reviews": "", "place_id": "ChIJCXB7mhhhWocRnuavoJHBis4", "latitude": 41.5834444, "longitude": -109.2347967, "subtypes": "Neurologist"}, {"name": "Bromberg Mark B MD", "address": "625 E Broadway Ave, Jackson, WY 83001", "city": "Jackson", "state": "Wyoming", "state_code": "WY", "phone": "+1 307-733-3636", "website": "https://www.stjohns.health/find-a-provider/mark-b-bromberg-md-phd/", "rating": "", "reviews": "", "place_id": "ChIJTb93fk8aU1MRWfXVS9xpBog", "latitude": 43.4808506, "longitude": -110.7499757, "subtypes": "Neurologist"}, {"name": "Santiago Angelo MD", "address": "5820 E 2nd St, Casper, WY 82609", "city": "Casper", "state": "Wyoming", "state_code": "WY", "phone": "+1 307-234-9037", "website": "https://m.facebook.com/pages/Central-Wyoming-Neurology-LLC/123570381033550", "rating": 4, "reviews": 28, "place_id": "ChIJVYVD_US5YIcR-HMXc6dNeUs", "latitude": 42.844744, "longitude": -106.238634, "subtypes": "Neurologist"}, {"name": "Wyoming Neurologic Associates: Clark Elizabeth MD", "address": "McKinley building, 1020 E 2nd St #100, Casper, WY 82601", "city": "Casper", "state": "Wyoming", "state_code": "WY", "phone": "+1 307-265-4343", "website": "http://www.wyoneuro.com/", "rating": "", "reviews": "", "place_id": "ChIJB2l6u5y8YIcRkvQ2U33On4c", "latitude": 42.8489539, "longitude": -106.3117292, "subtypes": "Neurologist"}, {"name": "Michael Ian Stanley, MD", "address": "1020 E 2nd St Suite 201, Casper, WY 82601", "city": "Casper", "state": "Wyoming", "state_code": "WY", "phone": "+1 307-233-0250", "website": "https://doctors.bannerhealth.com/provider/Michael%2BStanley/2172226%3Futm_source%3Dgmb%26utm_medium%3Dlisting%26utm_campaign%3Ddoc_onlinescheduling%26y_source%3D1_NTUyOTE0OTEtNzE1LWxvY2F0aW9uLndlYnNpdGU%253D", "rating": 5, "reviews": 3, "place_id": "ChIJ0TRm7W-9YIcRZQrsqPVqBsA", "latitude": 42.8489594, "longitude": -106.3117519, "subtypes": "Neurosurgeon"}, {"name": "Null-Clark Elizabeth A MD", "address": "1233 E 2nd St, Casper, WY 82601", "city": "Casper", "state": "Wyoming", "state_code": "WY", "phone": "+1 307-577-7201", "website": "http://wyomingmedicalcenter.org/", "rating": "", "reviews": "", "place_id": "ChIJK5pYDYO8YIcRklaxst9SN0w", "latitude": 42.8485946, "longitude": -106.3088525, "subtypes": "Neurologist"}, {"name": "Patrick Cindrich, MD, FAANS", "address": "196 Arrowhead Dr # 5, Evanston, WY 82930", "city": "Evanston", "state": "Wyoming", "state_code": "WY", "phone": "+1 307-789-9355", "website": "https://uintamedicalgroup.com/providers/neurosurgery/patrick-cindrich/", "rating": 5, "reviews": 1, "place_id": "ChIJt7uClVx5UYcRYHYWLDKWZ-Y", "latitude": 41.2429554, "longitude": -110.9915188, "subtypes": "Neurologist"}, {"name": "Taher Mohammad E MD", "address": "196 Arrowhead Dr #5, Evanston, WY 82930", "city": "Evanston", "state": "Wyoming", "state_code": "WY", "phone": "+1 307-783-8123", "website": "http://www.uintamedicalgroup.com/", "rating": "", "reviews": "", "place_id": "ChIJYS2cvM54UYcR4cPPxoyCWhU", "latitude": 41.2431587, "longitude": -110.9914854, "subtypes": "Neurologist"}, {"name": "Angelo M Santiago, MD", "address": "700 Center St, Douglas, WY 82633", "city": "Douglas", "state": "Wyoming", "state_code": "WY", "phone": "+1 307-234-9037", "website": "https://www.conversehospital.com/provider-directory/providers/dr-angelo-m-santiago/", "rating": 5, "reviews": 1, "place_id": "ChIJUbuNddxLYYcRsp8H6y6Za24", "latitude": 42.7603902, "longitude": -105.3784684, "subtypes": "Neurologist"}, {"name": "Santosa Ronny MD", "address": "Medical Office Building, 111 S 5th St, Douglas, WY 82633", "city": "Douglas", "state": "Wyoming", "state_code": "WY", "phone": "+1 307-358-2122", "website": "http://www.conversehospital.com/", "rating": "", "reviews": "", "place_id": "ChIJ_ZafpcdKYYcRGfnqOO8s0tk", "latitude": 42.758913, "longitude": -105.3807271, "subtypes": "Neurologist"}, {"name": "Tracie A. Caller, MD, MPH, FAAN", "address": "2301 House Ave Suite 201, Cheyenne, WY 82001", "city": "Cheyenne", "state": "Wyoming", "state_code": "WY", "phone": "+1 307-638-7757", "website": "https://cheyenneregional.org/provider/caller-tracie-a-md-mph-faan/", "rating": 4.9, "reviews": 294, "place_id": "ChIJaUZARek6b4cR5mNWV5KfyuI", "latitude": 41.14038679999999, "longitude": -104.8154645, "subtypes": "Neurologist"}, {"name": "Liam Clark, MD", "address": "2301 House Ave Suite 201, Cheyenne, WY 82001", "city": "Cheyenne", "state": "Wyoming", "state_code": "WY", "phone": "+1 307-638-7757", "website": "https://www.cheyenneregional.org/provider/clark-liam-md/", "rating": 4.8, "reviews": 131, "place_id": "ChIJw_nWnrU7b4cRYo60bTfARv0", "latitude": 41.1404037, "longitude": -104.8156354, "subtypes": "Neurologist"}, {"name": "Dr. Timothy Allen", "address": "2003 Bluegrass Cir, Cheyenne, WY 82009", "city": "Cheyenne", "state": "Wyoming", "state_code": "WY", "phone": "+1 307-432-3924", "website": "", "rating": 4.2, "reviews": 5, "place_id": "ChIJ__-_RAc7b4cRfTMHBVk4bEg", "latitude": 41.158237, "longitude": -104.7919527, "subtypes": "Neurologist"}, {"name": "UCHealth - Mary Kerber MD", "address": "5050 Powderhouse Rd, Cheyenne, WY 82009", "city": "Cheyenne", "state": "Wyoming", "state_code": "WY", "phone": "+1 307-634-1311", "website": "https://www.uchealth.org/provider/mary-l-kerber-md-psychiatry-and-neurology/", "rating": 5, "reviews": 2, "place_id": "ChIJ3UhBcVA6b4cROuXF18gEye8", "latitude": 41.165232, "longitude": -104.8101688, "subtypes": "Neurologist"}, {"name": "Tracie Caller", "address": "4116 Laramie St, Cheyenne, WY 820011969", "city": "Cheyenne", "state": "Wyoming", "state_code": "WY", "phone": "+1 307-634-9311", "website": "https://www.cheyenneregional.org/provider/caller-tracie-a-md-mph-faan/", "rating": "", "reviews": "", "place_id": "ChIJ81d362Q7b4cRqUhxJwgj3LQ", "latitude": 41.1518108, "longitude": -104.7595485, "subtypes": "Neurologist"}, {"name": "Celina Tolge, MD - Medical Specialty Clinic", "address": "2301 House Ave Suite 201, Cheyenne, WY 82001", "city": "Cheyenne", "state": "Wyoming", "state_code": "WY", "phone": "+1 307-638-7757", "website": "", "rating": 5, "reviews": 2, "place_id": "ChIJmxFqRek6b4cR7naP90E_MtQ", "latitude": 41.1403972, "longitude": -104.8154543, "subtypes": "Neurologist"}, {"name": "Joseph Watkins, MD", "address": "2301 House Ave Suite 201, Cheyenne, WY 82001", "city": "Cheyenne", "state": "Wyoming", "state_code": "WY", "phone": "+1 307-638-7757", "website": "https://www.cheyenneregional.org/provider/watkins-joseph-md/", "rating": "", "reviews": "", "place_id": "ChIJZy72Wuk6b4cRihBFr5m9QrM", "latitude": 41.1404037, "longitude": -104.8156354, "subtypes": "Neurologist"}, {"name": "UCHealth Neurology Clinic - Laramie", "address": "3116 E Willett Dr Suite 5B, Laramie, WY 82072", "city": "Laramie", "state": "Wyoming", "state_code": "WY", "phone": "+1 855-472-5806", "website": "https://www.uchealth.org/locations/uchealth-neurology-laramie/", "rating": 1, "reviews": 2, "place_id": "ChIJ5WAZEGeQaIcRFX_HuvEEQAk", "latitude": 41.3130344, "longitude": -105.5557552, "subtypes": "Neurologist"}, {"name": "Hoskinson Health Neurology", "address": "469 WY-50 room 448, Gillette, WY 82718", "city": "Gillette", "state": "Wyoming", "state_code": "WY", "phone": "+1 307-223-5118", "website": "https://hoskinsonhealth.com/services/neurology", "rating": "", "reviews": "", "place_id": "ChIJpRPgwM6VNFMR2HueomhxrYk", "latitude": 44.2501733, "longitude": -105.5483625, "subtypes": "Neurologist"}, {"name": "Romer Mosquera, MD", "address": "501 South Burma Avenue, Gillette, WY 82716", "city": "Gillette", "state": "Wyoming", "state_code": "WY", "phone": "+1 307-688-3636", "website": "http://www.cchwyo.org/painmgt", "rating": 3.7, "reviews": 3, "place_id": "ChIJ_VxnE0CUNFMRmCETTLmx7jk", "latitude": 44.2903593, "longitude": -105.5181863, "subtypes": "Neurologist"}]